     3.02           OBSERVATION DATA    G (GPS)             RINEX VERSION / TYPE
teqc  2015Jun23     UNAVCO Archive Ops  20211213 075238 UTC PGM / RUN BY / DATE
Solaris x86 5.10|AMD64|cc SC5.8 -xarch=amd64|=+|=+          COMMENT
BIT 2 OF LLI FLAGS DATA COLLECTED UNDER A/S CONDITION       COMMENT
input file: abbz201507190000a.tgd                           COMMENT
RINEX file created by UNAVCO GPS Archive.                   COMMENT
For more information contact archive@unavco.org             COMMENT
Monument ID: 14840                                          COMMENT
UNAVCO 4-char name:   ABBZ                                  COMMENT
4-char name from Log or data file: ABBZ                     COMMENT
Monument location: -77.4569 166.9089 1734.2656              COMMENT
Visit ID: 112562                                            COMMENT
End of DB comments                                          COMMENT
 SNR is mapped to RINEX snr flag value [0-9]                COMMENT
  L1 & L2: min(max(int(snr_dBHz/6), 0), 9)                  COMMENT
ABBZ                                                        MARKER NAME
GEODETIC                                                    MARKER TYPE
Kyle, Philip        NMT                                     OBSERVER / AGENCY
5115K74978          TRIMBLE NETR9       4.85                REC # / TYPE / VERS
12561303            TRM41249.00     NONE                    ANT # / TYPE
 -1353856.8945   314830.6876 -6205742.1059                  APPROX POSITION XYZ
        0.0000        0.0000        0.0000                  ANTENNA: DELTA H/E/N
G    4 C1C C2W L1P L2W                                      SYS / # / OBS TYPES
    15.000                                                  INTERVAL
  2015    07    19    00    00   00.0000000     GPS         TIME OF FIRST OBS
  2015    07    19    23    59   45.0000000     GPS         TIME OF LAST OBS
    30                                                      # OF SATELLITES
   G01  1941  1854  1941  1854                              PRN / # OF OBS
   G02  1922  1802  1922  1802                              PRN / # OF OBS
   G03  1926  1882  1926  1882                              PRN / # OF OBS
   G04  1982  1912  1982  1912                              PRN / # OF OBS
   G05  2025  2002  2025  2002                              PRN / # OF OBS
   G06  2034  1976  2034  1976                              PRN / # OF OBS
   G07  1994  1943  1994  1943                              PRN / # OF OBS
   G09  1922  1887  1922  1887                              PRN / # OF OBS
   G11  2011  1908  2011  1908                              PRN / # OF OBS
   G12  1977  1910  1977  1910                              PRN / # OF OBS
   G13  1947  1793  1947  1793                              PRN / # OF OBS
   G14  1904  1763  1904  1763                              PRN / # OF OBS
   G15  2041  1997  2041  1997                              PRN / # OF OBS
   G16  2061  2008  2061  2008                              PRN / # OF OBS
   G17  1881  1800  1881  1800                              PRN / # OF OBS
   G18  1812  1587  1812  1587                              PRN / # OF OBS
   G19  2079  2015  2079  2015                              PRN / # OF OBS
   G20  1956  1817  1956  1817                              PRN / # OF OBS
   G21  1913  1757  1913  1757                              PRN / # OF OBS
   G22  1926  1855  1926  1855                              PRN / # OF OBS
   G23  1979  1891  1979  1891                              PRN / # OF OBS
   G24  1972  1865  1972  1865                              PRN / # OF OBS
   G25  1945  1820  1945  1820                              PRN / # OF OBS
   G26  2012  1979  2012  1979                              PRN / # OF OBS
   G27  1936  1918  1936  1918                              PRN / # OF OBS
   G28  1841  1702  1841  1702                              PRN / # OF OBS
   G29  1995  1905  1995  1905                              PRN / # OF OBS
   G30  2001  1921  2001  1921                              PRN / # OF OBS
   G31  2021  1952  2021  1952                              PRN / # OF OBS
   G32  1996  1871  1996  1871                              PRN / # OF OBS
                                                            END OF HEADER
> 2015 07 19 00 00 00.0000000  0 10
G04  23299637.109    23299640.129 5 122440368.761 8  95408123.50345
G11  24033202.547    24033204.746 4 126295265.169 7  98411944.66444
G14  24191714.477                   127128337.81515
G15  22621249.406    22621251.781 5 118875481.704 7  92630241.51045
G18  20928744.125    20928745.914 6 109981293.845 8  85699702.35446
G19  22397361.672    22397362.699 6 117698935.043 8  91713448.20746
G22  20822467.477    20822467.918 6 109422791.431 8  85264519.77646
G24  22907727.289    22907732.887 4 120380962.929 7  93803351.19444
G27  23827164.883    23827169.719 3 125212588.537 6  97568267.12843
G28  21969433.359    21969435.793 5 115450099.390 7  89961166.65045
> 2015 07 19 00 00 15.0000000  0 10
G04  23291749.547    23291752.742 5 122398917.707 7  95375823.91845
G11  24026031.125    24026033.031 4 126257577.694 7  98382577.84744
G14  24180210.781                   127067881.264 5
G15  22628337.242    22628339.266 5 118912725.675 7  92659262.77245
G18  20934333.813    20934336.246 6 110010666.967 8  85722590.50046
G19  22400880.813    22400881.781 5 117717428.744 8  91727858.87245
G22  20819411.414    20819411.973 6 109406732.676 8  85252006.49646
G24  22900235.117    22900240.539 4 120341589.564 7  93772670.68244
G27  23836772.516    23836777.645 4 125263073.782 6  97607606.24244
G28  21968758.633    21968760.422 5 115446554.388 7  89958404.31145
> 2015 07 19 00 00 30.0000000  0 10
G04  23283877.297    23283880.375 4 122357552.189 7  95343590.93044
G11  24018874.766    24018876.965 4 126219971.924 7  98353274.58244
G14  24168712.734                   127007465.19715
G15  22635444.398    22635446.598 5 118950076.096 7  92688367.04045
G18  20939950.516    20939952.715 6 110040183.010 8  85745590.01346
G19  22404428.695    22404429.488 6 117736070.908 8  91742385.22346
G22  20816384.133    20816384.867 6 109390823.877 8  85239610.04646
G24  22892762.570    22892768.402 4 120302324.817 7  93742074.83244
G27  23846393.109    23846398.531 3 125313633.519 6  97647003.44343
G28  21968120.703    21968122.609 5 115443201.070 7  89955791.35045
> 2015 07 19 00 00 45.0000000  0 10
G04  23276022.313    23276025.977 5 122316272.694 7  95311425.01545
G11  24011734.203    24011736.227 4 126182448.571 7  98324035.65344
G14  24157223.352                   126947089.693 6
G15  22642572.070    22642574.504 5 118987532.597 7  92717553.90945
G18  20945594.133    20945595.746 5 110069841.848 8  85768700.76245
G19  22408004.008    22408005.035 6 117754861.428 8  91757027.22546
G22  20813385.258    20813386.227 6 109375065.076 8  85227330.38946
G24  22885312.391    22885318.340 5 120263169.524 6  93711564.24445
G27  23856029.352    23856033.250 3 125364267.385 6  97686458.44243
G28  21967518.930    21967520.953 5 115440039.526 7  89953327.81045
> 2015 07 19 00 01 00.0000000  0 10
G04  23268183.570    23268187.645 5 122275079.911 8  95279326.81445
G11  24004609.578    24004611.660 4 126145007.994 7  98294861.18344
G14  24145742.875                   126886755.80116
G15  22649720.680    22649722.645 5 119025095.578 7  92746823.77545
G18  20951265.672    20951267.344 6 110099643.820 8  85791923.04346
G19  22411608.328    22411609.355 5 117773800.504 8  91771784.94945
G22  20810415.102    20810415.602 6 109359457.391 8  85215168.65046
G24  22877881.383    22877887.508 4 120224124.043 7  93681139.22144
G27  23865679.164    23865683.121 3 125414975.441 6  97725971.20843
G28  21966953.742    21966955.883 5 115437070.202 8  89951014.05545
> 2015 07 19 00 01 15.0000000  0 10
G04  23260360.984    23260365.000 5 122233972.982 8  95247295.44545
G11  23997500.695    23997502.426 4 126107649.615 7  98265750.76144
G14  24134269.227                   126826462.61315
G15  22656888.578    22656890.484 5 119062763.825 7  92776175.66845
G18  20956964.000    20956965.496 6 110129587.725 8  85815255.92846
G19  22415240.680    22415240.828 6 117792886.956 8  91786657.49446
G22  20807473.406    20807474.492 6 109343999.141 8  85203123.15646
G24  22870472.438    22870478.270 4 120185188.123 7  93650799.54844
G27  23875342.016    23875345.855 3 125465756.383 6  97765540.74243
G28  21966425.500    21966426.996 5 115434292.138 8  89948849.32145
> 2015 07 19 00 01 30.0000000  0 10
G04  23252555.695    23252559.418 5 122192953.348 7  95215332.03145
G11  23990407.109    23990410.539 4 126070374.495 7  98236705.17344
G14  24122802.195                   126766211.628 6
G15  22664076.227    22664078.836 5 119100538.147 7  92805610.22945
G18  20962689.055    20962690.961 6 110159674.413 8  85838700.13846
G19  22418900.711    22418901.328 5 117812121.865 8  91801645.76545
G22  20804561.023    20804561.934 6 109328692.108 8  85191195.50446
G24  22863084.156    22863089.578 4 120146362.673 7  93620545.96444
G27  23885018.859    23885023.227 3 125516610.893 6  97805167.62243
G28  21965932.633    21965934.480 5 115431706.429 7  89946834.48045
> 2015 07 19 00 01 45.0000000  0 10
G04  23244766.164    23244769.594 5 122152020.601 7  95183436.22845
G11  23983329.641    23983332.367 4 126033182.804 7  98207724.64144
G14  24111346.555                   126706003.04816
G15  22671284.234    22671287.195 5 119138417.662 7  92835126.73245
G18  20968441.094    20968443.410 6 110189903.035 8  85862254.94146
G19  22422589.484    22422589.984 5 117831504.410 8  91816749.09045
G22  20801676.906    20801677.816 6 109313536.143 8  85179385.64546
G24  22855717.594    22855722.664 4 120107647.854 7  93590378.60344
G27  23894710.555    23894714.395 3 125567538.193 6  97844851.21443
G28  21965477.852    21965479.523 5 115429312.934 7  89944969.45845
> 2015 07 19 00 02 00.0000000  0 10
G04  23236993.828    23236997.199 5 122111175.620 7  95151609.02245
G11  23976268.086    23976270.344 4 125996074.532 7  98178809.07644
G14  24099897.578                   126645836.62015
G15  22678512.539    22678515.266 5 119176402.180 7  92864725.07745
G18  20974220.609    20974222.516 6 110220273.443 8  85885920.21446
G19  22426305.859    22426306.711 6 117851034.522 8  91831967.37946
G22  20798821.539    20798822.156 6 109298531.181 8  85167693.50546
G24  22848370.188    22848376.605 5 120069043.766 7  93560297.51445
G27  23904415.789    23904418.574 3 125618537.923 6  97884591.25843
G28  21965058.805    21965060.594 5 115427111.413 7  89943254.02745
> 2015 07 19 00 02 15.0000000  0 10
G04  23229237.797    23229241.168 5 122070418.505 7  95119850.20445
G11  23969223.016    23969224.922 4 125959050.327 7  98149959.08044
G14  24088456.273                   126585713.000 5
G15  22685760.391    22685763.703 5 119214491.752 7  92894405.24645
G18  20980026.789    20980028.871 6 110250785.656 8  85909695.99946
G19  22430050.141    22430051.109 6 117870712.438 8  91847300.82746
G22  20795994.969    20795995.879 6 109283677.532 8  85156119.23846
G24  22841045.094    22841051.805 5 120030551.153 7  93530303.27845
G27  23914133.531    23914138.602 3 125669610.015 6  97924387.66743
G28  21964676.859    21964678.297 5 115425102.074 8  89941688.30345
> 2015 07 19 00 02 30.0000000  0 10
G04  23221498.961    23221502.156 4 122029749.330 7  95088159.94044
G11  23962193.875    23962195.430 4 125922110.156 7  98121174.55644
G14  24077024.352    24077026.199 2 126525632.525 5  98591386.31852
G15  22693029.023    22693031.867 5 119252685.881 7  92924166.89645
G18  20985859.750    20985861.949 6 110281438.915 8  85933581.63746
G19  22433823.422    22433823.746 6 117890537.690 8  91862749.12246
G22  20793197.273    20793198.594 6 109268975.090 8  85144662.74446
G24  22833742.414    22833748.539 4 119992169.954 7  93500395.84644
G27  23923866.758    23923870.480 3 125720753.924 6  97964240.08343
G28  21964330.633    21964332.246 5 115423284.701 7  89940272.17745
> 2015 07 19 00 02 45.0000000  0 10
G04  23213776.086    23213779.516 5 121989168.220 7  95056538.33345
G11  23955180.367    23955182.625 4 125885254.060 7  98092455.51944
G14  24065599.297    24065602.727 2 126465595.386 5  98544604.12242
G15  22700317.141    22700319.574 5 119290984.123 7  92954009.65145
G18  20991719.859    20991721.590 6 110312232.958 8  85957576.97846
G19  22437623.070    22437624.156 6 117910509.732 8  91878311.75346
G22  20790428.398    20790429.426 6 109254423.851 8  85133324.07446
G24  22826459.484    22826465.375 4 119953900.380 7  93470575.39344
G27  23933612.383    23933616.281 3 125771969.069 6  98004147.99543
G28  21964021.398    21964023.129 5 115421659.300 7  89939005.64145
> 2015 07 19 00 03 00.0000000  0 10
G04  23206070.781    23206074.914 4 121948675.766 7  95024985.76944
G11  23948182.703    23948184.141 4 125848482.857 7  98063802.65644
G14  24054182.695    24054186.594 2 126405602.136 5  98497856.04342
G15  22707624.500    22707627.344 5 119329386.407 7  92983933.46345
G18  20997606.695    20997608.367 6 110343168.194 8  85981682.33046
G19  22441451.641    22441452.551 6 117930629.280 8  91893989.47346
G22  20787688.031    20787688.648 6 109240024.421 8  85122103.78346
G24  22819198.719    22819204.551 5 119915743.221 7  93440842.54145
G27  23943372.117    23943375.547 3 125823255.367 6  98044111.32043
G28  21963748.375    21963750.047 5 115420226.213 7  89937888.92645
> 2015 07 19 00 03 15.0000000  0 10
G04  23198382.289    23198385.836 4 121908271.977 7  94993502.24244
G11  23941201.500    23941203.348 4 125811796.319 7  98035215.76544
G14  24042775.430    24042778.273 2 126345653.039 5  98451142.45542
G15  22714951.969    22714955.047 5 119367892.480 7  93013938.17545
G18  21003520.188    21003522.328 5 110374243.937 8  86005897.19545
G19  22445307.820    22445308.789 5 117950895.402 8  91909781.30545
G22  20784976.570    20784977.656 6 109225776.518 8  85111001.52246
G24  22811959.016    22811965.023 5 119877698.351 7  93411197.22745
G27  23953144.711    23953148.434 3 125874612.296 6  98084129.67443
G28  21963512.125    21963514.090 4 115418985.286 7  89936921.96844
> 2015 07 19 00 03 30.0000000  0 10
G04  23190710.641    23190714.656 5 121867957.272 7  94962088.11745
G11  23934236.336    23934238.125 4 125775194.698 7  98006695.01844
G14  24031375.305    24031379.203 2 126285748.258 5  98404463.31042
G15  22722299.633    22722302.418 5 119406502.091 7  93044023.56845
G18  21009460.000    21009461.848 6 110405459.944 8  86030221.38246
G19  22449192.328    22449193.180 6 117971308.015 8  91925687.26146
G22  20782294.500    20782295.117 6 109211680.292 8  85100017.46246
G24  22804741.234    22804746.656 5 119839766.106 7  93381639.64245
G27  23962930.977    23962935.754 3 125926039.614 6  98124202.87743
G28  21963313.164    21963314.309 5 115417936.458 7  89936104.65745
> 2015 07 19 00 03 45.0000000  0 10
G04  23183056.359    23183060.492 5 121827732.001 7  94930743.75445
G11  23927287.648    23927289.438 4 125738678.343 7  97978240.77644
G14  24019985.070    24019989.086 2 126225888.118 5  98357818.94142
G15  22729665.914    22729669.168 5 119445214.769 7  93074189.28245
G18  21015426.953    21015428.859 6 110436815.789 8  86054654.50346
G19  22453105.008    22453105.684 5 117991866.837 8  91941707.11045
G22  20779640.945    20779641.914 6 109197735.915 8  85089151.74846
G24  22797543.922    22797549.578 5 119801946.916 7  93352170.17145
G27  23972729.734    23972735.215 3 125977536.834 6  98164330.57043
G28  21963149.867    21963151.598 5 115417079.725 7  89935437.03145
> 2015 07 19 00 04 00.0000000  0 10
G04  23175418.531    23175422.430 5 121787596.188 7  94899469.08945
G11  23920354.359    23920357.320 4 125702247.309 7  97949852.94644
G14  24008602.797    24008607.164 2 126166073.092 5  98311209.83842
G15  22737052.211    22737055.172 5 119484030.352 7  93104435.16745
G18  21021420.305    21021422.445 6 110468311.316 8  86079196.45246
G19  22457044.883    22457045.676 5 118012572.108 8  91957841.12745
G22  20777016.344    20777017.664 6 109183943.396 8  85078404.36146
G24  22790369.359    22790375.074 4 119764240.968 7  93322788.92944
G27  23982542.719    23982548.258 3 126029103.557 6  98204512.41443
G28  21963023.422    21963025.270 5 115416415.206 7  89934919.21845
> 2015 07 19 00 04 15.0000000  0 10
G04  23167797.938    23167801.895 5 121747550.153 7  94868264.34745
G11  23913438.922    23913440.301 4 125665902.128 7  97921532.05444
G14  23997228.406    23997232.773 2 126106303.286 5  98264635.89142
G15  22744458.070    22744461.324 5 119522948.719 7  93134761.12945
G18  21027440.461    21027442.602 5 110499946.232 8  86103847.01145
G19  22461012.281    22461013.484 5 118033423.712 8  91974089.27445
G22  20774420.695    20774421.488 6 109170302.820 8  85067775.34546
G24  22783216.047    22783220.941 4 119726648.604 7  93293496.19644
G27  23992368.344    23992373.707 3 126080739.595 6  98244748.27143
G28  21962933.375    21962935.105 4 115415942.878 7  89934551.17244
> 2015 07 19 00 04 30.0000000  0 10
G04  23160194.477    23160198.668 5 121707594.195 7  94837129.82045
G11  23906538.531    23906540.906 4 125629642.618 7  97893277.88744
G14  23985864.234    23985867.488 2 126046579.084 5  98218097.59042
G15  22751883.461    22751886.480 5 119561969.453 7  93165166.89545
G18  21033486.867    21033489.477 6 110531720.147 8  86128605.88546
G19  22465007.969    22465008.996 6 118054421.010 8  91990450.88546
G22  20771853.859    20771854.477 6 109156814.066 8  85057264.57646
G24  22776084.078    22776088.504 5 119689169.818 7  93264291.94045
G27  24002207.039    24002213.516 3 126132444.293 6  98285037.66843
G28  21962880.016    21962881.746 5 115415662.381 7  89934332.55945
> 2015 07 19 00 04 45.0000000  0 10
G04  23152608.523    23152612.656 5 121667728.711 7  94806065.76945
G11  23899655.359    23899657.324 4 125593469.610 7  97865091.17044
G14  23974507.141    23974509.984 2 125986901.044 6  98171595.19342
G15  22759328.680    22759331.465 5 119601092.431 7  93195652.33445
G18  21039559.445    21039561.938 5 110563633.341 8  86153473.36145
G19  22469031.688    22469032.422 5 118075564.178 8  92006926.11345
G22  20769316.234    20769316.559 6 109143478.060 8  85046872.98046
G24  22768973.656    22768978.668 5 119651805.690 7  93235177.04645
G27  24012059.508    24012065.164 3 126184217.690 6  98325380.56843
G28  21962863.914    21962865.293 5 115415574.385 7  89934264.00645
> 2015 07 19 00 05 00.0000000  0 10
G04  23145039.813    23145043.711 5 121627953.797 7  94775072.30245
G11  23892787.953    23892790.387 4 125557382.863 7  97836971.62844
G14  23963159.234    23963162.898 2 125927269.394 5  98125128.93242
G15  22766792.484    22766795.797 5 119640317.287 7  93226217.21645
G18  21045658.961    21045661.336 6 110595684.962 8  86178448.62846
G19  22473082.523    22473084.078 5 118096852.966 8  92023514.88945
G22  20766807.344    20766808.488 6 109130294.275 8  85036599.95046
G24  22761884.859    22761890.457 4 119614555.769 7  93206151.12644
G27  24021924.211    24021930.395 3 126236059.125 6  98365776.47643
G28  21962883.773    21962884.977 5 115415678.501 7  89934345.15145
> 2015 07 19 00 05 15.0000000  0 10
G04  23137488.078    23137491.918 5 121588269.707 7  94744149.57645
G11  23885937.172    23885939.488 4 125521382.734 7  97808919.64344
G14  23951820.477    23951824.316 2 125867684.141 6  98078698.78342
G15  22774276.242    22774278.969 5 119679643.415 7  93256860.97445
G18  21051784.234    21051786.375 6 110627874.927 8  86203531.73646
G19  22477161.281    22477162.367 5 118118286.739 8  92040216.55445
G22  20764327.328    20764328.180 6 109117262.579 8  85026445.26846
G24  22754817.961    22754823.559 4 119577420.475 7  93177214.53944
G27  24031803.266    24031808.160 3 126287968.373 6  98406225.27443
G28  21962939.797    21962941.703 4 115415974.639 7  89934575.89344
> 2015 07 19 00 05 30.0000000  0 10
G04  23129953.797    23129957.813 5 121548676.523 7  94713297.76045
G11  23879103.102    23879105.418 4 125485469.051 7  97780934.95844
G14  23940490.352    23940495.598 2 125808146.175 6  98032305.83242
G15  22781779.289    22781782.016 5 119719070.449 7  93287583.36145
G18  21057936.125    21057938.559 6 110660202.510 8  86228722.05946
G19  22481267.602    22481268.629 5 118139865.001 8  92057030.61245
G22  20761876.445    20761877.824 6 109104382.925 8  85016409.15246
G24  22747773.391    22747779.223 4 119540399.723 7  93148367.23844
G27  24041694.398    24041698.648 3 126339944.581 6  98446726.19043
G28  21963032.164    21963033.953 5 115416462.559 7  89934956.09345
> 2015 07 19 00 05 45.0000000  0 10
G04  23122436.742    23122440.406 5 121509174.950 7  94682517.36945
G11  23872285.961    23872287.164 4 125449642.724 7  97753018.42644
G14  23929171.055    23929174.074 2 125748655.242 6  97985949.32642
G15  22789301.422    22789303.914 5 119758598.605 7  93318384.55945
G18  21064114.656    21064116.504 6 110692668.109 8  86254019.91646
G19  22485401.422    22485402.156 6 118161588.717 8  92073958.21246
G22  20759454.820    20759455.320 6 109091656.010 8  85006491.93646
G24  22740750.000    22740755.832 5 119503494.675 7  93119610.08745
G27  24051597.188    24051602.551 3 126391987.883 6  98487279.44343
G28  21963162.109    21963163.781 5 115417142.667 7  89935486.06445
> 2015 07 19 00 06 00.0000000  0 10
G04  23114937.500    23114940.813 5 121469765.208 7  94651808.46645
G11  23865484.891    23865486.914 4 125413903.863 7  97725169.98244
G14  23917858.797    23917863.105 2 125689212.135 6  97939630.08542
G15  22796842.156    22796845.117 5 119798227.861 7  93349264.57945
G18  21070318.477    21070320.676 6 110725271.521 8  86279425.16746
G19  22489563.500    22489563.590 5 118183457.492 8  92090998.83045
G22  20757061.883    20757062.617 6 109079082.278 8  84996694.20646
G24  22733749.797    22733754.809 5 119466705.339 7  93090943.12545
G27  24061514.250    24061518.793 3 126444098.142 6  98527884.84743
G28  21963328.070    21963329.684 5 115418015.195 7  89936165.93045
> 2015 07 19 00 06 15.0000000  0 10
G04  23107455.531    23107459.254 5 121430447.742 7  94621171.58045
G11  23858700.547    23858702.102 4 125378252.659 7  97697389.85244
G14  23906556.461    23906560.008 2 125629816.939 6  97893348.07542
G15  22804402.297    22804405.375 5 119837957.674 7  93380222.94545
G18  21076548.609    21076551.219 6 110758012.361 8  86304937.52446
G19  22493752.398    22493752.898 5 118205470.759 8  92108152.05045
G22  20754698.164    20754699.719 6 109066661.362 8  84987015.46446
G24  22726771.180    22726776.191 4 119430031.954 7  93062366.52444
G27  24071443.328    24071447.930 3 126496274.682 6  98568541.86443
G28  21963530.219    21963532.359 4 115419079.876 7  89936995.54944
> 2015 07 19 00 06 30.0000000  0 10
G04  23099991.297    23099994.551 5 121391222.709 7  94590606.65945
G11  23851933.227    23851935.074 4 125342689.655 7  97669678.46544
G14  23895263.398    23895267.473 2 125570470.340 6  97847104.00642
G15  22811981.680    22811983.879 5 119877787.884 7  93411259.50145
G18  21082805.016    21082807.684 5 110790890.524 8  86330556.91145
G19  22497968.180    22497968.855 5 118227628.823 8  92125418.12245
G22  20752364.070    20752365.449 6 109054394.040 8  84977456.59746
G24  22719814.680    22719819.516 4 119393474.995 7  93033880.62344
G27  24081384.406    24081388.715 3 126548517.607 6  98609250.66243
G28  21963769.703    21963771.785 4 115420336.833 7  89937974.95944
> 2015 07 19 00 06 45.0000000  0 10
G04  23092544.625    23092548.523 5 121352090.401 7  94560113.92845
G11  23845182.398    23845184.656 4 125307214.985 7  97642035.89244
G14  23883979.313    23883983.094 2 125511172.529 6  97800897.86142
G15  22819580.281    22819582.949 5 119917718.424 7  93442374.21245
G18  21089087.766    21089090.258 5 110823905.777 8  86356283.11545
G19  22502212.133    22502213.336 5 118249931.632 8  92142796.98745
G22  20750058.727    20750060.164 6 109042280.407 8  84968017.59446
G24  22712879.875    22712885.883 4 119357034.920 7  93005485.81644
G27  24091337.977    24091342.988 3 126600826.385 6  98650010.75743
G28  21964046.016    21964046.867 5 115421786.160 7  89939104.25645
> 2015 07 19 00 07 00.0000000  0 10
G04  23085115.563    23085119.344 5 121313050.703 7  94529693.34445
G11  23838448.281    23838450.539 4 125271828.229 7  97614461.81544
G14  23872704.273    23872708.699 2 125451923.894 6  97754730.15942
G15  22827198.047    22827200.188 5 119957748.318 7  93473566.33345
G18  21095396.086    21095398.109 5 110857057.163 8  86382115.40145
G19  22506484.258    22506484.875 5 118272378.180 8  92160287.79345
G22  20747782.531    20747783.559 6 109030319.502 8  84958697.52646
G24  22705968.102    22705973.289 5 119320711.315 7  92977181.72245
G27  24101305.063    24101309.371 3 126653200.200 6  98690821.52343
G28  21964357.625    21964360.117 5 115423427.422 7  89940383.18945
> 2015 07 19 00 07 15.0000000  0 10
G04  23077704.344    23077707.832 5 121274104.284 7  94499345.56445
G11  23831731.719    23831733.039 4 125236530.156 7  97586956.83944
G14  23861438.266    23861442.633 2 125392724.447 6  97708600.81442
G15  22834833.539    22834836.734 5 119997877.568 7  93504835.88645
G18  21101730.875    21101733.133 5 110890344.880 8  86408053.90545
G19  22510782.930    22510783.371 5 118294968.774 8  92177890.94845
G22  20745535.250    20745536.160 6 109018511.823 8  84949496.84746
G24  22699077.258    22699083.441 4 119284504.791 7  92948968.86544
G27  24111283.359    24111287.844 3 126705638.879 6  98731682.83743
G28  21964706.813    21964708.367 4 115425260.800 8  89941811.82244
> 2015 07 19 00 07 30.0000000  0 10
G04  23070311.172    23070314.836 5 121235251.084 7  94469070.37045
G11  23825031.344    23825033.191 4 125201320.908 7  97559521.06144
G14  23850183.453    23850186.824 2 125333574.448 6  97662509.99642
G15  22842489.133    22842492.563 5 120038106.006 7  93536182.74045
G18  21108091.008    21108093.383 5 110923768.608 8  86434098.37645
G19  22515109.195    22515109.695 5 118317703.025 8  92195606.05045
G22  20743317.891    20743318.918 6 109006857.333 8  84940415.43846
G24  22692209.906    22692215.680 4 119248415.720 7  92920847.52844
G27  24121274.422    24121279.492 3 126758142.100 6  98772594.43443
G28  21965092.125    21965094.090 5 115427286.181 7  89943390.04045
> 2015 07 19 00 07 45.0000000  0 10
G04  23062934.547    23062939.207 5 121196491.270 7  94438868.01245
G11  23818348.219    23818350.125 4 125166200.363 7  97532154.40844
G14  23838935.859    23838940.109 3 125274474.120 6  97616457.81043
G15  22850162.859    22850166.230 5 120078433.001 7  93567606.40045
G18  21114477.078    21114479.453 5 110957327.643 8  86460248.26745
G19  22519462.570    22519462.543 5 118340580.277 8  92213432.44645
G22  20741128.914    20741129.941 6 108995355.582 8  84931452.80546
G24  22685365.008    22685370.313 4 119212443.834 7  92892817.47444
G27  24131277.492    24131282.973 3 126810709.181 6  98813555.78943
G28  21965513.875    21965515.137 4 115429503.261 7  89945117.60544
> 2015 07 19 00 08 00.0000000  0 10
G04  23055577.234    23055580.664 5 121157825.496 7  94408738.82345
G11  23811682.320    23811683.992 4 125131169.471 7  97504857.61544
G14  23827700.109    23827704.066 3 125215424.353 6  97570444.95143
G15  22857856.602    22857858.918 5 120118859.071 7  93599107.23345
G18  21120888.742    21120891.645 6 110991022.450 8  86486503.95246
G19  22523843.242    22523843.977 5 118363601.081 8  92231370.70445
G22  20738969.680    20738970.355 6 108984008.259 8  84922610.82346
G24  22678542.734    22678548.332 5 119176590.351 7  92864879.70745
G27  24141292.617    24141297.453 3 126863340.386 6  98854567.09843
G28  21965972.578    21965974.426 4 115431912.686 7  89946995.07144
> 2015 07 19 00 08 15.0000000  0 10
G04  23048237.000    23048240.840 5 121119253.759 7  94378682.93145
G11  23805032.977    23805035.293 4 125096227.847 7  97477630.32344
G14  23816473.133    23816476.270 3 125156425.321 6  97524471.73343
G15  22865566.820    22865570.719 5 120159383.364 7  93630684.62645
G18  21127327.063    21127329.496 6 111024852.405 8  86512864.97546
G19  22528251.016    22528251.809 5 118386765.105 8  92249420.60145
G22  20736839.250    20736840.570 6 108972814.458 8  84913888.44846
G24  22671742.484    22671747.848 5 119140855.173 7  92837034.14345
G27  24151320.195    24151324.973 3 126916035.080 6  98895627.89343
G28  21966467.938    21966469.492 5 115434514.072 7  89949022.12145
> 2015 07 19 00 08 30.0000000  0 10
G04  23040915.000    23040918.723 5 121080776.668 7  94348700.84245
G11  23798401.117    23798402.613 4 125061375.994 7  97450473.07244
G14  23805256.164    23805259.418 3 125097477.064 6  97478538.12143
G15  22873297.656    22873300.852 5 120200005.631 7  93662338.34345
G18  21133790.688    21133792.359 6 111058817.120 8  86539330.94746
G19  22532686.273    22532686.480 5 118410071.979 8  92267581.74445
G22  20734738.742    20734739.594 6 108961774.299 8  84905285.68446
G24  22664965.531    22664970.367 5 119105238.344 7  92809280.74745
G27  24161359.289    24161364.711 3 126968792.827 6  98936737.83943
G28  21966998.602    21967000.801 4 115437307.243 7  89951198.59644
> 2015 07 19 00 08 45.0000000  0 10
G04  23033611.078    23033614.977 5 121042394.055 7  94318792.30745
G11  23791786.234    23791787.848 4 125026614.297 7  97423386.00144
G14  23794048.242    23794051.613 3 125038580.220 6  97432644.49743
G15  22881046.430    22881049.391 5 120240725.778 7  93694068.31545
G18  21140279.336    21140281.535 5 111092916.503 8  86565901.83845
G19  22537148.828    22537149.387 5 118433521.840 8  92285854.40445
G22  20732667.094    20732667.828 6 108950888.163 8  84896802.97246
G24  22658209.602    22658215.316 5 119069740.460 7  92781620.02445
G27  24171410.883    24171416.480 3 127021613.384 6  98977896.72243
G28  21967567.680    21967568.941 5 115440292.555 7  89953524.82045
> 2015 07 19 00 09 00.0000000  0 10
G04  23026325.016    23026328.914 5 121004106.477 7  94288957.77445
G11  23785187.992    23785190.836 4 124991942.818 7  97396369.21844
G14  23782850.375    23782853.863 3 124979735.025 6  97386791.13043
G15  22888813.523    22888816.953 5 120281543.353 7  93725874.21345
G18  21146793.836    21146795.742 5 111127150.478 8  86592577.68645
G19  22541638.344    22541638.727 5 118457114.127 8  92304237.96945
G22  20730624.688    20730625.246 6 108940155.900 8  84888440.15546
G24  22651476.930    22651482.996 5 119034361.826 7  92754052.29245
G27  24181474.930    24181479.590 3 127074496.315 6  99019104.19443
G28  21968171.906    21968173.578 5 115443469.740 7  89956000.55045
> 2015 07 19 00 09 15.0000000  0 10
G04  23019057.375    23019061.508 5 120965914.276 7  94259197.65645
G11  23778607.461    23778609.836 4 124957361.942 7  97369423.08744
G14  23771661.945    23771665.961 3 124920941.706 6  97340978.19643
G15  22896599.430    22896602.215 5 120322458.386 7  93757756.08045
G18  21153333.156    21153336.059 5 111161518.463 8  86619357.89445
G19  22546154.875    22546155.258 5 118480848.758 7  92322732.47145
G22  20728612.305    20728612.629 6 108929577.803 8  84880197.50846
G24  22644767.953    22644773.199 5 118999102.423 7  92726577.44445
G27  24191549.891    24191554.551 3 127127441.273 6  99060359.97843
G28  21968812.945    21968814.266 4 115446838.973 7  89958625.93144
> 2015 07 19 00 09 30.0000000  0 10
G04  23011808.102    23011812.000 5 120927817.532 7  94229511.87345
G11  23772044.633    23772046.656 4 124922871.776 7  97342547.61644
G14  23760483.883    23760488.016 2 124862200.540 6  97295205.78842
G15  22904403.930    22904406.891 4 120363470.376 7  93789713.48444
G18  21159898.742    21159901.000 5 111196020.432 8  86646242.61445
G19  22550698.539    22550698.805 5 118504725.629 7  92341337.78145
G22  20726628.758    20726629.258 6 108919153.902 8  84872075.01946
G24  22638080.688    22638086.988 5 118963962.966 7  92699196.04045
G27  24201636.836    24201641.965 3 127180447.949 6  99101663.85743
G28  21969490.789    21969492.227 5 115450400.104 7  89961400.87745
> 2015 07 19 00 09 45.0000000  0 10
G04  23004576.555    23004580.219 5 120889816.353 7  94199900.54445
G11  23765498.641    23765500.137 4 124888472.316 7  97315742.84444
G14  23749316.289    23749320.246 3 124803512.264 6  97249474.79043
G15  22912226.242    22912228.852 5 120404578.769 7  93821745.98945
G18  21166489.625    21166491.766 5 111230655.788 8  86673231.25245
G19  22555268.742    22555269.887 5 118528744.224 7  92360053.53345
G22  20724673.914    20724674.473 6 108908883.723 8  84864072.30646
G24  22631417.047    22631422.117 5 118928943.076 7  92671907.82145
G27  24211735.148    24211740.219 3 127233515.801 6  99143015.39143
G28  21970204.742    21970206.414 4 115454152.612 7  89964324.91544
> 2015 07 19 00 10 00.0000000  0 10
G04  22997363.336    22997366.941 5 120851911.356 7  94170364.20045
G11  23758970.000    23758971.555 4 124854163.898 7  97289008.95744
G14  23738157.164    23738161.297 3 124744876.939 6  97203785.11043
G15  22920068.000    22920069.965 5 120445783.651 7  93853853.70145
G18  21173105.891    21173108.031 5 111265424.321 8  86700323.66345
G19  22559866.234    22559866.734 5 118552904.602 7  92378879.73245
G22  20722748.969    20722749.586 6 108898768.088 8  84856190.01546
G24  22624775.875    22624781.121 5 118894043.548 7  92644713.38445
G27  24221845.180    24221850.309 3 127286644.590 6  99184414.44843
G28  21970955.352    21970956.965 5 115458096.953 7  89967398.42145
> 2015 07 19 00 10 15.0000000  0 10
G04  22990168.367    22990172.090 5 120814102.480 7  94140902.71445
G11  23752458.711    23752460.441 5 124819947.005 7  97262346.45545
G14  23727010.641    23727013.953 3 124686294.552 6  97158136.45543
G15  22927926.375    22927929.277 5 120487084.589 7  93886036.24145
G18  21179747.203    21179749.578 5 111300325.895 8  86727519.84345
G19  22564490.859    22564492.063 5 118577206.576 7  92397816.32345
G22  20720853.477    20720853.918 6 108888806.461 8  84848427.58146
G24  22618157.195    22618163.145 5 118859264.566 7  92617612.89245
G27  24231967.531    24231971.547 3 127339833.970 6  99225860.70243
G28  21971742.281    21971743.836 5 115462232.930 7  89970621.27745
> 2015 07 19 00 10 30.0000000  0 10
G04  22982992.078    22982996.094 5 120776389.807 7  94111516.18345
G11  23745964.398    23745966.715 4 124785821.511 7  97235755.13844
G14  23715871.500    23715875.281 3 124627765.951 6  97112529.99343
G15  22935803.820    22935806.957 5 120528481.190 7  93918293.29845
G18  21186413.867    21186416.301 5 111335359.762 8  86754819.03845
G19  22569142.609    22569143.227 5 118601649.769 7  92416862.95145
G22  20718987.453    20718987.719 6 108878999.232 8  84840785.56546
G24  22611561.797    22611567.922 5 118824606.445 7  92590606.57945
G27  24242100.477    24242105.254 3 127393083.426 6  99267353.76043
G28  21972565.742    21972567.473 4 115466560.362 7  89973993.29844
> 2015 07 19 00 10 45.0000000  0 10
G04  22975834.039    22975838.172 5 120738774.448 7  94082205.48545
G11  23739488.688    23739490.359 4 124751788.090 7  97209235.48544
G14  23704745.719    23704748.914 3 124569291.256 6  97066965.31543
G15  22943699.688    22943702.883 5 120569973.656 7  93950625.06545
G18  21193106.305    21193108.621 5 111370526.303 8  86782221.54945
G19  22573820.367    22573821.395 5 118626234.422 7  92436019.82245
G22  20717150.172    20717151.199 6 108869346.858 8  84833264.20446
G24  22604990.328    22604995.047 5 118790069.460 7  92563694.65945
G27  24252243.953    24252249.727 3 127446392.999 6  99308893.65843
G28  21973425.656    21973427.035 4 115471079.712 7  89977514.88344
> 2015 07 19 00 11 00.0000000  0 10
G04  22968694.930    22968698.535 5 120701256.200 7  94052970.46545
G11  23733029.453    23733032.004 4 124717846.940 7  97182787.84144
G14  23693627.500    23693631.574 3 124510871.007 6  97021443.12743
G15  22951614.570    22951616.887 5 120611561.452 7  93983031.11945
G18  21199823.406    21199825.840 5 111405824.964 8  86809727.00345
G19  22578525.875    22578527.020 5 118650959.754 7  92455286.28445
G22  20715342.914    20715343.941 6 108859849.292 8  84825863.55646
G24  22598441.008    22598446.371 5 118755653.799 7  92536877.24945
G27  24262400.938    24262404.895 3 127499762.023 6  99350479.87543
G28  21974322.008    21974324.090 5 115475790.592 7  89981185.71045
> 2015 07 19 00 11 15.0000000  0 10
G04  22961573.648    22961577.547 5 120663835.247 7  94023811.28145
G11  23726588.414    23726590.789 5 124683998.052 7  97156412.05245
G14  23682521.320    23682524.750 3 124452505.266 6  96975963.40643
G15  22959546.492    22959549.570 5 120653244.236 7  94015511.19145
G18  21206565.516    21206567.715 5 111441255.435 8  86837335.22145
G19  22583257.867    22583258.602 5 118675825.976 7  92474662.55445
G22  20713564.984    20713565.602 6 108850506.334 8  84818583.38946
G24  22591915.055    22591921.063 5 118721359.625 7  92510154.52145
G27  24272567.961    24272572.211 3 127553190.308 6  99392112.31343
G28  21975254.984    21975256.656 4 115480692.959 7  89985005.74644
> 2015 07 19 00 11 30.0000000  0 10
G04  22954471.617    22954475.164 5 120626512.220 7  93994728.37845
G11  23720164.961    23720167.395 5 124650242.103 7  97130108.74245
G14  23671424.523    23671428.422 3 124394194.408 6  96930526.29543
G15  22967496.156    22967498.531 5 120695021.884 7  94048065.18145
G18  21213332.609    21213334.164 5 111476817.731 8  86865046.09345
G19  22588016.516    22588016.898 5 118700832.974 7  92494148.58145
G22  20711817.094    20711817.594 6 108841318.330 8  84811423.97446
G24  22585411.547    22585417.496 5 118687187.565 7  92483526.92645
G27  24282746.578    24282750.477 3 127606677.583 6  99433790.67743
G28  21976224.758    21976226.195 4 115485786.973 7  89988975.11844
> 2015 07 19 00 11 45.0000000  0 10
G04  22947388.133    22947391.211 5 120589286.786 7  93965721.53245
G11  23713758.688    23713760.945 5 124616578.694 7  97103877.55145
G14  23660339.102    23660342.883 3 124335938.779 6  96885132.24043
G15  22975464.234    22975466.551 5 120736893.979 7  94080692.77645
G18  21220124.797    21220126.938 5 111512511.183 8  86892859.16945
G19  22592801.688    22592802.188 5 118725980.126 7  92513743.80145
G22  20710097.602    20710098.160 6 108832285.001 8  84804385.07646
G24  22578932.766    22578938.070 5 118653137.779 7  92456994.63445
G27  24292934.875    24292940.121 3 127660223.061 6  99475514.43143
G28  21977230.117    21977231.789 5 115491072.142 7  89993093.46645
> 2015 07 19 00 12 00.0000000  0 10
G04  22940322.680    22940326.520 5 120552159.286 7  93936790.97645
G11  23707370.813    23707373.070 4 124583008.192 7  97077718.74044
G14  23649264.383    23649267.461 3 124277738.738 6  96839781.62043
G15  22983450.492    22983453.160 5 120778860.236 7  94113393.76445
G18  21226941.875    21226943.664 5 111548335.846 8  86920774.55045
G19  22597613.891    22597614.039 5 118751267.296 7  92533448.11245
G22  20708408.422    20708409.039 6 108823406.496 8  84797466.78946
G24  22572476.414    22572482.129 5 118619210.569 7  92430557.85345
G27  24303135.625    24303140.520 3 127713826.570 6  99517283.39443
G28  21978272.578    21978273.957 4 115496548.570 7  89997360.79944
> 2015 07 19 00 12 15.0000000  0 10
G04  22933276.563    22933279.465 5 120515130.390 7  93907937.27145
G11  23701000.359    23701002.617 4 124549530.932 7  97051632.56544
G14  23638199.391    23638202.996 3 124219594.538 6  96794474.50043
G15  22991454.656    22991456.914 5 120820920.443 7  94146167.94545
G18  21233784.086    21233785.992 5 111584290.877 8  86948791.40645
G19  22602452.250    22602452.926 5 118776694.471 7  92553261.56545
G22  20706748.383    20706748.648 6 108814682.893 8  84790669.18746
G24  22566044.250    22566048.559 5 118585405.878 7  92404216.52545
G27  24313345.695    24313351.820 3 127767487.773 6  99559097.29543
G28  21979350.609    21979352.457 5 115502216.217 7  90001777.11645
> 2015 07 19 00 12 30.0000000  0 10
G04  22926248.633    22926251.945 5 120478199.979 7  93879160.38645
G11  23694647.180    23694649.496 5 124516146.986 7  97025619.11445
G14  23627146.422    23627149.266 3 124161506.910 7  96749211.66843
G15  22999475.211    22999478.465 5 120863073.986 7  94179014.83845
G18  21240650.844    21240652.398 5 111620376.066 8  86976909.76145
G19  22607317.094    22607317.887 5 118802261.074 7  92573183.68145
G22  20705117.648    20705118.031 6 108806113.946 8  84783992.04346
G24  22559634.578    22559639.824 5 118551723.829 7  92377970.78945
G27  24323569.289    24323573.656 3 127821206.049 6  99600955.67143
G28  21980465.813    21980467.602 5 115508074.883 8  90006342.28645
> 2015 07 19 00 12 45.0000000  0 10
G04  22919239.945    22919243.727 5 120441368.376 7  93850460.46645
G11  23688312.266    23688314.699 5 124482856.727 7  96999678.60545
G14  23616102.094    23616105.699 3 124103475.928 7  96703992.98643
G15  23007515.102    23007517.301 4 120905320.976 7  94211934.54044
G18  21247542.594    21247543.973 5 111656591.569 8  87005129.67145
G19  22612209.227    22612209.375 5 118827967.217 7  92593214.52545
G22  20703516.398    20703517.250 6 108797700.338 8  84777436.00546
G24  22553248.625    22553253.695 5 118518165.236 7  92351821.25545
G27  24333801.227    24333806.941 3 127874981.351 6  99642858.45943
G28  21981617.094    21981618.590 5 115514124.780 7  90011056.47845
> 2015 07 19 00 13 00.0000000  0 10
G04  22912250.039    22912253.234 5 120404636.401 7  93821838.20745
G11  23681995.531    23681997.145 4 124449660.675 7  96973811.55644
G14  23605070.320    23605074.043 3 124045501.755 7  96658818.42443
G15  23015572.688    23015574.184 5 120947661.162 7  94244926.82245
G18  21254458.898    21254460.746 5 111692937.159 8  87033450.98245
G19  22617126.977    22617128.004 5 118853812.866 7  92613354.06845
G22  20701945.117    20701945.324 6 108789442.152 8  84771001.10646
G24  22546886.250    22546891.555 5 118484730.524 7  92325768.22645
G27  24344044.445    24344050.980 3 127928813.541 6  99684805.61643
G28  21982804.703    21982805.789 5 115520365.864 8  90015919.65945
> 2015 07 19 00 13 15.0000000  0 10
G04  22905279.000    22905282.547 5 120368003.928 7  93793293.45445
G11  23675696.281    23675698.305 4 124416558.738 7  96948017.77044
G14  23594049.477    23594052.672 3 123987584.786 7  96613688.35743
G15  23023647.148    23023649.055 5 120990094.348 7  94277991.61345
G18  21261399.422    21261401.563 5 111729412.306 8  87061873.14245
G19  22622071.805    22622072.305 5 118879797.502 7  92633601.88145
G22  20700403.172    20700403.379 6 108781339.399 8  84764687.32946
G24  22540547.227    22540552.473 5 118451419.726 7  92299811.72945
G27  24354300.852    24354305.805 2 127982702.098 6  99726796.69342
G28  21984029.000    21984030.438 5 115526797.957 8  90020931.69545
> 2015 07 19 00 13 30.0000000  0 10
G04  22898327.117    22898330.371 5 120331470.967 7  93764826.24245
G11  23669415.250    23669417.918 4 124383551.111 7  96922297.54944
G14  23583038.820    23583042.543 3 123929725.368 6  96568603.18443
G15  23031739.273    23031742.000 5 121032619.945 7  94311128.46945
G18  21268365.555    21268367.109 5 111766016.500 8  87090395.89345
G19  22627042.633    22627043.543 5 118905920.772 7  92653957.71945
G22  20698890.602    20698891.336 6 108773391.656 8  84758494.32046
G24  22534231.594    22534237.660 5 118418232.853 7  92273951.81845
G27  24364565.039    24364570.285 3 128036646.373 5  99768831.17343
G28  21985288.680    21985290.469 5 115533420.859 8  90026092.41545
> 2015 07 19 00 13 45.0000000  0 10
G04  22891394.164    22891397.711 5 120295037.872 7  93736436.81345
G11  23663152.422    23663154.211 5 124350638.145 7  96896651.08945
G14  23572039.719    23572042.797 3 123871923.772 6  96523563.04643
G15  23039848.797    23039851.875 5 121075237.788 7  94344337.19745
G18  21275355.258    21275357.047 5 111802749.681 8  87119019.15745
G19  22632040.461    22632041.020 5 118932182.626 7  92674421.54345
G22  20697408.055    20697408.145 6 108765599.351 8  84752422.43146
G24  22527939.898    22527945.789 5 118385170.494 7  92248188.94645
G27  24374842.070    24374845.910 3 128090646.228 6  99810908.97243
G28  21986585.664    21986587.453 5 115540234.618 7  90031401.81445
> 2015 07 19 00 14 00.0000000  0 10
G04  22884480.172    22884483.777 5 120258705.116 7  93708125.61345
G11  23656907.422    23656909.504 5 124317819.994 7  96871078.49545
G14  23561050.445    23561054.402 3 123814180.378 6  96478568.21643
G15  23047977.344    23047979.016 5 121117947.615 7  94377617.57045
G18  21282369.664    21282371.219 5 111839611.596 8  87147742.72245
G19  22637064.273    22637064.891 5 118958582.911 7  92694993.23345
G22  20695954.594    20695954.918 7 108757962.506 8  84746471.71247
G24  22521672.477    22521678.133 5 118352232.860 7  92222523.26345
G27  24385128.086    24385132.512 2 128144701.276 6  99853029.72442
G28  21987918.859    21987919.945 5 115547239.251 7  90036859.93445
> 2015 07 19 00 14 15.0000000  0 10
G04  22877585.297    22877588.902 5 120222473.040 7  93679892.95445
G11  23650679.758    23650682.543 5 124285097.135 7  96845580.20045
G14  23550074.570    23550078.059 3 123756495.563 7  96433618.98843
G15  23056121.750    23056124.125 5 121160749.144 7  94410969.40445
G18  21289408.594    21289410.266 5 111876602.051 8  87176566.47045
G19  22642114.281    22642114.430 6 118985121.461 7  92715672.73046
G22  20694530.828    20694531.035 6 108750481.253 8  84740642.17446
G24  22515428.773    22515434.020 5 118319420.097 7  92196954.88945
G27  24395426.469    24395429.313 3 128198811.270 6  99895193.32343
G28  21989287.695    21989289.836 5 115554434.627 7  90042466.67745
> 2015 07 19 00 14 30.0000000  0 10
G04  22870709.867    22870713.590 5 120186341.620 7  93651738.64245
G11  23644471.188    23644472.918 5 124252469.320 7  96820155.90745
G14  23539109.383    23539112.051 3 123698869.659 7  96388715.70143
G15  23064283.750    23064286.418 5 121203642.007 7  94444392.38245
G18  21296472.336    21296474.008 5 111913720.443 8  87205489.87045
G19  22647190.578    22647190.785 5 119011797.683 7  92736459.41145
G22  20693136.695    20693137.137 6 108743155.550 8  84734933.84846
G24  22509207.727    22509213.500 5 118286732.584 7  92171484.09745
G27  24405732.844    24405737.152 3 128252975.661 6  99937399.32343
G28  21990693.523    21990694.961 5 115561820.460 7  90048221.82745
> 2015 07 19 00 14 45.0000000  0 10
G04  22863853.367    22863856.680 5 120150311.070 7  93623662.95345
G11  23638280.195    23638282.629 5 124219937.126 7  96794806.14145
G14  23528154.055    23528156.254 3 123641302.918 7  96343858.52643
G15  23072463.359    23072465.852 5 121246625.971 7  94477886.38545
G18  21303560.133    21303561.395 5 111950966.522 8  87234512.75045
G19  22652293.102    22652293.543 6 119038611.673 7  92757353.48246
G22  20691772.297    20691773.148 6 108735985.286 8  84729346.56346
G24  22503012.070    22503017.375 5 118254170.297 7  92146110.88045
G27  24416049.594    24416054.078 3 128307194.045 5  99979647.40043
G28  21992135.813    21992136.781 5 115569396.953 7  90054125.57945
> 2015 07 19 00 15 00.0000000  0 10
G04  22857016.438    22857019.281 5 120114381.951 7  93595666.35045
G11  23632107.703    23632110.313 5 124187500.545 7  96769530.85445
G14  23517211.078    23517213.570 3 123583795.967 6  96299047.99143
G15  23080660.219    23080663.531 4 121289700.829 7  94511451.21044
G18  21310672.094    21310674.176 5 111988340.378 7  87263635.23045
G19  22657421.992    22657422.258 5 119065563.096 7  92778354.62645
G22  20690437.719    20690438.277 6 108728970.847 8  84723880.77946
G24  22496838.977    22496845.277 5 118221733.936 7  92120835.80645
G27  24426377.680    24426382.633 3 128361466.250 5 100021937.38543
G28  21993613.453    21993614.949 4 115577163.895 7  90060177.75744
> 2015 07 19 00 15 15.0000000  0 10
G04  22850197.914    22850201.168 5 120078554.050 7  93567748.51845
G11  23625954.203    23625955.934 5 124155159.906 7  96744330.36445
G14  23506278.172    23506281.484 3 123526348.676 7  96254283.85943
G15  23088873.945    23088876.613 4 121332866.238 7  94545086.59944
G18  21317808.258    21317809.637 5 112025841.241 8  87292856.68445
G19  22662576.516    22662577.250 5 119092651.594 7  92799462.55445
G22  20689132.406    20689133.082 6 108722112.061 8  84718536.28346
G24  22490690.641    22490696.355 5 118189423.626 7  92095658.93345
G27  24436715.250    24436719.969 3 128415791.711 5 100064268.86743
G28  21995127.078    21995128.867 5 115585120.968 7  90066378.05945
> 2015 07 19 00 15 30.0000000  0 10
G04  22843399.875    22843402.953 5 120042827.742 7  93539909.88945
G11  23619818.023    23619820.105 4 124122915.155 7  96719204.55244
G14  23495357.969    23495361.398 3 123468961.606 7  96209566.74643
G15  23097105.813    23097107.895 5 121376121.868 7  94578792.26845
G18  21324968.211    21324970.469 5 112063468.982 7  87322176.99045
G19  22667757.086    22667758.465 5 119119877.032 8  92820677.22545
G22  20687856.641    20687856.906 6 108715408.806 8  84713312.93046
G24  22484566.445    22484571.809 5 118157239.457 7  92070580.36345
G27  24447062.734    24447068.215 3 128470170.100 5 100106641.64443
G28  21996677.617    21996679.055 5 115593268.232 7  90072726.57245
> 2015 07 19 00 15 45.0000000  0 11
G01  24449945.758                   128485336.07015
G04  22836620.875    22836624.305 5 120007203.924 7  93512151.12745
G11  23613700.820    23613701.965 5 124090767.045 7  96694154.04645
G14  23484449.297    23484451.789 3 123411635.201 7  96164896.80643
G15  23105354.070    23105357.383 4 121419467.644 7  94612568.19744
G18  21332153.180    21332154.793 5 112101223.529 7  87351596.10945
G19  22672964.484    22672964.633 5 119147239.448 8  92841998.56045
G22  20686611.094    20686611.770 6 108708861.797 8  84708211.38246
G24  22478465.813    22478471.469 5 118125181.891 7  92045600.43545
G27  24457421.609    24457426.504 3 128524601.436 6 100149055.59343
G28  21998263.906    21998266.105 5 115601605.969 7  90079223.51945
> 2015 07 19 00 16 00.0000000  0 11
G01  24439727.125                   128431638.099 5
G04  22829861.328    22829864.934 5 119971681.988 7  93484471.71245
G11  23607601.352    23607603.785 5 124058715.599 7  96669178.85045
G14  23473550.852    23473554.691 3 123354369.530 7  96120274.18843
G15  23113620.578    23113622.074 5 121462903.015 7  94646413.93545
G18  21339361.656    21339362.918 5 112139104.274 8  87381113.55945
G19  22678197.289    22678197.965 5 119174738.197 8  92863426.09545
G22  20685394.563    20685394.887 6 108702470.400 8  84703231.03346
G24  22472390.086    22472395.684 5 118093251.015 7  92020719.24645
G27  24467788.133    24467793.848 3 128579084.905 5 100191510.22243
G28  21999887.117    21999888.848 5 115610133.564 7  90085868.40045
> 2015 07 19 00 16 15.0000000  0 11
G01  24429518.766                   128377992.722 5
G04  22823120.484    22823124.148 5 119936262.790 7  93456872.41845
G11  23601520.758    23601522.664 5 124026761.018 7  96644279.15945
G14  23462666.734    23462669.109 3 123297165.385 7  96075699.70443
G15  23121902.813    23121904.602 5 121506427.737 7  94680329.31345
G18  21346594.211    21346596.352 5 112177110.953 7  87410729.16045
G19  22683455.813    22683456.078 5 119202373.207 8  92884959.80945
G22  20684208.117    20684208.969 6 108696234.858 8  84698372.13146
G24  22466338.078    22466343.441 5 118061447.096 7  91995936.98445
G27  24478165.078    24478171.789 2 128633620.242 5 100234005.25142
G28  22001545.828    22001547.148 5 115618851.028 7  90092661.22045
> 2015 07 19 00 16 30.0000000  0 11
G01  24419320.711                   128324400.671 5
G04  22816400.508    22816403.938 5 119900946.597 7  93429353.41445
G11  23595458.328    23595460.293 5 123994903.801 7  96619455.37945
G14  23451792.695    23451795.129 3 123240022.573 7  96031172.78443
G15  23130202.000    23130204.258 5 121550041.785 7  94714314.31145
G18  21353850.109    21353852.250 5 112215243.579 7  87440442.86845
G19  22688740.422    22688741.801 5 119230144.572 7  92906599.79845
G22  20683051.531    20683051.035 6 108690155.505 8  84693634.95646
G24  22460310.055    22460315.477 5 118029770.578 7  91971253.99245
G27  24488554.734    24488558.809 2 128688207.347 5 100276540.66542
G28  22003240.594    22003242.617 5 115627758.545 7  90099602.11545
> 2015 07 19 00 16 45.0000000  0 11
G01  24409131.664                   128270861.714 5
G04  22809699.617    22809702.871 5 119865733.389 7  93401914.61745
G11  23589414.477    23589416.852 5 123963143.976 7  96594707.50945
G14  23440930.203    23440932.344 3 123182941.902 7  95986694.39943
G15  23138517.594    23138520.555 5 121593744.790 7  94748368.62045
G18  21361130.750    21361132.363 5 112253501.856 7  87470254.49745
G19  22694051.195    22694051.813 5 119258051.845 8  92928345.69645
G22  20681924.148    20681923.945 6 108684232.464 8  84689019.61046
G24  22454306.477    22454311.605 5 117998221.836 7  91946670.56545
G27  24498950.656    24498956.547 2 128742845.724 5 100319115.98642
G28  22004972.281    22004973.836 5 115636855.902 7  90106690.92845
> 2015 07 19 00 17 00.0000000  0 11
G01  24398954.195                   128217376.333 5
G04  22803018.430    22803021.684 5 119830623.292 7  93374556.15945
G11  23583389.625    23583391.531 5 123931481.613 7  96570035.57145
G14  23430080.445    23430083.172 3 123125923.488 7  95942264.56143
G15  23146851.023    23146853.281 5 121637536.232 7  94782491.83645
G18  21368434.570    21368436.359 5 112291885.098 7  87500163.48645
G19  22699387.336    22699388.480 5 119286094.522 7  92950197.10845
G22  20680826.781    20680826.871 6 108678465.352 8  84684525.75846
G24  22448327.445    22448332.809 5 117966800.842 7  91922186.66345
G27  24509357.281    24509362.645 2 128797534.871 5 100361730.86442
G28  22006739.609    22006741.398 5 115646142.969 7  90113927.61045
> 2015 07 19 00 17 15.0000000  0 11
G01  24388785.844                   128163944.898 5
G04  22796356.680    22796359.523 5 119795616.999 7  93347278.61645
G11  23577382.641    23577385.133 5 123899916.944 7  96545439.76645
G14  23419241.578    23419245.008 3 123068967.493 7  95897883.28343
G15  23155201.695    23155203.836 5 121681416.085 7  94816683.93945
G18  21375762.406    21375764.254 5 112330393.267 7  87530169.84045
G19  22704749.781    22704750.926 5 119314272.664 7  92972154.07445
G22  20679758.602    20679759.219 6 108672854.324 8  84680153.44646
G24  22442372.102    22442377.699 5 117935508.060 7  91897802.69045
G27  24519773.969    24519780.328 3 128852274.567 5 100404385.21343
G28  22008542.875    22008543.961 5 115655619.642 7  90121312.06045
> 2015 07 19 00 17 30.0000000  0 11
G01  24378629.070                   128110567.509 5
G04  22789714.938    22789717.957 5 119760714.323 7  93320081.82945
G11  23571395.031    23571397.055 5 123868450.236 7  96520920.29245
G14  23408414.633    23408417.418 3 123012074.486 7  95853551.12943
G15  23163568.180    23163571.199 5 121725383.974 7  94850944.63245
G18  21383113.977    21383115.766 5 112369025.960 7  87560273.23145
G19  22710137.375    22710138.695 5 119342586.074 7  92994216.50245
G22  20678720.578    20678721.664 6 108667399.376 8  84675902.77646
G24  22436441.672    22436447.797 5 117904343.507 7  91873518.61945
G27  24530201.414    24530205.723 2 128907064.307 6 100447078.41642
G28  22010382.398    22010384.012 5 115665285.624 7  90128844.03245
> 2015 07 19 00 17 45.0000000  0 11
G01  24368481.914                   128057244.475 5
G04  22783093.102    22783096.121 5 119725915.734 7  93292966.12045
G11  23565425.984    23565427.188 5 123837081.812 7  96496477.46045
G14  23397600.844    23397603.570 3 122955244.694 7  95809268.23343
G15  23171951.414    23171954.023 4 121769439.540 7  94885273.63944
G18  21390489.453    21390490.715 5 112407782.849 8  87590473.37845
G19  22715551.180    22715552.090 5 119371034.050 7  93016383.67345
G22  20677712.359    20677712.684 6 108662100.741 8  84671773.93146
G24  22430535.516    22430541.992 5 117873307.422 7  91849334.66745
G27  24540638.203    24540642.160 2 128961903.870 5 100489810.54842
G28  22012257.406    22012259.664 4 115675140.960 7  90136523.58544
> 2015 07 19 00 18 00.0000000  0 11
G01  24358345.164                   128003976.849 5
G04  22776491.125    22776494.086 5 119691221.656 8  93265931.80845
G11  23559475.180    23559477.027 5 123805811.861 7  96472111.26045
G14  23386798.844    23386801.746 3 122898478.387 7  95765034.68043
G15  23180352.297    23180354.438 5 121813582.774 7  94919670.94945
G18  21397888.305    21397890.563 5 112446664.062 7  87620770.44345
G19  22720990.141    22720990.875 5 119399617.046 8  93038656.12645
G22  20676733.906    20676734.699 6 108656958.717 8  84667767.16646
G24  22424654.383    22424660.391 5 117842400.354 7  91825251.23845
G27  24551082.555    24551086.805 2 129016793.096 6 100532581.34142
G28  22014169.094    22014170.414 5 115685185.899 7  90144350.88645
> 2015 07 19 00 18 15.0000000  0 11
G01  24348219.867                   127950764.111 5
G04  22769908.711    22769911.906 5 119656631.939 7  93238978.79145
G11  23553543.414    23553545.203 5 123774640.459 7  96447821.87545
G14  23376007.930    23376011.887 3 122841775.883 7  95720850.82743
G15  23188768.641    23188770.547 5 121857812.948 7  94954136.00545
G18  21405310.898    21405312.043 5 112485668.752 7  87651163.68045
G19  22726454.984    22726456.129 5 119428334.520 7  93061033.44545
G22  20675785.070    20675785.922 6 108651972.666 8  84663881.83846
G24  22418797.367    22418803.141 5 117811622.418 7  91801268.45145
G27  24561538.109    24561540.309 3 129071731.284 6 100575390.32243
G28  22016115.750    22016118.477 5 115695419.887 7  90152325.47545
> 2015 07 19 00 18 30.0000000  0 11
G01  24338103.063                   127897606.539 5
G04  22763346.297    22763350.020 5 119622146.972 8  93212107.40745
G11  23547630.250    23547632.039 5 123743567.547 7  96423609.14245
G14  23365230.031    23365233.754 3 122785137.521 7  95676716.99443
G15  23197201.063    23197203.848 5 121902129.801 7  94988668.60045
G18  21412756.805    21412758.359 5 112524796.629 7  87681652.87745
G19  22731945.383    22731946.703 5 119457185.603 7  93083514.71245
G22  20674866.281    20674867.543 6 108647142.534 8  84660117.88246
G24  22412965.289    22412971.004 5 117780973.667 7  91777386.30145
G27  24572001.672    24572004.105 2 129126718.000 6 100618237.08842
G28  22018099.297    22018101.145 4 115705842.614 7  90160447.10144
> 2015 07 19 00 18 45.0000000  0 11
G01  24327999.484                   127844505.083 5
G04  22756804.352    22756807.195 5 119587767.258 8  93185318.00745
G11  23541737.102    23541738.363 5 123712594.317 7  96399474.22245
G14  23354464.188    23354468.027 3 122728564.125 7  95632633.80343
G15  23205651.508    23205653.941 4 121946533.581 7  95023268.92344
G18  21420226.258    21420227.461 5 112564047.864 7  87712238.22545
G19  22737460.992    22737461.902 5 119486171.124 7  93106100.86445
G22  20673977.016    20673977.691 6 108642469.677 8  84656476.76046
G24  22407157.641    22407162.828 5 117750454.967 7  91753605.50045
G27  24582474.273    24582477.059 3 129181753.412 5 100661121.80643
G28  22020119.148    22020120.234 5 115716454.509 7  90168716.12645
> 2015 07 19 00 19 00.0000000  0 11
G01  24317904.273                   127791459.709 5
G04  22750282.133    22750285.504 5 119553492.885 8  93158610.69045
G11  23535861.313    23535862.867 5 123681720.343 7  96375416.65445
G14  23343711.516    23343715.121 3 122672055.595 7  95588601.14243
G15  23214117.789    23214120.398 4 121991023.649 7  95057936.47944
G18  21427718.906    21427719.816 5 112603421.905 7  87742919.24645
G19  22743002.172    22743003.258 5 119515290.224 7  93128790.93045
G22  20673117.484    20673118.453 6 108637953.293 8  84652957.61746
G24  22401374.844    22401380.500 5 117720066.098 7  91729925.86745
G27  24592957.250    24592959.508 3 129236836.728 6 100704043.84443
G28  22022174.125    22022176.266 5 115727255.258 7  90177132.29545
> 2015 07 19 00 19 15.0000000  0 11
G01  24307821.023                   127738470.921 5
G04  22743779.656    22743783.086 5 119519324.531 8  93131986.11845
G11  23530004.867    23530007.008 4 123650945.972 7  96351436.67244
G14  23332970.164    23332974.238 3 122615612.313 7  95544619.26843
G15  23222600.258    23222602.574 5 122035600.027 7  95092671.32445
G18  21435234.297    21435236.320 5 112642918.614 7  87773695.87945
G19  22748568.578    22748569.664 5 119544543.085 7  93151585.31845
G22  20672287.906    20672288.582 6 108633593.590 8  84649560.56846
G24  22395616.609    22395622.617 5 117689807.290 7  91706347.56145
G27  24603446.234    24603450.895 2 129291967.850 5 100747003.12142
G28  22024265.719    22024267.566 5 115738244.762 7  90185695.54745
> 2015 07 19 00 19 30.0000000  0 11
G01  24297749.281                   127685538.873 5
G04  22737297.961    22737300.980 5 119485261.723 8  93105443.72945
G11  23524167.594    23524169.617 5 123620271.238 7  96327534.33545
G14  23322242.164    23322246.590 3 122559234.533 7  95500688.45843
G15  23231099.031    23231102.344 4 122080262.110 7  95127472.95944
G18  21442773.703    21442775.199 5 112682537.334 7  87804567.56845
G19  22754160.891    22754161.449 5 119573929.161 7  93174483.52345
G22  20671487.727    20671488.695 6 108629390.320 8  84646285.44946
G24  22389884.391    22389889.578 5 117659678.820 7  91682870.82345
G27  24613947.430    24613950.332 2 129347146.288 6 100789999.28842
G28  22026392.461    22026394.074 5 115749422.782 7  90194405.68145
> 2015 07 19 00 19 45.0000000  0 11
G01  24287687.227                   127632663.591 5
G04  22730836.039    22730839.410 5 119451304.763 8  93078983.78145
G11  23518349.734    23518351.523 4 123589696.246 7  96303709.70644
G14  23311526.148    23311530.223 3 122502922.527 7  95456808.87943
G15  23239613.641    23239617.480 5 122125009.448 7  95162341.01945
G18  21450336.180    21450338.262 5 112722277.812 7  87835534.15245
G19  22759777.891    22759779.445 5 119603447.997 7  93197485.13345
G22  20670717.891    20670718.801 6 108625343.126 8  84643131.76346
G24  22384175.531    22384180.543 5 117629680.892 7  91659495.82645
G27  24624455.336    24624459.996 3 129402371.473 5 100833031.85143
G28  22028555.508    22028557.473 5 115760789.105 7  90203262.52645
> 2015 07 19 00 20 00.0000000  0 11
G01  24277635.039                   127579845.598 5
G04  22724393.953    22724397.148 5 119417454.271 8  93052606.83545
G11  23512551.000    23512552.672 5 123559221.484 7  96279963.21745
G14  23300822.469    23300826.719 3 122446676.666 7  95412980.84243
G15  23248144.867    23248147.945 4 122169841.942 7  95197275.43044
G18  21457921.625    21457923.414 5 112762139.870 8  87866595.50645
G19  22765420.898    22765421.633 5 119633099.657 7  93220590.33245
G22  20669977.477    20669978.152 6 108621452.454 8  84640100.04246
G24  22378492.063    22378497.660 5 117599813.815 7  91636222.78745
G27  24634975.258    24634978.629 3 129457643.075 6 100876100.62043
G28  22030754.523    22030755.902 5 115772343.646 7  90212266.06845
> 2015 07 19 00 20 15.0000000  0 11
G01  24267596.641                   127527085.440 5
G04  22717973.242    22717976.613 5 119383710.331 8  93026312.92445
G11  23506770.500    23506772.172 4 123528847.293 7  96256295.07644
G14  23290132.422    23290136.203 3 122390497.616 7  95369204.89243
G15  23256692.961    23256695.922 5 122214759.432 7  95232276.05945
G18  21465530.367    21465531.746 5 112802123.369 7  87897751.48845
G19  22771088.484    22771089.395 5 119662883.936 7  93243798.81045
G22  20669267.086    20669267.820 6 108617718.777 8  84637190.70246
G24  22372833.242    22372839.016 5 117570078.026 7  91613052.03045
G27  24645501.852    24645505.105 2 129512961.141 5 100919205.56242
G28  22032988.297    22032991.082 4 115784086.543 7  90221416.36644
> 2015 07 19 00 20 30.0000000  0 11
G01  24257568.195                   127474383.162 5
G04  22711572.445    22711575.289 5 119350073.315 7  93000102.30545
G11  23501009.266    23501011.113 4 123498573.542 7  96232705.16944
G14  23279454.438    23279458.570 4 122334385.387 7  95325480.99044
G15  23265256.328    23265259.934 5 122259761.525 7  95267342.61445
G18  21473161.469    21473163.492 5 112842227.600 7  87929001.54445
G19  22776781.563    22776782.414 5 119692800.319 7  93267110.23445
G22  20668586.203    20668586.762 6 108614141.583 8  84634403.27346
G24  22367200.000    22367204.836 5 117540473.676 7  91589983.72345
G27  24656035.625    24656040.168 2 129568324.928 5 100962346.14842
G28  22035259.430    22035261.102 4 115796017.341 7  90230713.09644
> 2015 07 19 00 20 45.0000000  0 11
G01  24247549.578                   127421739.317 5
G04  22705192.180    22705194.145 5 119316543.426 8  92973975.14745
G11  23495267.570    23495269.535 4 123468400.574 7  96209193.81544
G14  23268789.836    23268793.793 4 122278340.524 7  95281809.68044
G15  23273836.477    23273839.027 5 122304847.995 7  95302474.90545
G18  21480816.180    21480818.320 5 112882452.596 7  87960345.70445
G19  22782499.289    22782500.258 5 119722848.747 8  93290524.63545
G22  20667935.047    20667936.016 6 108610721.032 8  84631737.91646
G24  22361591.008    22361596.430 5 117511000.610 7  91567017.74545
G27  24666578.016    24666584.492 3 129623734.244 5 101005522.20343
G28  22037565.555    22037567.344 5 115808136.069 7  90240156.27745
> 2015 07 19 00 21 00.0000000  0 11
G01  24237542.289                   127369153.844 5
G04  22698831.258    22698833.984 5 119283120.508 7  92947931.30645
G11  23489544.938    23489547.371 4 123438328.493 7  96185761.05144
G14  23258138.836    23258142.207 4 122222362.966 7  95238190.75544
G15  23282432.531    23282434.672 4 122350018.266 7  95337672.52144
G18  21488493.813    21488495.953 5 112922797.777 7  87991783.51645
G19  22788242.586    22788243.496 5 119753028.571 7  93314041.33445
G22  20667313.828    20667314.387 6 108607456.775 8  84629194.36846
G24  22356007.508    22356012.578 5 117481659.573 7  91544154.60045
G27  24677132.266    24677137.277 2 129679188.482 5 101048733.29542
G28  22039906.813    22039909.480 4 115820442.413 7  90249745.62244
> 2015 07 19 00 21 15.0000000  0 11
G01  24227547.961                   127316627.620 5
G04  22692491.836    22692495.500 5 119249805.573 7  92921971.59745
G11  23483841.641    23483844.016 4 123408357.839 7  96162407.29844
G14  23247498.781    23247502.270 3 122166453.729 7  95194625.08043
G15  23291044.133    23291046.449 5 122395272.634 7  95372935.64445
G18  21496193.781    21496195.336 5 112963263.164 7  88023314.95345
G19  22794010.906    22794011.816 5 119783340.393 7  93337660.95645
G22  20666722.594    20666723.328 6 108604349.879 8  84626773.51746
G24  22350449.375    22350454.445 5 117452450.721 7  91521394.46245
G27  24687692.891    24687698.137 2 129734687.766 5 101091979.42742
G28  22042284.875    22042286.547 5 115832936.711 7  90259481.42945
> 2015 07 19 00 21 30.0000000  0 11
G01  24217564.875                   127264160.564 5
G04  22686172.680    22686176.285 5 119216598.183 7  92896095.68845
G11  23478158.039    23478159.477 4 123378488.463 7  96139132.48144
G14  23236872.766    23236876.488 3 122110612.651 7  95151112.51643
G15  23299671.227    23299673.484 5 122440610.134 7  95408263.56945
G18  21503916.711    21503918.793 5 113003848.141 7  88054939.64345
G19  22799803.742    22799804.652 5 119813783.112 7  93361382.49445
G22  20666161.320    20666161.586 6 108601399.281 8  84624474.32846
G24  22344916.406    22344921.652 5 117423374.035 7  91498737.29845
G27  24698263.094    24698268.223 2 129790231.181 5 101135259.96742
G28  22044698.055    22044700.254 5 115845618.133 7  90269363.06045
> 2015 07 19 00 21 45.0000000  0 11
G01  24207591.383                   127211752.812 6
G04  22679874.328    22679877.348 5 119183498.700 7  92870303.87945
G11  23472493.148    23472495.406 4 123348720.648 7  96115936.78344
G14  23226260.117    23226263.078 3 122054840.091 7  95107653.41743
G15  23308314.148    23308316.816 4 122486030.819 7  95443656.31444
G18  21511662.656    21511665.383 5 113044552.458 7  88086657.27545
G19  22805621.609    22805622.461 5 119844356.652 7  93385205.96545
G22  20665630.016    20665630.340 6 108598605.336 8  84622297.16846
G24  22339408.047    22339413.117 5 117394429.868 7  91476183.40945
G27  24708840.195    24708846.848 2 129845818.689 5 101178574.87442
G28  22047146.938    22047148.551 4 115858486.825 7  90279390.58944
> 2015 07 19 00 22 00.0000000  0 11
G01  24197628.797    24197637.266 2 127159404.931 6  99085278.13752
G04  22673596.000    22673599.430 5 119150507.422 7  92844596.35745
G11  23466847.805    23466849.359 4 123319054.812 7  96092820.59644
G14  23215660.211    23215662.820 4 121999136.468 7  95064248.03544
G15  23316973.180    23316976.141 5 122531534.460 7  95479113.69945
G18  21519430.867    21519433.359 5 113085375.936 7  88118467.77445
G19  22811464.500    22811465.176 5 119875061.126 7  93409131.55445
G22  20665128.281    20665128.723 6 108595968.180 8  84620242.18646
G24  22333925.406    22333930.887 5 117365618.633 7  91453733.08245
G27  24719426.211    24719432.395 2 129901449.819 5 101221923.73742
G28  22049631.461    22049633.426 5 115871542.886 7  90289564.15945
> 2015 07 19 00 22 15.0000000  0 11
G01  24187680.141    24187687.145 2 127107117.397 6  99044534.44942
G04  22667338.695    22667342.066 5 119117624.955 7  92818973.65145
G11  23461221.477    23461223.617 4 123289491.147 7  96069784.00344
G14  23205073.109    23205076.246 3 121943502.151 7  95020896.64243
G15  23325648.703    23325650.844 5 122577120.886 7  95514635.61645
G18  21527222.250    21527224.215 5 113126318.232 7  88150370.83045
G19  22817332.031    22817332.941 5 119905896.115 7  93433158.81745
G22  20664656.188    20664656.980 6 108593488.076 8  84618309.63046
G24  22328467.945    22328473.660 5 117336940.386 7  91431386.37345
G27  24730021.313    24730027.379 2 129957124.399 5 101265306.46942
G28  22052151.469    22052153.258 4 115884786.197 7  90299883.63044
> 2015 07 19 00 22 30.0000000  0 11
G01  24177741.914    24177748.566 2 127054890.390 6  99003838.06342
G04  22661101.984    22661105.531 5 119084851.263 7  92793435.68745
G11  23455615.922    23455618.004 4 123260029.744 7  96046827.11344
G14  23194499.953    23194502.094 4 121887937.535 7  94977599.64844
G15  23334338.633    23334340.832 4 122622789.486 7  95550221.51744
G18  21535036.211    21535039.172 5 113167379.143 7  88182366.34945
G19  22823224.719    22823226.215 5 119936861.288 7  93457287.49145
G22  20664213.984    20664214.191 6 108591164.676 8  84616499.19146
G24  22323036.438    22323041.801 5 117308395.303 7  91409143.42145
G27  24740623.422    24740629.898 3 130012842.066 5 101308722.79943
G28  22054707.273    22054708.887 5 115898216.414 7  90310348.76345
> 2015 07 19 00 22 45.0000000  0 11
G01  24167814.586    24167821.121 2 127002724.099 6  98963188.97342
G04  22654886.266    22654889.402 5 119052186.570 7  92767982.63645
G11  23450028.844    23450030.984 4 123230670.674 7  96023949.93944
G14  23183939.367    23183941.859 4 121832442.555 7  94934356.83144
G15  23343044.680    23343047.582 4 122668539.982 7  95585871.23644
G18  21542872.039    21542874.180 5 113208558.124 7  88214453.83745
G19  22829142.008    22829142.859 5 119967956.466 7  93481517.51745
G22  20663801.867    20663802.602 6 108588997.814 8  84614810.65246
G24  22317629.766    22317635.070 5 117279983.771 7  91387004.56545
G27  24751235.086    24751241.563 3 130068602.210 5 101352172.15243
G28  22057298.000    22057300.199 5 115911833.363 7  90320959.39845
> 2015 07 19 00 23 00.0000000  0 11
G01  24157898.742    24157904.926 2 126950619.117 6  98922587.79442
G04  22648690.609    22648693.922 5 119019631.204 7  92742614.82945
G11  23444461.391    23444463.766 5 123201414.341 7  96001152.76145
G14  23173392.508    23173395.527 4 121777017.982 7  94891168.90244
G15  23351765.633    23351768.535 5 122714372.368 7  95621584.78545
G18  21550730.602    21550732.684 5 113249855.119 8  88246633.30345
G19  22835083.695    22835084.664 5 119999181.415 7  93505848.64945
G22  20663419.383    20663419.590 6 108586988.169 8  84613244.69546
G24  22312249.016    22312254.438 5 117251706.223 7  91364970.11245
G27  24761853.523    24761860.059 3 130124404.792 5 101395654.75943
G28  22059925.516    22059926.484 5 115925637.057 7  90331715.54045
> 2015 07 19 00 23 15.0000000  0 11
G01  24147995.094    24148001.277 2 126898575.626 6  98882034.39342
G04  22642516.813    22642520.008 5 118987185.426 7  92717332.39545
G11  23438913.914    23438915.820 4 123172261.070 7  95978435.93144
G14  23162858.977    23162861.703 4 121721663.956 7  94848035.86844
G15  23360503.719    23360505.977 4 122760286.368 7  95657361.92344
G18  21558612.117    21558614.316 5 113291269.791 7  88278904.47845
G19  22841050.117    22841051.262 5 120030535.820 7  93530280.67545
G22  20663066.984    20663067.602 6 108585135.549 8  84611801.06246
G24  22306893.141    22306898.855 5 117223562.721 7  91343040.12345
G27  24772480.961    24772487.086 3 130180249.352 5 101439169.95343
G28  22062587.164    22062588.895 5 115939627.087 7  90342616.85545
> 2015 07 19 00 23 30.0000000  0 11
G01  24138103.727    24138109.324 2 126846593.937 6  98841529.19142
G04  22636363.297    22636367.371 5 118954849.477 7  92692135.49945
G11  23433385.953    23433388.152 4 123143210.950 7  95955799.50644
G14  23152338.500    23152341.695 4 121666380.994 7  94804958.28444
G15  23369254.758    23369258.832 4 122806281.562 7  95693202.30944
G18  21566514.523    21566516.957 5 113332801.541 8  88311266.85345
G19  22847041.445    22847042.238 5 120062019.429 7  93554813.34945
G22  20662744.250    20662744.750 6 108583439.958 8  84610479.84846
G24  22301563.391    22301568.930 5 117195553.510 7  91321214.78345
G27  24783117.719    24783122.145 2 130236135.488 5 101482717.52142
G28  22065284.883    22065286.672 5 115953803.485 7  90353663.39645
> 2015 07 19 00 23 45.0000000  0 11
G01  24128223.555    24128229.445 2 126794674.379 6  98801072.34342
G04  22630230.883    22630234.547 5 118922623.762 7  92667024.53645
G11  23427877.906    23427879.344 4 123114264.445 7  95933243.80944
G14  23141831.969    23141835.164 4 121611169.354 7  94761936.28144
G15  23378024.336    23378026.652 4 122852357.663 7  95729105.71744
G18  21574440.383    21574442.992 5 113374450.257 7  88343720.36345
G19  22853057.453    22853058.012 5 120093631.681 7  93579446.12445
G22  20662451.469    20662452.086 6 108581901.385 8  84609281.01746
G24  22296259.055    22296264.066 5 117167678.928 7  91299494.34045
G27  24793760.250    24793764.266 2 130292062.945 6 101526297.31842
G28  22068018.266    22068019.938 5 115968166.115 7  90364855.05345
> 2015 07 19 00 24 00.0000000  0 11
G01  24118355.820    24118361.301 2 126742817.050 6  98760664.07342
G04  22624119.625    22624122.703 5 118890507.901 7  92641999.10845
G11  23422388.875    23422390.195 5 123085421.240 7  95910768.65045
G14  23131338.922    23131342.293 4 121556029.024 7  94718969.78844
G15  23386808.070    23386810.094 4 122898514.157 7  95765071.74644
G18  21582387.953    21582390.387 5 113416215.574 7  88376264.75245
G19  22859097.258    22859098.109 5 120125372.714 7  93604179.38545
G22  20662188.273    20662188.422 6 108580519.231 8  84608203.96846
G24  22290980.117    22290985.539 5 117139938.860 7  91277878.69945
G27  24804411.258    24804415.508 2 130348031.055 6 101569908.75742
G28  22070786.656    22070788.621 5 115982714.594 7  90376191.53245
> 2015 07 19 00 24 15.0000000  0 11
G01  24108499.047    24108505.406 2 126691022.272 6  98720304.48542
G04  22618029.281    22618032.711 5 118858502.466 7  92617059.74745
G11  23416920.391    23416921.535 4 123056681.605 7  95888374.16144
G14  23120859.703    23120863.309 4 121500960.544 7  94676059.29344
G15  23395606.094    23395608.703 4 122944750.874 7  95801100.34744
G18  21590358.016    21590360.273 5 113458096.947 7  88408899.58945
G19  22865161.523    22865163.078 5 120157242.222 7  93629012.84845
G22  20661955.477    20661955.742 6 108579293.767 8  84607248.94546
G24  22285726.977    22285732.691 5 117112333.563 7  91256368.06145
G27  24815067.805    24815073.227 3 130404039.639 6 101613551.81643
G28  22073590.039    22073592.121 5 115997448.762 7  90387672.70045
> 2015 07 19 00 24 30.0000000  0 11
G01  24098654.203    24098661.383 2 126639290.875 6  98679994.31342
G04  22611960.297    22611963.727 5 118826608.121 7  92592206.96545
G11  23411470.820    23411472.082 4 123028046.293 7  95866060.96944
G14  23110393.875    23110398.125 4 121445964.626 7  94633205.36044
G15  23404420.023    23404423.102 4 122991067.769 7  95837191.35444
G18  21598349.656    21598352.266 5 113500094.680 8  88441625.09645
G19  22871250.523    22871251.434 5 120189239.927 7  93653946.10145
G22  20661752.164    20661752.664 6 108578225.799 8  84606416.80846
G24  22280499.648    22280505.480 5 117084863.627 7  91234962.90445
G27  24825733.453    24825738.523 2 130460088.586 5 101657226.32342
G28  22076429.766    22076431.379 5 116012368.946 7  90399298.81545
> 2015 07 19 00 24 45.0000000  0 11
G01  24088822.523    24088828.707 2 126587622.603 6  98639733.34442
G04  22605912.086    22605915.574 5 118794824.419 7  92567440.38445
G11  23406041.938    23406042.730 5 122999514.956 7  95843828.79245
G14  23099942.555    23099946.688 4 121391041.132 7  94590407.86644
G15  23413248.227    23413251.422 4 123037464.236 7  95873344.41444
G18  21606363.672    21606365.695 5 113542207.979 7  88474440.62945
G19  22877363.719    22877364.980 5 120221365.273 7  93678978.80745
G22  20661578.930    20661579.547 6 108577314.450 8  84605706.64546
G24  22275298.656    22275303.434 5 117057528.994 7  91213663.20945
G27  24836405.656    24836411.488 2 130516177.129 5 101700931.67242
G28  22079304.141    22079305.695 4 116027474.492 7  90411069.37444
> 2015 07 19 00 25 00.0000000  0 11
G01  24079002.367    24079009.195 2 126536018.035 6  98599522.02342
G04  22599884.813    22599888.418 5 118763152.223 7  92542760.76245
G11  23400632.023    23400633.637 5 122971087.935 7  95821677.89045
G14  23089504.875    23089508.363 4 121336190.592 7  94547667.23944
G15  23422093.617    23422096.051 4 123083940.222 7  95909559.42344
G18  21614399.398    21614401.422 5 113584436.608 8  88507346.01745
G19  22883501.102    22883502.422 5 120253618.268 7  93704111.05245
G22  20661434.805    20661435.012 6 108576559.967 8  84605118.68746
G24  22270122.820    22270128.359 5 117030330.193 7  91192469.33745
G27  24847088.391    24847092.465 2 130572305.080 6 101744667.71142
G28  22082213.820    22082216.078 5 116042765.293 7  90422984.27745
> 2015 07 19 00 25 15.0000000  0 11
G01  24069193.875    24069201.172 2 126484477.608 6  98559360.67742
G04  22593879.086    22593882.574 5 118731591.695 7  92518168.22045
G11  23395242.445    23395244.176 4 122942765.419 7  95799608.37444
G14  23079081.188    23079084.617 4 121281413.394 7  94504983.74944
G15  23430951.672    23430954.398 4 123130495.542 7  95945836.27844
G18  21622457.398    21622459.422 5 113626780.536 8  88540341.26545
G19  22889663.180    22889664.676 5 120285998.708 7  93729342.54045
G22  20661321.258    20661322.109 6 108575962.694 8  84604653.29846
G24  22264972.766    22264977.719 5 117003267.288 7  91171381.33845
G27  24857774.430    24857781.141 2 130628472.205 6 101788434.27242
G28  22085158.570    22085160.828 4 116058241.399 7  90435043.58444
> 2015 07 19 00 25 30.0000000  0 11
G01  24059399.375    24059404.563 3 126433001.556 6  98519249.56743
G04  22587894.906    22587897.516 5 118700142.640 7  92493662.41145
G11  23389872.867    23389874.656 5 122914547.753 7  95777620.54445
G14  23068671.727    23068675.215 4 121226709.813 7  94462357.55344
G15  23439826.977    23439830.172 4 123177129.737 7  95982174.56444
G18  21630536.977    21630539.527 5 113669239.249 8  88573425.98445
G19  22895849.063    22895849.914 5 120318506.391 7  93754673.24945
G22  20661237.531    20661238.617 6 108575522.487 8  84604310.34246
G24  22259848.672    22259854.328 5 116976340.452 7  91150399.35545
G27  24868470.422    24868476.547 2 130684678.166 5 101832231.09742
G28  22088139.078    22088141.102 5 116073902.621 7  90447247.13245
> 2015 07 19 00 25 45.0000000  0 11
G01  24049615.922    24049621.285 3 126381590.244 6  98479188.87643
G04  22581931.750    22581934.535 5 118668805.841 7  92469244.10945
G11  23384523.133    23384524.688 5 122886435.297 7  95755714.72345
G14  23058276.156    23058278.531 4 121172080.217 7  94419789.05144
G15  23448715.172    23448718.250 4 123223842.671 7  96018574.23644
G18  21638638.602    21638640.625 5 113711812.647 7  88606600.02945
G19  22902059.281    22902060.367 5 120351140.801 7  93780102.66945
G22  20661183.688    20661184.598 7 108575239.390 8  84604089.79147
G24  22254750.727    22254755.797 5 116949550.311 7  91129523.92745
G27  24879173.133    24879179.082 2 130740922.566 5 101876057.85942
G28  22091155.063    22091156.383 4 116089748.931 7  90459594.91644
> 2015 07 19 00 26 00.0000000  0 11
G01  24039845.102    24039851.520 3 126330243.693 6  98439178.59543
G04  22575989.836    22575992.797 5 118637581.254 7  92444913.31445
G11  23379193.516    23379195.422 4 122858427.915 7  95733890.78244
G14  23047894.000    23047897.020 4 121117524.758 7  94377278.30544
G15  23457619.234    23457622.254 4 123270633.907 7  96055034.93744
G18  21646761.305    21646764.090 5 113754499.945 7  88639862.84245
G19  22908293.336    22908294.539 5 120383901.663 7  93805630.63445
G22  20661159.594    20661160.270 7 108575112.937 8  84603991.24647
G24  22249678.664    22249683.910 5 116922896.346 7  91108754.61545
G27  24889882.195    24889888.555 2 130797204.894 5 101919914.20042
G28  22094205.383    22094207.113 5 116105779.719 7  90472086.45845
> 2015 07 19 00 26 15.0000000  0 11
G01  24030087.820    24030092.773 2 126278962.458 6  98399219.24042
G04  22570069.375    22570072.863 5 118606469.039 7  92420670.09445
G11  23373884.438    23373886.051 5 122830525.951 7  95712149.00845
G14  23037526.445    23037530.168 4 121063044.000 7  94334825.78244
G15  23466539.039    23466541.590 4 123317503.104 7  96091556.41544
G18  21654906.297    21654908.672 5 113797300.979 7  88673214.27645
G19  22914551.969    22914552.820 5 120416788.690 7  93831256.86745
G22  20661165.305    20661165.746 6 108575143.447 8  84604015.05746
G24  22244632.797    22244638.336 5 116896379.059 7  91088091.78545
G27  24900599.563    24900606.684 2 130853524.827 5 101963799.83642
G28  22097290.781    22097292.570 5 116121994.882 7  90484721.63845
> 2015 07 19 00 26 30.0000000  0 11
G01  24020339.930    24020346.113 3 126227746.958 6  98359311.13043
G04  22564170.547    22564174.035 5 118575469.560 7  92396514.66645
G11  23368594.031    23368595.820 4 122802729.983 7  95690489.86144
G14  23027173.719    23027176.504 4 121008638.306 7  94292431.69544
G15  23475472.008    23475475.379 4 123364450.042 7  96128138.41744
G18  21663072.648    21663075.258 5 113840215.853 8  88706654.42445
G19  22920834.164    22920834.840 5 120449801.879 7  93856981.38345
G22  20661201.047    20661201.957 7 108575331.138 8  84604161.31447
G24  22239612.898    22239617.734 5 116869999.111 7  91067535.98545
G27  24911325.117    24911330.539 2 130909882.199 5 102007714.58242
G28  22100411.391    22100413.004 5 116138394.598 7  90497500.64445
> 2015 07 19 00 26 45.0000000  0 11
G01  24010606.477    24010612.484 3 126176597.261 6  98319454.17543
G04  22558292.773    22558296.203 5 118544583.011 7  92372447.27245
G11  23363325.188    23363327.094 5 122775039.717 7  95668913.04345
G14  23016835.383    23016838.988 4 120954307.844 7  94250096.23944
G15  23484421.313    23484424.098 4 123411474.483 7  96164780.79444
G18  21671260.438    21671263.164 5 113883244.019 7  88740182.87845
G19  22927140.070    22927141.215 5 120482940.834 7  93882803.98945
G22  20661267.000    20661267.500 6 108575675.833 8  84604429.89346
G24  22234619.234    22234623.895 5 116843756.541 7  91047087.21145
G27  24922056.211    24922062.570 2 130966276.666 5 102051658.26742
G28  22103567.422    22103568.977 5 116154978.500 7  90510423.15945
> 2015 07 19 00 27 00.0000000  0 11
G01  24000885.813    24000891.820 3 126125513.980 6  98279649.13743
G04  22552436.789    22552440.102 5 118513809.528 7  92348467.87645
G11  23358076.141    23358077.930 5 122747455.519 7  95647418.90145
G14  23006510.750    23006514.004 4 120900053.084 7  94207819.82444
G15  23493383.820    23493387.602 4 123458576.128 7  96201483.32444
G18  21679470.313    21679472.043 5 113926385.105 7  88773799.33345
G19  22933470.594    22933471.211 5 120516205.194 7  93908724.24345
G22  20661362.250    20661362.750 6 108576177.527 8  84604820.82446
G24  22229650.922    22229656.402 5 116817651.185 7  91026745.34645
G27  24932794.289    24932802.172 2 131022707.644 5 102095630.39442
G28  22106758.508    22106760.473 5 116171746.387 7  90523489.03445
> 2015 07 19 00 27 15.0000000  0 11
G01  23991178.164    23991184.055 3 126074497.060 6  98239895.72343
G04  22546602.250    22546605.680 5 118483149.503 7  92324576.90045
G11  23352847.047    23352849.012 5 122719977.374 7  95626007.35145
G14  22996200.609    22996203.805 4 120845874.117 7  94165602.42044
G15  23502362.039    23502365.117 4 123505754.545 7  96238245.70344
G18  21687701.242    21687703.324 5 113969638.590 7  88807503.34645
G19  22939824.547    22939824.930 5 120549594.649 7  93934741.95645
G22  20661487.617    20661488.352 6 108576836.031 8  84605333.93046
G24  22224709.234    22224714.949 5 116791683.530 7  91006510.81045
G27  24943537.977    24943546.680 2 131079175.028 5 102139630.94842
G28  22109983.633    22109986.066 5 116188697.894 7  90536698.00645
> 2015 07 19 00 27 30.0000000  0 11
G01  23981483.008    23981487.961 3 126023546.988 6  98200194.42743
G04  22540789.211    22540792.758 5 118452603.044 7  92300774.52045
G11  23347638.664    23347639.984 5 122692605.618 7  95604678.71845
G14  22985905.820    22985908.664 4 120791771.480 7  94123444.55144
G15  23511354.297    23511356.672 4 123553009.549 7  96275067.74544
G18  21695953.195    21695955.336 5 114013003.933 7  88841294.53845
G19  22946201.813    22946202.781 5 120583108.958 7  93960856.95445
G22  20661643.078    20661643.520 6 108577651.381 8  84605969.28246
G24  22219794.039    22219800.164 5 116765853.927 7  90986383.85545
G27  24954292.016    24954298.727 2 131135678.050 5 102183659.22842
G28  22113244.352    22113246.082 5 116205832.896 7  90550049.93845
> 2015 07 19 00 27 45.0000000  0 11
G01  23971799.680    23971805.570 3 125972664.359 6  98160545.63943
G04  22534998.375    22535001.395 5 118422170.903 7  92277061.23645
G11  23342450.156    23342451.711 5 122665340.834 7  95583433.42645
G14  22975625.000    22975627.668 4 120737745.896 7  94081346.81944
G15  23520361.320    23520364.281 4 123600341.173 7  96311949.50344
G18  21704227.016    21704228.688 5 114056481.530 7  88875173.19445
G19  22952603.406    22952604.434 5 120616748.229 7  93987069.33045
G22  20661827.805    20661828.539 7 108578624.159 8  84606727.34047
G24  22214905.453    22214911.227 5 116740162.560 7  90966364.59645
G27  24965052.773    24965057.961 2 131192216.974 5 102227715.41042
G28  22116540.813    22116542.602 5 116223151.674 7  90563545.06845
> 2015 07 19 00 28 00.0000000  0 11
G01  23962130.211    23962136.570 3 125921849.103 6  98120949.29043
G04  22529229.570    22529232.473 5 118391852.465 7  92253436.39645
G11  23337282.180    23337283.852 5 122638182.854 7  95562271.39345
G14  22965358.578    22965361.480 4 120683797.060 7  94039308.76944
G15  23529382.313    23529385.273 4 123647748.796 7  96348890.53344
G18  21712521.414    21712523.203 5 114100070.842 7  88909138.90845
G19  22959028.336    22959028.836 5 120650511.922 7  94013378.73045
G22  20662042.508    20662042.773 7 108579753.748 8  84607607.54747
G24  22210042.102    22210047.934 5 116714609.428 7  90946453.04945
G27  24975817.664    24975824.375 2 131248791.091 5 102271799.04042
G28  22119871.281    22119873.070 5 116240653.708 7  90577183.00845
> 2015 07 19 00 28 15.0000000  0 10
G01  23952472.594    23952478.367 3 125871101.646 6  98081405.86243
G04  22523481.266    22523484.695 5 118361648.255 7  92229900.63845
G11  23332134.336    23332136.184 5 122611131.589 7  95541192.40745
G14  22955106.883    22955110.547 4 120629925.545 7  93997331.01244
G15  23538417.461    23538420.949 4 123695232.017 6  96385890.45944
G18  21720836.891    21720840.086 5 114143771.265 7  88943191.14745
G19  22965476.320    22965477.641 5 120684399.293 7  94039784.41745
G22  20662287.234    20662288.086 6 108581040.130 8  84608609.95146
G24  22205206.430    22205212.496 5 116689194.894 7  90926649.49945
G28  22123236.102    22123238.418 5 116258338.677 7  90590963.48745
> 2015 07 19 00 28 30.0000000  0 10
G01  23942828.016    23942834.668 3 125820422.080 6  98041915.29543
G04  22517755.492    22517758.922 5 118331558.394 7  92206453.97645
G11  23327007.578    23327008.957 4 122584187.420 7  95520196.92344
G14  22944870.594    22944873.730 4 120576131.448 7  93955413.59344
G15  23547467.977    23547470.879 4 123742790.505 7  96422949.05944
G18  21729174.844    21729176.691 5 114187582.799 7  88977329.98245
G19  22971948.539    22971949.742 5 120718410.443 7  94066286.57045
G22  20662562.031    20662562.648 6 108582483.033 8  84609734.22446
G24  22200396.477    22200401.488 5 116663918.833 7  90906953.87045
G28  22126636.102    22126638.535 5 116276206.297 7  90604886.29445
> 2015 07 19 00 28 45.0000000  0 10
G01  23933198.406    23933204.297 3 125769811.063 6  98002478.15143
G04  22512051.258    22512054.395 5 118301583.395 7  92183096.81045
G11  23321900.195    23321902.160 5 122557350.807 7  95499285.28645
G14  22934648.180    22934651.375 4 120522415.266 7  93913556.81844
G15  23556532.578    23556535.012 4 123790424.336 7  96460066.36144
G18  21737532.461    21737534.660 5 114231505.174 7  89011555.21445
G19  22978444.906    22978445.465 5 120752545.257 7  94092885.11945
G22  20662866.422    20662867.391 6 108584083.093 8  84610981.00846
G24  22195613.250    22195619.727 5 116638782.005 7  90887366.73745
G28  22130071.172    22130073.137 5 116294256.460 7  90618951.33545
> 2015 07 19 00 29 00.0000000  0 10
G01  23923580.305    23923585.961 3 125719268.796 6  97963094.54943
G04  22506369.094    22506372.875 5 118271723.589 7  92159829.43945
G11  23316813.844    23316815.926 5 122530621.974 7  95478457.65945
G14  22924441.711    22924444.613 4 120468777.389 7  93871761.07744
G15  23565611.398    23565614.418 4 123838133.110 7  96497242.09544
G18  21745911.992    21745914.543 5 114275537.720 7  89045866.26745
G19  22984963.648    22984965.086 5 120786803.345 7  94119579.71445
G22  20663200.711    20663201.855 6 108585840.043 8  84612350.08146
G24  22190856.313    22190862.145 5 116613784.456 7  90867888.10345
G28  22133540.727    22133542.574 5 116312489.140 7  90633158.61645
> 2015 07 19 00 29 15.0000000  0 10
G01  23913975.055    23913981.414 3 125668795.482 6  97923764.69243
G04  22500709.117    22500712.605 5 118241978.770 7  92136651.59945
G11  23311747.852    23311749.816 5 122504000.531 7  95457713.61745
G14  22914249.703    22914252.898 4 120415218.139 7  93830026.65444
G15  23574703.594    23574706.262 4 123885916.073 7  96534475.54944
G18  21754312.023    21754313.754 5 114319680.128 7  89080262.93645
G19  22991505.609    22991507.047 5 120821184.116 7  94146369.89545
G22  20663564.852    20663565.703 6 108587753.586 8  84613841.13146
G24  22186125.438    22186132.266 5 116588926.029 7  90848517.97445
G28  22137044.758    22137046.488 5 116330903.919 7  90647507.79145
> 2015 07 19 00 29 30.0000000  0 10
G01  23904383.422    23904389.840 3 125618391.976 6  97884489.27043
G04  22495070.930    22495074.711 5 118212349.809 7  92113564.04845
G11  23306702.734    23306704.816 5 122477487.655 7  95437054.29345
G14  22904072.594    22904076.023 4 120361737.777 7  93788353.50844
G15  23583812.008    23583813.855 4 123933773.783 7  96571767.31044
G18  21762732.938    21762734.727 5 114363932.606 7  89114745.36045
G19  22998071.883    22998073.203 5 120855688.070 7  94173256.11545
G22  20663958.648    20663959.559 6 108589824.504 8  84615454.82946
G24  22181422.250    22181428.082 5 116564207.573 7  90829256.81945
G28  22140583.938    22140585.375 5 116349501.178 7  90661999.14845
> 2015 07 19 00 29 45.0000000  0 10
G01  23894806.273    23894811.461 3 125568057.889 6  97845267.94843
G04  22489454.734    22489457.930 5 118182835.981 7  92090566.13945
G11  23301678.352    23301679.848 5 122451082.555 7  95416478.90145
G14  22893910.836    22893914.676 4 120308336.613 7  93746742.20044
G15  23592932.016    23592934.449 4 123981705.147 7  96609116.45644
G18  21771174.828    21771176.207 5 114408294.310 7  89149312.89545
G19  23004661.336    23004662.012 5 120890313.944 7  94200237.28045
G22  20664382.898    20664383.223 6 108592051.809 8  84617190.33646
G24  22176745.445    22176750.867 5 116539628.530 7  90810104.27045
G28  22144157.508    22144159.473 5 116368279.822 7  90676631.83445
> 2015 07 19 00 30 00.0000000  0 10
G01  23885240.109    23885246.586 3 125517794.006 6  97806101.31843
G04  22483860.852    22483864.340 5 118153438.640 8  92067659.08845
G11  23296674.086    23296675.582 5 122424786.124 7  95395988.21445
G14  22883764.086    22883767.633 4 120255015.327 7  93705193.15544
G15  23602068.180    23602070.496 4 124029710.471 7  96646523.29044
G18  21779637.563    21779639.762 5 114452765.437 7  89183965.71745
G19  23011273.719    23011274.512 5 120925061.988 7  94227313.63145
G22  20664836.570    20664836.953 6 108594436.288 8  84619048.43746
G24  22172094.320    22172100.035 5 116515189.692 7  90791061.06045
G28  22147765.148    22147766.762 5 116387240.414 7  90691406.30845
> 2015 07 19 00 30 15.0000000  0 10
G01  23875689.547    23875695.203 3 125467600.689 6  97766989.66543
G04  22478288.172    22478291.543 5 118124157.463 7  92044842.51045
G11  23291690.328    23291692.996 5 122398598.336 7  95375582.10945
G14  22873632.703    22873635.840 4 120201774.106 7  93663706.48544
G15  23611216.258    23611218.516 4 124077789.371 7  96683987.44444
G18  21788120.891    21788122.445 5 114497345.302 7  89218703.27545
G19  23017908.797    23017910.410 5 120959931.900 7  94254484.94145
G22  20665320.266    20665320.590 6 108596977.896 8  84621029.00146
G24  22167470.500    22167475.980 5 116490891.381 7  90772127.38245
G28  22151407.992    22151409.723 5 116406382.593 7  90706322.27645
> 2015 07 19 00 30 30.0000000  0 10
G01  23866150.258    23866157.145 3 125417478.060 6  97727933.08243
G04  22472738.484    22472742.266 5 118094992.769 8  92022116.71045
G11  23286727.531    23286729.496 4 122372519.364 7  95355260.87744
G14  22863516.930    22863520.242 4 120148613.102 7  93622282.32844
G15  23620378.883    23620382.313 4 124125941.361 7  96721508.51744
G18  21796625.000    21796626.672 5 114542033.645 7  89253525.34745
G19  23024567.383    23024568.352 5 120994923.544 7  94281751.12445
G22  20665833.555    20665834.582 6 108599676.233 8  84623131.69546
G24  22162873.414    22162878.543 5 116466733.556 7  90753303.07545
G28  22155084.867    22155087.125 5 116425706.098 7  90721379.55245
> 2015 07 19 00 30 45.0000000  0 10
G01  23856627.141    23856632.563 3 125367426.297 6  97688931.66343
G04  22467210.961    22467215.328 5 118065944.696 8  91999481.80145
G11  23281785.867    23281787.480 4 122346549.210 7  95335024.35144
G14  22853415.836    22853419.441 4 120095532.815 7  93580921.11944
G15  23629556.281    23629559.066 4 124174166.054 7  96759086.22944
G18  21805148.969    21805151.168 5 114586829.996 7  89288431.57345
G19  23031249.563    23031250.766 5 121030036.412 7  94309111.71845
G22  20666376.758    20666377.258 6 108602531.178 8  84625356.37846
G24  22158303.367    22158309.082 5 116442716.426 7  90734588.46745
G28  22158797.141    22158798.871 5 116445210.565 7  90736577.84145
> 2015 07 19 00 31 00.0000000  0 10
G01  23847115.109    23847121.176 3 125317445.902 7  97649985.88543
G04  22461705.469    22461708.781 5 118037013.495 8  91976937.98645
G11  23276864.742    23276866.414 5 122320688.464 7  95314873.16245
G14  22843330.313    22843333.098 4 120042533.471 7  93539622.88844
G15  23638746.734    23638750.223 4 124222463.228 7  96796720.36844
G18  21813694.070    21813695.977 5 114631734.255 7  89323421.91745
G19  23037953.875    23037955.723 5 121065270.389 7  94336566.71745
G22  20666950.047    20666950.137 6 108605542.902 8  84627703.34946
G24  22153759.922    22153765.578 5 116418840.109 7  90715983.51345
G28  22162543.203    22162544.289 5 116464896.027 7  90751917.15745
> 2015 07 19 00 31 15.0000000  0 10
G01  23837618.031    23837623.922 3 125267536.868 7  97611095.66043
G04  22456222.742    22456226.230 5 118008199.097 8  91954485.13445
G11  23271964.242    23271966.383 5 122294936.853 7  95294806.99045
G14  22833260.445    22833264.109 4 119989615.441 7  93498388.14344
G15  23647950.922    23647953.473 4 124270832.545 7  96834410.74544
G18  21822259.383    21822261.289 5 114676745.692 7  89358495.79745
G19  23044681.805    23044683.066 5 121100624.752 7  94364115.53745
G22  20667552.656    20667553.039 6 108608711.102 8  84630172.21046
G24  22149243.195    22149248.676 5 116395104.651 7  90697488.34245
G28  22166323.117    22166324.965 5 116484761.717 7  90767396.90845
> 2015 07 19 00 31 30.0000000  0 10
G01  23828134.758    23828140.766 3 125217699.669 7  97572261.39643
G04  22450761.875    22450765.305 5 117979502.036 8  91932123.78045
G11  23267084.688    23267086.594 5 122269294.605 7  95274825.94345
G14  22823205.672    22823209.805 4 119936779.000 7  93457216.95444
G15  23657169.781    23657171.922 4 124319273.790 7  96872157.12544
G18  21830845.578    21830846.781 5 114721864.600 7  89393653.40845
G19  23051432.789    23051434.520 5 121136099.445 7  94391758.11245
G22  20668185.000    20668185.207 6 108612035.835 8  84632762.97246
G24  22144753.781    22144759.320 6 116371510.317 7  90679103.16646
G28  22170138.016    22170139.336 5 116504807.846 7  90783017.26845
> 2015 07 19 00 31 45.0000000  0 10
G01  23818665.336    23818670.992 3 125167934.856 7  97533483.65643
G04  22445323.375    22445326.160 5 117950922.294 8  91909853.81645
G11  23262226.320    23262227.641 4 122243761.939 7  95254930.31044
G14  22813166.703    22813170.133 4 119884024.236 7  93416109.40244
G15  23666402.297    23666404.320 4 124367786.563 7  96909959.25744
G18  21839451.055    21839452.844 5 114767090.074 7  89428894.00145
G19  23058206.609    23058207.461 5 121171693.991 7  94419494.03445
G22  20668847.602    20668848.219 6 108615516.903 8  84635475.46046
G24  22140290.625    22140296.398 5 116348057.537 7  90660828.31545
G28  22173986.523    22173988.254 5 116525033.821 7  90798777.74345
> 2015 07 19 00 32 00.0000000  0 10
G01  23809208.383    23809214.332 4 125118242.851 7  97494762.70544
G04  22439907.211    22439910.641 5 117922460.487 8  91887675.81345
G11  23257387.656    23257390.090 5 122218339.344 7  95235120.44745
G14  22803142.992    22803147.066 4 119831351.819 7  93375065.98844
G15  23675645.438    23675649.102 4 124416370.834 7  96947817.09744
G18  21848077.695    21848079.250 5 114812422.158 7  89464217.63345
G19  23065002.344    23065003.488 5 121207408.500 7  94447323.46845
G22  20669539.836    20669540.746 6 108619154.718 8  84638310.16146
G24  22135854.820    22135859.891 5 116324746.378 7  90642663.76445
G28  22177870.547    22177872.277 5 116545440.019 7  90814678.66145
> 2015 07 19 00 32 15.0000000  0 10
G01  23799766.711    23799772.367 4 125068623.530 7  97456098.33044
G04  22434513.484    22434516.914 5 117894116.546 8  91865589.64645
G11  23252571.086    23252573.285 4 122193026.654 7  95215396.19944
G14  22793135.438    22793139.863 4 119778761.970 7  93334086.95744
G15  23684904.453    23684907.766 4 124465026.040 7  96985730.21344
G18  21856724.797    21856726.059 5 114857860.408 7  89499624.06545
G19  23071821.797    23071822.648 5 121243242.453 7  94475245.98845
G22  20670262.031    20670262.824 6 108622948.931 8  84641266.72046
G24  22131445.625    22131451.340 5 116301576.775 7  90624609.53645
G28  22181787.234    22181789.492 5 116566025.796 7  90830719.51945
> 2015 07 19 00 32 30.0000000  0 10
G01  23790338.367    23790344.141 4 125019077.530 7  97417491.07644
G04  22429142.492    22429145.746 5 117865890.801 8  91843595.55045
G11  23247775.922    23247778.180 5 122167824.495 7  95195758.09645
G14  22783143.820    22783147.953 4 119726254.969 7  93293172.39344
G15  23694176.453    23694180.410 4 124513752.195 7  97023698.62844
G18  21865391.016    21865392.629 5 114903404.498 7  89535112.94545
G19  23078663.031    23078663.707 5 121279195.760 7  94503261.50745
G22  20671013.820    20671014.320 6 108626899.736 8  84644345.30946
G24  22127063.922    22127069.695 6 116278549.589 7  90606666.28746
G28  22185738.828    22185741.027 5 116586791.045 7  90846900.23045
> 2015 07 19 00 32 45.0000000  0 10
G01  23780923.148    23780929.449 4 124969604.747 7  97378940.83844
G04  22423793.820    22423796.840 5 117837783.328 8  91821693.68945
G11  23243001.250    23243003.332 5 122142732.536 7  95176205.89645
G14  22773167.859    22773171.523 4 119673831.340 7  93252322.98044
G15  23703463.336    23703465.652 4 124562548.530 7  97061721.71244
G18  21874077.820    21874079.785 5 114949053.614 7  89570683.67545
G19  23085527.367    23085528.453 5 121315268.005 7  94531369.83445
G22  20671795.422    20671796.332 6 108631006.745 8  84647545.57446
G24  22122708.391    22122714.340 5 116255664.219 7  90588833.50445
G28  22189724.414    22189726.438 5 116607735.285 7  90863220.40845
> 2015 07 19 00 33 00.0000000  0 10
G01  23771523.313    23771529.848 4 124920206.062 7  97340448.37244
G04  22418467.258    22418471.039 5 117809794.508 7  91799884.20945
G11  23238247.320    23238248.875 5 122117751.278 7  95156739.92145
G14  22763207.703    22763211.777 4 119621491.289 7  93211538.53644
G15  23712759.758    23712764.066 4 124611415.248 7  97099799.65544
G18  21882784.664    21882786.395 5 114994808.088 7  89606336.51445
G19  23092414.633    23092414.781 5 121351458.743 7  94559570.40645
G22  20672606.648    20672606.855 7 108635270.286 8  84650867.77947
G24  22118380.461    22118386.234 5 116232921.725 7  90571112.11245
G28  22193743.523    22193746.250 5 116628858.782 7  90879680.28945
> 2015 07 19 00 33 15.0000000  0 10
G01  23762137.453    23762143.344 4 124870881.473 7  97302013.63144
G04  22413164.008    22413166.852 5 117781924.511 7  91778167.32045
G11  23233514.789    23233516.754 5 122092880.920 7  95137360.42645
G14  22753263.641    22753267.246 4 119569235.328 7  93170819.75944
G15  23722073.570    23722076.590 4 124660351.886 7  97137932.11544
G18  21891511.273    21891513.004 5 115040667.522 7  89642071.17245
G19  23099323.672    23099324.641 5 121387767.667 7  94587862.98345
G22  20673447.750    20673448.016 6 108639690.252 8  84654311.90746
G24  22114079.898    22114085.496 5 116210321.833 7  90553501.82645
G28  22197797.852    22197799.230 5 116650160.879 7  90896279.30445
> 2015 07 19 00 33 30.0000000  0 10
G01  23752765.422    23752771.137 4 124821631.846 7  97263637.35144
G04  22407883.391    22407886.234 5 117754174.038 7  91756543.55645
G11  23228803.133    23228805.332 5 122068121.996 7  95118067.68945
G14  22743336.008    22743339.320 4 119517063.631 7  93130166.42544
G15  23731400.586    23731402.844 4 124709358.539 7  97176119.09144
G18  21900257.914    21900259.352 5 115086631.903 7  89677887.56545
G19  23106255.797    23106256.648 5 121424194.874 7  94616247.70045
G22  20674318.648    20674319.383 6 108644267.043 8  84657878.21346
G24  22109807.344    22109812.648 6 116187865.015 7  90536003.01746
G28  22201885.797    22201887.000 5 116671642.025 7  90913017.83545
> 2015 07 19 00 33 45.0000000  0 10
G01  23743407.430    23743413.672 3 124772456.997 7  97225319.28243
G04  22402625.250    22402628.797 5 117726542.960 7  91735012.85945
G11  23224113.000    23224114.730 5 122043474.362 7  95098861.68345
G14  22733424.320    22733427.398 4 119464976.602 7  93089579.09244
G15  23740738.656    23740741.852 4 124758434.505 7  97214360.07844
G18  21909025.000    21909026.555 5 115132700.543 7  89713785.19745
G19  23113210.570    23113211.422 5 121460739.996 7  94644724.35945
G22  20675219.313    20675219.813 7 108649000.173 8  84661566.36347
G24  22105560.672    22105565.801 5 116165551.294 7  90518615.72745
G28  22206006.602    22206008.918 5 116693301.540 7  90929895.37745
> 2015 07 19 00 34 00.0000000  0 10
G01  23734064.383    23734069.922 4 124723357.039 7  97187059.58044
G04  22397389.859    22397393.289 5 117699031.139 7  91713575.06245
G11  23219444.148    23219445.586 5 122018937.815 7  95079742.25445
G14  22723528.633    22723532.004 5 119412974.237 7  93049057.73145
G15  23750090.016    23750092.859 4 124807579.243 7  97252654.68344
G18  21917811.102    21917812.422 5 115178872.751 7  89749763.52345
G19  23120187.016    23120187.164 5 121497402.656 7  94673292.68445
G22  20676149.891    20676150.039 6 108653889.259 8  84665376.01546
G24  22101341.914    22101346.984 6 116143380.612 7  90501339.90546
G28  22210162.492    22210164.047 5 116715139.048 7  90946911.65045
> 2015 07 19 00 34 15.0000000  0 10
G01  23724735.023    23724741.031 4 124674332.577 7  97148858.66044
G04  22392177.258    22392180.922 5 117671638.954 7  91692230.48445
G11  23214795.797    23214797.938 5 121994512.826 7  95060709.72045
G14  22713649.359    22713652.613 5 119361057.315 7  93008602.96545
G15  23759454.570    23759457.883 4 124856792.866 6  97291002.93344
G18  21926617.297    21926618.441 5 115225148.627 7  89785822.66745
G19  23127186.211    23127186.652 5 121534182.483 7  94701952.30645
G22  20677110.070    20677110.570 6 108658934.760 8  84669307.55146
G24  22097149.734    22097155.156 5 116121353.293 7  90484175.76945
G28  22214351.609    22214354.336 5 116737154.449 7  90964066.48545
> 2015 07 19 00 34 30.0000000  0 10
G01  23715420.602    23715426.434 4 124625383.955 7  97110716.84844
G04  22386987.570    22386991.117 5 117644366.833 7  91670979.42145
G11  23210169.891    23210171.387 5 121970199.823 7  95041764.49945
G14  22703786.039    22703789.879 5 119309226.194 7  92968215.09645
G15  23768833.719    23768836.914 4 124906075.026 7  97329404.59444
G18  21935442.648    21935444.262 5 115271527.630 7  89821962.12245
G19  23134206.672    23134207.758 5 121571079.038 7  94730702.74745
G22  20678099.875    20678099.672 6 108664136.580 8  84673360.93746
G24  22092985.578    22092990.473 5 116099469.317 7  90467123.32045
G28  22218575.055    22218576.844 5 116759347.780 7  90981360.00745
> 2015 07 19 00 34 45.0000000  0 10
G01  23706120.141    23706126.090 4 124576511.214 7  97072634.17544
G04  22381820.680    22381824.871 5 117617214.639 8  91649821.86945
G11  23205564.422    23205565.859 5 121945998.448 7  95022906.21945
G14  22693939.359    22693943.082 5 119257480.791 7  92927894.09045
G15  23778224.398    23778227.359 4 124955425.187 6  97367859.23644
G18  21944287.617    21944289.348 5 115318009.469 7  89858181.74245
G19  23141250.328    23141250.887 5 121608091.943 7  94759543.94745
G22  20679119.305    20679119.570 6 108669494.157 8  84677535.68246
G24  22088848.219    22088853.523 5 116077728.894 7  90450182.73445
G28  22222832.242    22222834.266 4 116781718.176 7  90998791.50544
> 2015 07 19 00 35 00.0000000  0 10
G01  23696834.977    23696841.277 4 124527715.220 7  97034611.39044
G04  22376676.938    22376680.074 5 117590183.158 7  91628758.45145
G11  23200980.289    23200982.605 5 121921909.498 7  95004135.56545
G14  22684109.078    22684112.391 5 119205821.576 7  92887640.12145
G15  23787628.500    23787630.992 4 125004843.459 6  97406366.98544
G18  21953152.430    21953153.750 5 115364594.064 7  89894481.49845
G19  23148315.859    23148316.535 5 121645221.222 7  94788475.85345
G22  20680168.594    20680169.094 6 108675007.957 8  84681832.10946
G24  22084738.398    22084743.469 5 116056132.886 7  90433354.67245
G28  22227122.445    22227124.469 4 116804265.910 7  91016361.15444
> 2015 07 19 00 35 15.0000000  0 10
G01  23687563.992    23687569.473 4 124478995.790 7  96996648.19644
G04  22371555.445    22371559.402 5 117563272.029 7  91607788.74745
G11  23196418.055    23196419.785 5 121897932.805 7  94985452.38745
G14  22674295.000    22674298.430 5 119154249.060 7  92847453.82345
G15  23797045.773    23797048.031 4 125054329.319 6  97444927.37844
G18  21962036.938    21962038.785 5 115411280.808 7  89930860.82045
G19  23155403.719    23155404.453 5 121682466.405 7  94817498.10745
G22  20681247.563    20681247.887 6 108680677.778 8  84686250.12646
G24  22080656.281    22080661.586 5 116034680.854 7  90416638.78545
G28  22231447.219    22231449.184 5 116826990.414 7  91034068.57045
> 2015 07 19 00 35 30.0000000  0 10
G01  23678307.820    23678313.184 4 124430353.171 7  96958744.87944
G04  22366457.523    22366461.480 5 117536481.274 7  91586912.68545
G11  23191877.117    23191878.555 5 121874068.380 7  94966856.73145
G14  22664497.422    22664500.676 5 119102763.234 7  92807335.05045
G15  23806475.258    23806478.219 4 125103882.315 6  97483540.10944
G18  21970940.281    21970942.012 5 115458069.350 7  89967319.41845
G19  23162513.008    23162513.098 5 121719827.171 7  94846610.42745
G22  20682356.164    20682356.488 6 108686503.406 8  84690789.54146
G24  22076602.281    22076607.000 5 116013372.707 7  90400035.01145
G28  22235804.789    22235806.754 4 116849891.275 7  91051913.33444
> 2015 07 19 00 35 45.0000000  0 10
G01  23669065.617    23669071.449 4 124381788.291 7  96920902.18644
G04  22361382.734    22361386.223 5 117509812.391 7  91566131.95345
G11  23187356.773    23187358.973 5 121850316.849 7  94948349.01745
G14  22654716.898    22654720.152 5 119051364.824 7  92767284.38845
G15  23815917.023    23815919.926 4 125153502.652 6  97522205.30544
G18  21979863.398    21979865.012 5 115504959.737 7  90003857.34345
G19  23169644.180    23169645.266 5 121757303.369 7  94875812.62745
G22  20683494.336    20683495.129 6 108692485.258 8  84695450.71446
G24  22072574.695    22072579.531 5 115992209.570 7  90383544.20645
G28  22240196.563    22240198.117 5 116872969.019 7  91069896.02845
> 2015 07 19 00 36 00.0000000  0 10
G01  23659838.984    23659844.289 4 124333301.077 7  96883120.00344
G04  22356330.742    22356334.641 5 117483264.152 7  91545444.88145
G11  23182858.656    23182860.387 5 121826678.220 7  94929929.27945
G14  22644952.914    22644955.934 5 119000053.811 7  92727301.71245
G15  23825372.656    23825375.852 4 125203189.665 6  97560922.43744
G18  21988805.477    21988807.324 5 115551951.563 7  90040474.37945
G19  23176797.891    23176798.039 5 121794894.813 7  94905104.73845
G22  20684662.203    20684662.820 6 108698623.068 8  84700233.39246
G24  22068574.961    22068580.559 5 115971190.977 7  90367166.03745
G28  22244621.344    22244623.719 5 116896223.047 7  91088016.11445
> 2015 07 19 00 36 15.0000000  0 10
G01  23650627.414    23650632.953 4 124284891.724 7  96845398.43244
G04  22351302.094    22351305.758 5 117456837.227 7  91524852.38045
G11  23178381.742    23178383.941 5 121803152.639 7  94911597.66945
G14  22635205.164    22635208.477 5 118948830.833 7  92687387.70745
G15  23834841.086    23834842.992 4 125252943.064 7  97599691.27544
G18  21997766.578    21997768.895 5 115599044.250 7  90077169.95045
G19  23183972.898    23183973.164 5 121832600.694 7  94934485.87545
G22  20685860.141    20685860.055 6 108704916.591 8  84705137.40646
G24  22064603.172    22064608.652 5 115950317.237 7  90350900.76645
G28  22249080.188    22249081.742 4 116919652.954 7  91106273.21944
> 2015 07 19 00 36 30.0000000  0 10
G01  23641430.594    23641435.898 4 124236560.810 7  96807737.95944
G04  22346296.117    22346300.426 5 117430532.262 7  91504354.97545
G11  23173926.219    23173928.242 5 121779740.470 7  94893354.48845
G14  22625474.094    22625477.523 5 118897696.118 7  92647542.48645
G15  23844321.258    23844323.926 4 125302762.633 7  97638511.68444
G18  22006747.305    22006748.977 5 115646237.563 7  90113943.89345
G19  23191170.109    23191170.844 5 121870421.452 7  94963956.72545
G22  20687087.289    20687087.789 6 108711366.008 8  84710162.91746
G24  22060658.414    22060664.070 5 115929588.592 7  90334748.54945
G28  22253571.891    22253573.563 5 116943258.603 7  91124667.26645
> 2015 07 19 00 36 45.0000000  0 10
G01  23632247.766    23632253.656 4 124188308.689 7  96770138.94844
G04  22341313.867    22341317.414 5 117404349.208 8  91483952.53545
G11  23169493.164    23169494.777 5 121756441.603 7  94875199.52945
G14  22615760.617    22615764.281 5 118846650.048 7  92607766.34745
G15  23853813.438    23853816.281 4 125352648.103 7  97677383.46444
G18  22015746.508    22015749.059 4 115693531.324 7  90150796.15944
G19  23198389.484    23198389.574 5 121908356.299 7  94993516.40145
G22  20688343.898    20688344.574 6 108717971.271 8  84715309.87846
G24  22056741.414    22056746.836 5 115909005.557 7  90318709.83845
G28  22258097.531    22258098.852 4 116967039.489 7  91143197.77144
> 2015 07 19 00 37 00.0000000  0 10
G01  23623081.250    23623087.023 4 124140135.442 7  96732601.34844
G04  22336354.625    22336358.230 5 117378288.259 7  91463645.28645
G11  23165080.883    23165082.906 5 121733256.218 7  94857132.97445
G14  22606063.453    22606066.883 5 118795692.873 7  92568059.49045
G15  23863318.977    23863322.348 4 125402599.232 7  97716306.45644
G18  22024764.977    22024767.234 4 115740924.996 7  90187726.25944
G19  23205629.148    23205629.941 5 121946405.058 7  95023164.89545
G22  20689630.422    20689631.098 6 108724732.196 8  84720578.09746
G24  22052851.969    22052857.977 5 115888567.634 7  90302784.14145
G28  22262655.984    22262657.832 4 116990995.732 7  91161864.98744
> 2015 07 19 00 37 15.0000000  0 10
G01  23613929.242    23613934.430 4 124092041.635 7  96695125.66144
G04  22331418.625    22331422.289 5 117352349.785 8  91443433.47645
G11  23160690.352    23160692.023 5 121710184.816 7  94839155.28645
G14  22596384.109    22596387.480 5 118744825.117 7  92528422.36145
G15  23872838.016    23872840.391 4 125452615.821 7  97755280.45544
G18  22033802.750    22033805.184 5 115788418.537 7  90224734.18245
G19  23212891.266    23212892.234 5 121984567.223 7  95052901.67145
G22  20690946.500    20690947.410 6 108731648.995 8  84725967.77346
G24  22048990.648    22048996.129 5 115868275.551 7  90286972.15745
G28  22267248.203    22267250.461 4 117015127.076 7  91180668.65944
> 2015 07 19 00 37 30.0000000  0 10
G01  23604792.164    23604798.230 4 124044027.460 7  96657712.01044
G04  22326506.023    22326509.980 5 117326533.850 7  91423317.13445
G11  23156321.688    23156323.828 5 121687227.221 7  94821266.21645
G14  22586721.461    22586724.188 5 118694046.824 7  92488854.85845
G15  23882367.633    23882369.246 4 125502697.439 7  97794305.11744
G18  22042859.992    22042861.488 5 115836011.434 7  90261819.52245
G19  23220174.555    23220175.641 5 122022842.689 7  95082726.70845
G22  20692292.961    20692293.871 6 108738721.194 8  84731478.50546
G24  22045157.148    22045162.980 6 115848129.552 7  90271273.99546
G28  22271873.477    22271875.090 4 117039432.997 7  91199608.31744
> 2015 07 19 00 37 45.0000000  0 10
G01  23595669.891    23595675.605 4 123996093.237 7  96620360.64944
G04  22321617.000    22321620.664 5 117300840.751 8  91403296.57145
G11  23151975.031    23151976.762 5 121664383.837 7  94803466.14145
G14  22577075.570    22577078.648 5 118643358.524 7  92449357.50045
G15  23891909.555    23891912.516 4 125552843.882 7  97833380.30844
G18  22051935.805    22051937.418 5 115883703.408 7  90298982.12645
G19  23227479.297    23227480.559 5 122061231.095 7  95112639.70345
G22  20693668.281    20693669.191 6 108745949.096 8  84737110.59246
G24  22041351.398    22041356.820 6 115828129.253 7  90255689.35946
G28  22276532.070    22276533.684 4 117063913.406 7  91218683.94844
> 2015 07 19 00 38 00.0000000  0 10
G01  23586564.492    23586570.324 4 123948239.357 7  96583071.96644
G04  22316750.914    22316754.402 5 117275270.529 8  91383371.75345
G11  23147649.578    23147651.426 5 121641654.688 7  94785755.07545
G14  22567447.008    22567449.793 5 118592760.441 7  92409930.45445
G15  23901464.102    23901467.473 4 125603054.733 7  97872505.64844
G18  22061029.547    22061031.688 5 115931493.776 7  90336221.33345
G19  23234806.195    23234807.223 5 122099732.147 7  95142640.51445
G22  20695073.469    20695073.910 6 108753332.461 8  84742863.85746
G24  22037573.547    22037578.910 6 115808274.794 7  90240218.38246
G28  22281224.070    22281225.391 4 117088567.956 7  91237895.26144
> 2015 07 19 00 38 15.0000000  0 11
G01  23577473.813    23577479.586 4 123900466.304 7  96545846.13544
G04  22311908.391    22311911.996 5 117249823.747 8  91363543.05345
G11  23143345.578    23143348.188 5 121619040.688 7  94768133.84045
G14  22557835.758    22557838.250 5 118542253.341 7  92370574.20645
G15  23911030.992    23911035.008 4 125653330.144 7  97911681.30244
G18  22070142.859    22070145.293 5 115979383.164 7  90373537.77045
G19  23242154.016    23242155.395 5 122138345.894 7  95172729.10445
G22  20696508.219    20696508.602 6 108760871.784 8  84748738.65046
G24  22033823.250    22033828.613 5 115788567.304 7  90224861.90645
G28  22285948.391    22285950.063 4 117113396.903 7  91257242.52044
G32  25308056.063    25308059.023 2 132994721.92616 103632275.22752
> 2015 07 19 00 38 30.0000000  0 11
G01  23568397.992    23568403.531 4 123852774.243 7  96508683.45944
G04  22307089.891    22307093.906 5 117224500.449 8  91343810.66345
G11  23139064.867    23139067.359 5 121596541.094 7  94750601.63645
G14  22548242.375    22548245.102 5 118491837.202 7  92331288.85945
G15  23920610.906    23920614.160 4 125703669.463 7  97950906.74544
G18  22079274.359    22079277.379 5 116027370.532 7  90410930.41745
G19  23249523.422    23249524.859 5 122177071.678 7  95202904.95945
G22  20697972.383    20697972.707 6 108768566.421 8  84754734.44246
G24  22030100.430    22030106.203 5 115769006.156 7  90209619.46545
G28  22290706.445    22290707.883 4 117138399.569 7  91276725.12644
G32  25297096.813    25297099.480 3 132937129.992 6 103587398.41943
> 2015 07 19 00 38 45.0000000  0 11
G01  23559338.266    23559343.395 4 123805163.146 7  96471583.86744
G04  22302294.703    22302298.250 5 117199300.276 8  91324174.12245
G11  23134804.797    23134807.113 5 121574155.728 7  94733158.33445
G14  22538665.703    22538668.195 5 118441512.056 7  92292074.45845
G15  23930202.164    23930205.418 4 125754072.052 7  97990181.47744
G18  22088424.438    22088427.633 5 116075455.478 7  90448399.22245
G19  23256913.680    23256915.352 5 122215909.069 7  95233167.87945
G22  20699466.078    20699466.871 6 108776415.746 8  84760850.69046
G24  22026406.195    22026411.734 5 115749591.352 7  90194491.02145
G28  22295496.531    22295498.730 4 117163575.284 7  91296342.54744
G32  25286139.898    25286143.621 2 132879553.208 6 103542533.35042
> 2015 07 19 00 39 00.0000000  0 11
G01  23550293.297    23550298.602 4 123757633.692 7  96434547.91844
G04  22297521.992    22297525.539 5 117174223.994 8  91304634.17045
G11  23130567.156    23130569.590 5 121551885.914 7  94715805.34945
G14  22529106.766    22529109.316 5 118391278.513 7  92252931.49945
G15  23939805.656    23939808.090 3 125804538.076 7  98029505.63343
G18  22097593.602    22097595.859 5 116123637.889 7  90485943.96245
G19  23264325.836    23264327.098 5 122254857.576 7  95263517.24745
G22  20700989.320    20700990.113 6 108784420.371 8  84767088.01346
G24  22022739.719    22022745.199 6 115730323.599 7  90179477.16746
G28  22300320.703    22300322.434 4 117188924.178 7  91316094.93644
G32  25275186.961    25275189.629 3 132821992.150 6 103497680.57443
> 2015 07 19 00 39 15.0000000  0 11
G01  23541264.438    23541269.918 4 123710186.305 7  96397575.92944
G04  22292774.406    22292777.426 5 117149271.867 8  91285190.93045
G11  23126351.055    23126353.605 5 121529731.432 7  94698542.14145
G14  22519564.844    22519567.805 5 118341136.897 7  92213860.08145
G15  23949420.656    23949423.676 4 125855067.248 6  98068879.03944
G18  22106780.477    22106783.262 5 116171917.654 7  90523564.56145
G19  23271758.078    23271759.164 5 122293917.398 7  95293953.43245
G22  20702542.273    20702542.480 6 108792580.535 8  84773446.60046
G24  22019100.820    22019106.594 5 115711202.753 7  90164577.73345
G28  22305178.102    22305179.598 4 117214446.050 7  91335982.04944
G32  25264235.570    25264239.469 2 132764447.303 6 103452840.41742
> 2015 07 19 00 39 30.0000000  0 11
G01  23532251.422    23532256.902 4 123662820.974 7  96360667.83844
G04  22288049.695    22288053.066 5 117124443.735 8  91265844.29545
G11  23122157.266    23122159.582 5 121507692.109 7  94681368.63945
G14  22510040.938    22510043.430 5 118291087.454 7  92174860.50045
G15  23959048.117    23959051.137 4 125905659.060 7  98108301.23744
G18  22115986.641    22115989.191 5 116220294.110 7  90561260.50645
G19  23279212.148    23279213.176 5 122333088.117 7  95324476.13745
G22  20704124.320    20704124.879 6 108800895.738 8  84779925.98846
G24  22015490.367    22015496.023 5 115692229.083 7  90149793.06845
G28  22310067.023    22310068.988 4 117240140.620 7  91356003.82244
G32  25253288.969    25253292.105 2 132706918.471 6 103408012.76142
> 2015 07 19 00 39 45.0000000  0 11
G01  23523253.273    23523258.754 4 123615538.300 7  96323824.24344
G04  22283348.813    22283352.477 5 117099740.113 8  91246594.68345
G11  23117985.281    23117987.305 5 121485768.221 7  94664285.12145
G14  22500534.289    22500537.367 5 118241130.506 7  92135932.94045
G15  23968686.813    23968690.008 3 125956313.152 7  98147771.95643
G18  22125210.844    22125213.277 5 116268766.776 7  90599031.37445
G19  23286687.180    23286688.148 5 122372369.340 7  95355084.91945
G22  20705736.555    20705736.645 6 108809365.767 8  84786525.97946
G24  22011908.297    22011913.543 6 115673402.663 7  90135123.11946
G28  22314989.414    22314991.027 4 117266007.291 7  91376159.68744
G32  25242344.727    25242347.453 2 132649406.039 6 103363197.86242
> 2015 07 19 00 40 00.0000000  0 11
G01  23514271.711    23514276.957 4 123568338.487 7  96287045.22144
G04  22278671.617    22278675.398 5 117075161.054 8  91227442.16045
G11  23113835.523    23113837.957 5 121463960.056 7  94647291.75945
G14  22491045.031    22491048.344 5 118191266.518 7  92097077.84345
G15  23978338.156    23978341.586 3 126007029.503 6  98187291.19843
G18  22134452.797    22134455.582 5 116317335.660 7  90636877.25245
G19  23294183.422    23294184.215 5 122411760.667 7  95385779.47645
G22  20707377.742    20707378.711 6 108817990.921 8  84793246.85646
G24  22008353.359    22008358.840 6 115654723.672 7  90120568.06846
G28  22319944.453    22319946.125 4 117292046.199 7  91396449.76944
G32  25231403.453    25231406.473 3 132591910.356 6 103318395.99643
> 2015 07 19 00 40 15.0000000  0 11
G01  23505305.586    23505311.301 4 123521221.873 7  96250330.99444
G04  22274017.984    22274022.000 5 117050706.905 8  91208386.95545
G11  23109707.633    23109709.949 5 121442267.922 7  94630388.82945
G14  22481574.555    22481577.105 5 118141495.720 7  92058295.34645
G15  23988001.383    23988003.875 4 126057807.808 7  98226858.71044
G18  22143713.578    22143716.363 5 116366000.402 7  90674797.83245
G19  23301700.266    23301701.410 5 122451261.839 7  95416559.60545
G22  20709048.570    20709048.953 6 108826771.030 8  84800088.46846
G24  22004827.195    22004832.734 6 115636192.363 7  90106128.06346
G28  22324932.047    22324934.363 4 117318256.949 7  91416873.68444
G32  25220465.719    25220468.504 3 132534431.629 6 103273607.36443
> 2015 07 19 00 40 30.0000000  0 11
G01  23496355.273    23496361.223 4 123474188.782 7  96213681.86644
G04  22269388.609    22269391.863 5 117026377.770 8  91189429.19145
G11  23105601.883    23105603.965 5 121420691.720 7  94613576.19245
G14  22472120.969    22472124.340 5 118091818.536 7  92019585.82545
G15  23997674.648    23997678.781 4 126108647.701 6  98266474.22044
G18  22152992.617    22152995.168 5 116414760.590 7  90712792.80145
G19  23309237.898    23309239.219 5 122490872.444 7  95447424.94345
G22  20710748.781    20710749.516 6 108835705.949 8  84807050.69046
G24  22001329.125    22001335.309 6 115617809.064 7  90091803.41646
G28  22329952.172    22329954.254 5 117344639.405 7  91437431.50645
G32  25209530.836    25209534.676 3 132476970.109 6 103228832.14443
> 2015 07 19 00 40 45.0000000  0 11
G01  23487420.578    23487427.055 4 123427239.252 7  96177097.73544
G04  22264782.289    22264786.012 5 117002173.777 8  91170568.99645
G11  23101518.117    23101520.023 5 121399231.630 7  94596854.12245
G14  22462685.828    22462688.613 5 118042235.225 7  91980949.45845
G15  24007360.039    24007365.168 3 126159548.819 6  98306137.43743
G18  22162289.227    22162291.719 5 116463615.925 7  90750861.93545
G19  23316796.227    23316797.020 5 122530592.250 7  95478375.39145
G22  20712478.516    20712479.367 6 108844795.526 8  84814133.42146
G24  21997858.336    21997864.637 6 115599574.108 7  90077594.49746
G28  22335005.000    22335007.316 4 117371192.934 7  91458122.60444
G32  25198599.031    25198602.871 3 132419525.935 6 103184070.43243
> 2015 07 19 00 41 00.0000000  0 11
G01  23478503.328    23478508.691 4 123380373.700 7  96140578.97444
G04  22260200.375    22260204.215 5 116978095.382 8  91151806.73445
G11  23097456.445    23097457.707 5 121377887.812 7  94580222.57445
G14  22453268.977    22453271.410 5 117992745.991 7  91942386.36445
G15  24017060.047    24017061.953 4 126210510.978 7  98345848.19244
G18  22171604.813    22171606.895 5 116512565.954 7  90789004.79845
G19  23324375.133    23324376.746 5 122570421.232 7  95509411.00345
G22  20714237.617    20714238.234 6 108854039.780 8  84821336.68746
G24  21994416.891    21994422.723 6 115581486.772 7  90063500.47446
G28  22340091.000    22340092.848 4 117397917.387 7  91478946.88244
G32  25187671.750    25187674.828 3 132362099.436 6 103139322.48343
> 2015 07 19 00 41 15.0000000  0 11
G01  23469601.289    23469606.242 4 123333592.681 7  96104126.22744
G04  22255642.250    22255645.855 5 116954142.532 8  91133142.31345
G11  23093417.359    23093419.441 5 121356660.465 7  94563681.85545
G14  22443869.367    22443872.211 5 117943351.398 7  91903897.12545
G15  24026769.219    24026771.535 4 126261533.752 7  98385606.18744
G18  22180936.773    22180939.852 5 116561610.270 7  90827221.15745
G19  23331975.586    23331976.027 5 122610358.633 7  95540531.05245
G22  20716026.430    20716026.695 6 108863438.374 8  84828660.21346
G24  21991003.352    21991008.422 6 115563547.320 7  90049521.74246
G28  22345208.805    22345211.004 4 117424812.430 7  91499904.07044
G32  25176747.141    25176750.805 3 132304690.636 6 103094588.35143
> 2015 07 19 00 41 30.0000000  0 11
G01  23460715.508    23460721.164 5 123286896.473 7  96067739.52245
G04  22251108.500    22251111.520 5 116930315.446 8  91114575.88045
G11  23089399.984    23089401.656 5 121335549.731 7  94547231.92245
G14  22434487.648    22434490.609 5 117894051.644 7  91865481.77745
G15  24036490.758    24036492.781 4 126312616.976 7  98425411.29744
G18  22190288.148    22190289.527 5 116610748.621 7  90865510.75345
G19  23339596.078    23339596.930 5 122650404.208 7  95571735.36245
G22  20717844.094    20717844.652 6 108872991.425 8  84836104.07146
G24  21987617.930    21987623.117 6 115545756.649 7  90035658.89046
G28  22350358.938    22350360.961 4 117451877.990 7  91520994.14344
G32  25165825.961    25165829.566 3 132247300.075 6 103049868.39543
> 2015 07 19 00 41 45.0000000  0 11
G01  23451845.375    23451851.090 4 123240285.335 7  96031419.14044
G04  22246597.789    22246601.688 5 116906614.186 8  91096107.42145
G11  23085405.023    23085406.637 5 121314555.832 8  94530873.04145
G14  22425124.203    22425127.047 5 117844846.898 7  91827140.39545
G15  24046221.500    24046224.754 4 126363760.305 7  98465263.22944
G18  22199656.742    22199659.000 5 116659980.811 7  90903873.52845
G19  23347236.836    23347237.336 5 122690557.622 7  95603023.68445
G22  20719691.516    20719692.133 6 108882698.811 8  84843668.19346
G24  21984260.406    21984266.063 6 115528114.545 7  90021911.81546
G28  22355542.023    22355543.520 4 117479113.433 7  91542216.53044
G32  25154908.820    25154911.195 3 132189927.809 6 103005162.69043
> 2015 07 19 00 42 00.0000000  0 11
G01  23442992.070    23442997.609 4 123193759.558 7  95995165.24644
G04  22242111.305    22242114.969 5 116883039.119 8  91077737.26645
G11  23081432.328    23081434.000 5 121293678.965 7  94514605.38345
G14  22415779.148    22415782.168 5 117795737.717 7  91788873.48445
G15  24055965.211    24055969.051 4 126414963.532 7  98505161.86844
G18  22209042.695    22209045.656 5 116709306.392 7  90942309.08445
G19  23354898.047    23354899.484 5 122730818.799 7  95634396.04645
G22  20721568.539    20721568.746 6 108892560.642 8  84851352.65446
G24  21980931.336    21980937.227 6 115510621.123 7  90008280.58946
G28  22360757.109    22360758.664 5 117506518.688 7  91563571.22345
G32  25143993.867    25143998.293 3 132132574.143 6 102960471.48243
> 2015 07 19 00 42 15.0000000  0 11
G01  23434154.492    23434159.855 5 123147319.625 7  95958978.25145
G04  22237649.781    22237653.035 5 116859590.644 8  91059465.80945
G11  23077481.875    23077483.840 5 121272919.449 7  94498429.20645
G14  22406451.797    22406454.875 5 117746724.555 7  91750681.39845
G15  24065720.688    24065724.000 4 126466226.395 7  98545106.94444
G18  22218446.703    22218448.961 5 116758725.179 7  90980817.21245
G19  23362580.148    23362580.824 5 122771187.529 7  95665852.22345
G22  20723473.977    20723474.770 6 108902577.188 8  84859157.84446
G24  21977630.867    21977636.816 5 115493276.759 7  89994765.51745
G28  22366004.773    22366006.504 4 117534093.741 7  91585058.31444
G32  25133083.984    25133088.059 3 132075239.548 6 102915795.16443
> 2015 07 19 00 42 30.0000000  0 11
G01  23425333.797    23425339.688 5 123100965.652 7  95922858.24945
G04  22233211.180    22233214.844 5 116836268.587 8  91041292.84245
G11  23073553.414    23073555.730 5 121252277.068 7  94482344.24945
G14  22397143.352    22397146.371 5 117697807.415 7  91712564.10345
G15  24075487.242    24075490.086 4 126517548.389 6  98585098.12244
G18  22227869.102    22227870.715 5 116808236.781 7  91019397.69445
G19  23370282.102    23370283.656 5 122811663.207 7  95697391.74045
G22  20725409.578    20725410.254 6 108912747.620 8  84867082.87446
G24  21974358.813    21974364.586 6 115476081.220 7  89981366.44546
G28  22371284.008    22371285.738 5 117561837.944 7  91606677.21945
G32  25122176.266    25122180.750 3 132017923.958 6 102871133.64743
> 2015 07 19 00 42 45.0000000  0 11
G01  23416529.297    23416535.070 5 123054698.022 7  95886805.58545
G04  22228797.633    22228801.063 5 116813073.224 8  91023218.60045
G11  23069647.922    23069648.949 5 121231752.186 7  94466350.91345
G14  22387853.469    22387856.430 5 117648986.779 7  91674522.06445
G15  24085264.156    24085267.645 4 126568929.279 6  98625135.17044
G18  22237308.172    22237309.961 5 116857840.849 7  91058050.18645
G19  23378004.875    23378005.785 5 122852245.471 7  95729014.37145
G22  20727373.820    20727374.848 6 108923072.047 8  84875127.91846
G24  21971115.047    21971120.352 5 115459034.715 8  89968083.46045
G28  22376595.445    22376597.000 4 117589750.868 7  91628427.54844
G32  25111273.938    25111277.660 3 131960627.605 6 102826487.09543
> 2015 07 19 00 43 00.0000000  0 11
G01  23407741.406    23407746.945 5 123008517.016 7  95850820.41445
G04  22224407.711    22224410.730 5 116790004.568 8  91005242.97945
G11  23065764.602    23065766.156 5 121211344.767 7  94450449.02245
G14  22378581.438    22378584.281 5 117600262.909 7  91636555.43045
G15  24095052.633    24095056.121 4 126620368.783 7  98665217.88544
G18  22246765.055    22246767.430 5 116907537.035 7  91096774.52045
G19  23385747.266    23385748.352 5 122892934.017 7  95760719.78745
G22  20729368.383    20729368.941 6 108933550.444 8  84883292.89946
G24  21967899.289    21967904.770 5 115442137.220 7  89954916.60845
G28  22381939.477    22381941.383 4 117617832.413 7  91650309.24644
G32  25100374.391    25100378.348 3 131903350.769 6 102781855.78343
> 2015 07 19 00 43 15.0000000  0 11
G01  23398969.938    23398975.711 5 122962422.977 7  95814902.98545
G04  22220042.063    22220045.551 5 116767063.350 8  90987366.81245
G11  23061903.078    23061904.984 5 121191055.233 7  94434638.98345
G14  22369328.156    22369331.293 5 117551636.065 7  91598664.37145
G15  24104852.328    24104855.699 4 126671866.886 7  98705346.25344
G18  22256239.414    22256241.730 4 116957325.098 7  91135570.40944
G19  23393510.102    23393511.422 5 122933728.546 7  95792507.74945
G22  20731391.688    20731392.012 6 108944182.805 8  84891577.83546
G24  21964712.516    21964718.055 6 115425389.554 8  89941866.47146
G28  22387315.578    22387317.309 5 117646082.399 7  91672322.19545
G32  25089478.648    25089482.547 3 131846093.919 6 102737240.02943
> 2015 07 19 00 43 30.0000000  0 11
G01  23390214.875    23390220.766 5 122916416.403 7  95779053.71945
G04  22215700.477    22215703.672 5 116744249.500 8  90969589.81545
G11  23058064.656    23058066.797 5 121170883.846 7  94418921.08645
G14  22360093.102    22360095.711 5 117503106.741 7  91560849.29145
G15  24114663.977    24114667.230 3 126723423.114 6  98745519.92143
G18  22265731.438    22265733.051 5 117007204.611 7  91174437.57245
G19  23401293.523    23401295.195 5 122974628.859 7  95824378.10845
G22  20733444.063    20733444.504 6 108954969.003 8  84899982.66446
G24  21961554.844    21961559.797 6 115408791.691 8  89928933.07246
G28  22392723.102    22392724.539 5 117674500.448 7  91694466.03545
G32  25078587.461    25078591.184 3 131788857.157 6 102692639.92843
> 2015 07 19 00 43 45.0000000  0 11
G01  23381476.641    23381482.883 5 122870497.347 7  95743272.61745
G04  22211382.945    22211387.020 5 116721563.325 8  90951912.43445
G11  23054248.539    23054250.621 5 121150830.443 7  94403295.07145
G14  22350876.992    22350879.953 5 117454675.135 7  91523110.33245
G15  24124485.453    24124488.824 3 126775037.254 6  98785738.71543
G18  22275240.547    22275241.984 5 117057175.264 7  91213375.72445
G19  23409096.508    23409097.945 5 123015634.752 7  95856330.78545
G22  20735525.922    20735526.773 6 108965909.038 8  84908507.42646
G24  21958423.844    21958429.559 5 115392343.356 7  89916116.19045
G28  22398162.609    22398164.398 5 117703086.517 7  91716740.87945
G32  25067699.414    25067703.020 3 131731640.706 6 102648055.64943
> 2015 07 19 00 44 00.0000000  0 11
G01  23372755.375    23372761.734 5 122824666.053 7  95707559.90045
G04  22207090.555    22207094.219 5 116699004.742 8  90934334.50045
G11  23050455.148    23050456.586 5 121130895.171 7  94387761.12445
G14  22341679.391    22341682.469 5 117406341.899 7  91485448.19545
G15  24134319.078    24134321.277 3 126826708.791 6  98826002.22343
G18  22284766.953    22284768.449 5 117107236.515 7  91252384.45845
G19  23416919.578    23416920.781 5 123056745.473 7  95888365.13545
G22  20737636.984    20737637.133 6 108977002.406 8  84917151.60246
G24  21955322.313    21955327.910 6 115376044.760 7  89903415.99546
G28  22403634.461    22403636.367 4 117731839.986 7  91739146.21744
G32  25056815.875    25056818.777 3 131674444.803 6 102603487.37743
> 2015 07 19 00 44 15.0000000  0 11
G01  23364051.109    23364057.000 5 122778922.936 7  95671915.87945
G04  22202822.289    22202825.250 5 116676573.742 8  90916855.82345
G11  23046684.219    23046686.125 5 121111078.146 7  94372319.28745
G14  22332500.375    22332503.395 5 117358106.931 7  91447862.62245
G15  24144160.734    24144164.750 3 126878437.579 6  98866310.38043
G18  22294310.195    22294312.395 5 117157388.128 7  91291463.64645
G19  23424762.586    23424764.023 5 123097960.866 7  95920481.05745
G22  20739777.195    20739776.992 6 108988249.305 8  84925915.46046
G24  21952249.602    21952255.668 6 115359895.958 8  89890832.54446
G28  22409138.000    22409139.672 4 117760760.528 7  91761681.71244
G32  25045934.828    25045939.078 3 131617269.688 6 102558935.35343
> 2015 07 19 00 44 30.0000000  0 11
G01  23355363.070    23355369.547 5 122733268.455 7  95636340.90745
G04  22198577.797    22198581.402 5 116654271.131 8  90899477.27945
G11  23042935.609    23042937.457 5 121091379.831 7  94356969.99645
G14  22323340.102    22323343.238 5 117309970.501 7  91410353.61645
G15  24154016.234    24154019.254 3 126930223.427 6  98906662.98643
G18  22303870.813    22303872.660 4 117207630.011 7  91330613.15544
G19  23432625.664    23432627.570 5 123139280.663 7  95952678.26045
G22  20741946.398    20741946.723 6 108999649.556 8  84934798.71946
G24  21949204.328    21949210.453 5 115343897.566 7  89878366.23745
G28  22414672.844    22414674.633 4 117789848.015 7  91784347.33844
G32  25035059.406    25035063.129 3 131560115.607 6 102514399.67443
> 2015 07 19 00 44 45.0000000  0 11
G01  23346692.352    23346698.418 5 122687702.888 7  95600835.26945
G04  22194358.219    22194361.766 5 116632096.462 8  90882198.35045
G11  23039209.672    23039210.992 5 121071800.087 7  94341713.07345
G14  22314199.203    22314202.398 5 117261933.209 7  91372921.95345
G15  24163881.578    24163884.422 3 126982065.942 6  98947059.75943
G18  22313448.727    22313450.691 5 117257961.657 7  91369832.60645
G19  23440508.672    23440509.172 5 123180704.391 7  95984956.42245
G22  20744145.117    20744146.145 6 109011203.247 8  84943801.62346
G24  21946189.594    21946194.723 6 115328049.208 8  89866016.83546
G28  22420239.180    22420242.023 4 117819102.041 7  91807142.73144
G32  25024187.836    25024190.973 3 131502982.845 6 102469880.61043
> 2015 07 19 00 45 00.0000000  0 11
G01  23338038.734    23338044.391 5 122642226.423 7  95565398.98245
G04  22190162.867    22190166.590 5 116610050.457 8  90865019.66545
G11  23035506.086    23035507.816 5 121052339.358 7  94326548.98345
G14  22305077.266    22305080.109 5 117213995.350 7  91335567.79545
G15  24173758.617    24173760.992 3 127033964.842 6  98987500.45643
G18  22323043.680    22323045.703 4 117308382.908 7  91409121.88644
G19  23448411.055    23448412.727 5 123222231.987 7  96017315.54945
G22  20746373.094    20746373.711 6 109022910.270 8  84952923.97246
G24  21943202.188    21943207.844 6 115312351.716 8  89853784.98546
G28  22425838.078    22425839.633 4 117848522.438 7  91830067.74244
G32  25013319.602    25013322.445 3 131445871.719 6 102425378.36243
> 2015 07 19 00 45 15.0000000  0 11
G01  23329401.375    23329407.207 5 122596839.493 7  95530032.56345
G04  22185992.266    22185995.461 6 116588132.483 8  90847940.62046
G11  23031825.484    23031827.156 5 121032997.349 7  94311477.28945
G14  22295973.656    22295976.676 5 117166157.174 7  91298291.43045
G15  24183644.984    24183646.598 3 127085919.739 6  99027984.78343
G18  22332654.820    22332656.609 4 117358893.177 7  91448480.53144
G19  23456332.320    23456333.582 5 123263863.070 7  96049755.40245
G22  20748629.945    20748630.797 6 109034770.382 8  84962165.67446
G24  21940243.813    21940249.176 6 115296804.789 7  89841670.45246
G28  22431468.203    22431470.168 4 117878108.617 7  91853121.94044
G32  25002455.859    25002459.172 3 131388782.243 6 102380893.01443
> 2015 07 19 00 45 30.0000000  0 11
G01  23320781.758    23320787.648 5 122551542.322 7  95494736.12545
G04  22181845.961    22181849.566 5 116566343.196 8  90830961.79145
G11  23028167.430    23028169.453 5 121013774.409 7  94296498.39545
G14  22286889.055    22286892.250 5 117118418.897 7  91261092.88245
G15  24193540.883    24193544.371 3 127137930.297 6  99068512.50343
G18  22342283.875    22342285.195 5 117409492.186 7  91487908.35745
G19  23464274.859    23464275.828 5 123305597.034 7  96082275.39345
G22  20750915.719    20750916.395 6 109046783.258 8  84971526.36046
G24  21937313.797    21937319.395 6 115281408.225 7  89829673.09646
G28  22437129.930    22437131.484 4 117907860.432 7  91876305.24144
G32  24991596.336    24991599.766 3 131331714.647 6 102336424.74143
> 2015 07 19 00 45 45.0000000  0 11
G01  23312179.719    23312185.023 5 122506335.362 7  95459509.92245
G04  22177723.953    22177728.320 5 116544683.202 8  90814083.75345
G11  23024531.953    23024533.684 5 120994671.046 7  94281612.71045
G14  22277823.570    22277826.824 5 117070780.985 7  91223972.43945
G15  24203450.180    24203452.672 3 127189996.473 6  99109083.55543
G18  22351929.313    22351931.980 5 117460179.795 7  91527405.18045
G19  23472236.297    23472237.031 5 123347433.884 7  96114875.51645
G22  20753230.984    20753231.836 6 109058949.259 8  84981006.38546
G24  21934412.359    21934418.250 6 115266162.726 8  89817793.46746
G28  22442822.297    22442824.203 4 117937777.678 7  91899617.40844
G32  24980740.680    24980744.695 3 131274669.633 6 102291974.03743
> 2015 07 19 00 46 00.0000000  0 11
G01  23303593.445    23303599.629 5 122461218.823 7  95424354.14445
G04  22173626.906    22173630.746 5 116523152.675 8  90797306.65645
G11  23020919.672    23020921.520 5 120975687.343 7  94266820.30345
G14  22268777.703    22268780.898 5 117023243.694 7  91186930.35745
G15  24213367.258    24213371.039 3 127242118.040 6  99149697.75743
G18  22361591.742    22361594.176 5 117510955.593 7  91566970.75245
G19  23480217.008    23480217.625 5 123389373.305 7  96147555.54045
G22  20755574.984    20755575.836 6 109071268.185 8  84990605.57946
G24  21931540.281    21931545.938 6 115251068.063 8  89806031.37046
G28  22448546.859    22448549.234 4 117967860.043 7  91923058.21944
G32  24969890.180    24969893.434 3 131217647.188 6 102247540.96743
> 2015 07 19 00 46 15.0000000  0 11
G01  23295026.039    23295031.520 5 122416193.055 7  95389269.10045
G04  22169554.930    22169558.652 5 116501751.263 8  90780630.13845
G11  23017330.359    23017331.738 5 120956822.782 7  94252120.54045
G14  22259750.859    22259754.348 5 116975807.358 7  91149966.89245
G15  24223296.164    24223299.770 3 127294294.396 6  99190354.66643
G18  22371270.953    22371272.859 5 117561819.135 7  91606604.68945
G19  23488217.516    23488218.484 5 123431414.815 7  96180315.12445
G22  20757948.008    20757948.273 6 109083739.779 8  85000323.70646
G24  21928696.727    21928702.441 6 115236124.383 7  89794386.94646
G28  22454302.602    22454304.039 4 117998107.059 7  91946627.35444
G32  24959043.266    24959046.813 3 131160647.490 6 102203125.56743
> 2015 07 19 00 46 30.0000000  0 11
G01  23286474.813    23286480.938 5 122371258.672 7  95354255.38045
G04  22165507.234    22165510.195 5 116480479.605 8  90764054.77545
G11  23013763.078    23013764.398 5 120938078.247 7  94237514.40745
G14  22250743.578    22250746.598 5 116928472.379 7  91113082.44645
G15  24233235.766    24233239.078 3 127346525.477 6  99231054.16943
G18  22380966.758    22380968.957 5 117612770.225 7  91646306.81645
G19  23496237.063    23496238.031 5 123473558.203 7  96213154.11145
G22  20760350.320    20760351.172 6 109096364.165 8  85010160.92946
G24  21925881.891    21925886.551 5 115221332.048 8  89782860.46245
G28  22460090.055    22460091.551 4 118028518.485 7  91970324.55044
G32  24948201.195    24948204.215 3 131103670.945 6 102158728.24943
> 2015 07 19 00 46 45.0000000  0 11
G01  23277942.242    23277947.313 5 122326415.224 7  95319312.32745
G04  22161484.070    22161487.266 6 116459337.683 8  90747580.55046
G11  23010218.875    23010220.781 5 120919453.314 7  94223001.39845
G14  22241755.555    22241758.750 5 116881239.271 7  91076277.57845
G15  24243185.656    24243188.852 3 127398810.852 6  99271796.02643
G18  22390678.469    22390680.844 5 117663808.434 7  91686076.83445
G19  23504275.875    23504276.609 5 123515803.069 7  96246072.18945
G22  20762781.930    20762782.078 6 109109140.924 8  85020116.90846
G24  21923095.922    21923100.699 6 115206690.910 8  89771451.75546
G28  22465908.438    22465909.758 4 118059093.949 7  91994149.59944
G32  24937362.781    24937367.383 3 131046717.628 6 102114349.01643
> 2015 07 19 00 47 00.0000000  0 11
G01  23269425.625    23269431.750 5 122281663.857 7  95284441.16545
G04  22157485.398    22157489.004 5 116438325.805 8  90731207.69745
G11  23006697.609    23006699.223 5 120900948.460 7  94208581.88545
G14  22232786.000    22232790.250 5 116834108.105 7  91039552.07345
G15  24253144.211    24253149.340 3 127451150.377 6  99312580.05643
G18  22400407.703    22400409.434 5 117714933.613 7  91725914.61445
G19  23512333.969    23512334.879 5 123558149.134 7  96279069.12145
G22  20765241.727    20765242.051 6 109122070.346 8  85030191.90046
G24  21920338.250    21920343.730 5 115192201.741 8  89760161.51945
G28  22471758.234    22471759.672 4 118089833.313 7  92018102.33544
G32  24926529.133    24926533.207 3 130989787.938 6 102069988.16443
> 2015 07 19 00 47 15.0000000  0 11
G01  23260927.039    23260932.871 5 122237004.649 7  95249641.86945
G04  22153511.961    22153515.391 5 116417443.980 8  90714936.07945
G11  23003199.430    23003200.926 5 120882564.262 7  94194256.55945
G14  22223836.984    22223840.648 5 116787079.314 7  91002906.38345
G15  24263116.492    24263119.219 3 127503543.782 6  99353406.06143
G18  22410152.500    22410154.699 5 117766145.186 7  91765819.70345
G19  23520411.266    23520412.586 5 123600596.042 7  96312144.62345
G22  20767731.148    20767731.707 6 109135152.051 8  85040385.53646
G24  21917610.133    21917615.262 6 115177863.932 7  89748989.21546
G28  22477638.438    22477639.875 4 118120736.199 7  92042182.52644
G32  24915701.289    24915704.719 3 130932882.116 6 102025645.94743
> 2015 07 19 00 47 30.0000000  0 11
G01  23252446.547    23252452.496 5 122192437.513 7  95214914.20245
G04  22149562.586    22149565.781 5 116396692.338 8  90698765.96745
G11  22999723.602    22999725.215 5 120864300.290 7  94180024.90645
G14  22214906.938    22214910.543 5 116740152.957 7  90966340.41645
G15  24273096.922    24273098.770 3 127555990.671 6  99394273.74443
G18  22419914.586    22419916.375 5 117817442.966 7  91805792.00045
G19  23528508.047    23528508.840 5 123643143.378 7  96345298.38445
G22  20770249.531    20770250.148 6 109148385.834 8  85050697.63046
G24  21914910.336    21914915.758 6 115163677.964 7  89737935.25046
G28  22483550.031    22483551.586 4 118151802.260 7  92066389.83944
G32  24904876.570    24904880.176 3 130876000.319 6 101981322.47343
> 2015 07 19 00 47 45.0000000  0 11
G01  23243983.625    23243989.340 5 122147963.085 7  95180258.81045
G04  22145638.594    22145642.258 5 116376071.075 8  90682697.39345
G11  22996270.789    22996272.695 5 120846156.760 7  94165887.06945
G14  22205996.961    22205999.863 5 116693329.613 7  90929854.80345
G15  24283085.375    24283089.859 3 127608490.752 6  99435182.88843
G18  22429692.492    22429694.516 5 117868826.467 7  91845831.03345
G19  23536623.570    23536623.895 5 123685790.941 7  96378530.26145
G22  20772796.875    20772797.492 6 109161771.747 8  85061128.29746
G24  21912239.727    21912245.500 6 115149643.677 7  89726999.43146
G28  22489493.070    22489494.391 4 118183031.067 7  92090723.98344
G32  24894056.664    24894060.094 3 130819142.843 6 101937017.93443
> 2015 07 19 00 48 00.0000000  0 11
G01  23235537.844    23235543.910 5 122103581.487 7  95145675.70945
G04  22141739.727    22141742.980 5 116355580.222 8  90666730.40845
G11  22992841.383    22992843.465 5 120828133.557 7  94151842.95345
G14  22197106.070    22197110.145 5 116646609.257 7  90893449.43045
G15  24293087.086    24293090.457 3 127661043.710 6  99476133.23243
G18  22439486.859    22439489.234 5 117920295.418 7  91885936.70645
G19  23544757.555    23544758.582 5 123728538.243 7  96411839.90745
G22  20775372.703    20775373.320 6 109175309.382 8  85071677.12846
G24  21909597.844    21909603.441 6 115135761.190 7  89716181.92946
G28  22495466.727    22495468.750 4 118214422.249 7  92115184.64644
G32  24883241.195    24883245.855 3 130762309.872 6 101892732.52343
> 2015 07 19 00 48 15.0000000  0 11
G01  23227110.219    23227115.816 5 122059293.155 7  95111165.27945
G04  22137865.313    22137868.449 6 116335220.166 8  90650865.37346
G11  22989434.391    22989436.473 5 120810231.327 7  94137893.17645
G14  22188235.398    22188238.770 5 116599992.491 7  90857124.75045
G15  24303096.328    24303100.930 3 127713649.429 6  99517124.67443
G18  22449297.094    22449299.293 4 117971849.549 7  91926108.74944
G19  23552911.305    23552911.922 5 123771385.045 7  96445227.07345
G22  20777977.922    20777978.305 6 109188998.939 8  85082344.34046
G24  21906985.016    21906991.023 6 115122030.963 7  89705483.02046
G28  22501470.734    22501472.699 4 118245975.689 7  92139771.73944
G32  24872431.633    24872435.590 3 130705501.661 6 101848466.39543
> 2015 07 19 00 48 30.0000000  0 11
G01  23218700.336    23218705.758 5 122015098.592 7  95076727.99045
G04  22134015.828    22134019.141 5 116314991.065 8  90635102.28545
G11  22986050.992    22986053.191 5 120792449.961 7  94124037.53145
G14  22179383.750    22179387.414 5 116553479.411 7  90820880.80345
G15  24313119.039    24313121.063 3 127766307.481 6  99558156.94943
G18  22459124.195    22459126.043 5 118023488.573 7  91966346.93045
G19  23561084.141    23561084.289 5 123814330.917 7  96478691.41345
G22  20780611.578    20780612.137 6 109202840.140 8  85093129.67246
G24  21904400.914    21904407.273 5 115108452.846 7  89694902.65345
G28  22507505.977    22507508.000 4 118277691.018 7  92164484.99344
G32  24861625.945    24861630.195 3 130648718.503 6 101804219.72643
> 2015 07 19 00 48 45.0000000  0 11
G01  23210307.695    23210314.055 5 121970997.985 7  95042363.90745
G04  22130191.203    22130194.867 6 116294893.279 8  90619441.64246
G11  22982690.828    22982692.559 5 120774789.590 7  94110276.15445
G14  22170553.203    22170556.164 5 116507070.524 7  90784718.00345
G15  24323148.852    24323152.633 3 127819017.685 6  99599229.79743
G18  22468966.539    22468968.035 5 118075212.041 7  92006650.90145
G19  23569274.500    23569275.586 5 123857375.558 7  96512232.65945
G22  20783274.352    20783274.852 6 109216832.905 8  85104033.11846
G24  21901846.250    21901852.023 5 115095026.985 7  89684440.91745
G28  22513571.703    22513573.492 4 118309567.924 7  92189324.13944
G32  24850825.219    24850829.703 3 130591960.778 6 101759992.93543
> 2015 07 19 00 49 00.0000000  0 11
G01  23201933.672    23201939.797 5 121926991.538 7  95008073.15745
G04  22126391.523    22126395.246 5 116274926.890 8  90603883.36045
G11  22979353.328    22979354.883 5 120757250.405 7  94096609.24345
G14  22161741.109    22161744.129 5 116460765.963 7  90748636.46345
G15  24333191.148    24333191.297 3 127871779.648 7  99640342.97743
G18  22478825.000    22478827.375 5 118127019.752 7  92047020.54645
G19  23577484.453    23577485.363 5 123900518.835 7  96545850.81945
G22  20785966.078    20785966.344 6 109230977.119 8  85115054.54446
G24  21899320.375    21899326.324 5 115081753.577 7  89674097.99045
G28  22519668.594    22519670.969 4 118341606.034 7  92214288.89344
G32  24840030.281    24840033.477 3 130535228.657 6 101715786.05843
> 2015 07 19 00 49 15.0000000  0 11
G01  23193577.891    23193583.488 5 121883079.687 7  94973856.12245
G04  22122617.672    22122621.043 6 116255091.978 8  90588427.56046
G11  22976038.617    22976040.523 5 120739832.636 7  94083036.90245
G14  22152949.727    22152953.391 5 116414566.189 7  90712636.47445
G15  24343238.820    24343241.723 3 127924593.130 6  99681496.34343
G18  22488699.969    22488701.992 5 118178911.453 7  92087455.64545
G19  23585713.070    23585713.512 5 123943760.353 7  96579545.55645
G22  20788686.297    20788687.148 6 109245272.910 8  85126194.13146
G24  21896824.211    21896829.340 6 115068632.748 7  89663873.95646
G28  22525795.727    22525796.871 4 118373805.023 7  92239379.00444
G32  24829239.867    24829242.477 3 130478522.311 6 101671599.24143
> 2015 07 19 00 49 30.0000000  0 11
G01  23185239.594    23185245.660 5 121839262.679 7  94939713.02245
G04  22118868.477    22118872.316 6 116235388.752 8  90573074.38646
G11  22972747.063    22972748.559 5 120722536.412 7  94069559.37645
G14  22144178.547    22144181.391 5 116368471.610 7  90676718.55745
G15  24353296.461    24353301.414 3 127977457.919 6  99722689.64443
G18  22498590.250    22498592.156 4 118230886.613 7  92127955.74444
G19  23593960.547    23593961.164 5 123987099.648 7  96613316.48545
G22  20791435.609    20791435.582 6 109259719.901 8  85137451.48146
G24  21894355.492    21894361.441 5 115055664.659 7  89653768.94345
G28  22531953.352    22531955.902 4 118406164.629 7  92264594.29144
G32  24818453.156    24818456.703 3 130421842.059 6 101627432.80843
> 2015 07 19 00 49 45.0000000  0 11
G01  23176919.781    23176925.613 5 121795541.101 7  94905644.33245
G04  22115143.727    22115147.391 6 116215817.376 8  90557823.90946
G11  22969478.617    22969480.523 5 120705361.758 7  94056176.51345
G14  22135427.313    22135430.039 5 116322482.616 7  90640882.92145
G15  24363367.164    24363370.828 3 128030373.704 6  99763922.75143
G18  22508496.438    22508498.461 5 118282944.981 7  92168520.68145
G19  23602225.617    23602226.938 5 124030536.356 7  96647163.25245
G22  20794213.602    20794214.395 6 109274318.345 8  85148826.91746
G24  21891917.508    21891922.578 5 115042849.119 7  89643782.78345
G28  22538141.945    22538143.969 4 118438684.780 7  92289934.69244
G32  24807672.578    24807676.125 3 130365188.258 6 101583286.96043
> 2015 07 19 00 50 00.0000000  0 11
G01  23168617.828    23168623.777 5 121751915.176 7  94871650.18945
G04  22111444.750    22111448.766 6 116196378.266 8  90542676.55146
G11  22966233.852    22966235.816 5 120688308.909 7  94042888.51845
G14  22126696.273    22126699.469 5 116276599.410 7  90605129.68545
G15  24373446.938    24373450.133 3 128083340.185 6  99805195.31643
G18  22518419.086    22518421.168 5 118335086.209 7  92209150.20245
G19  23610510.648    23610511.500 5 124074070.279 7  96681085.74545
G22  20797020.063    20797021.031 6 109289067.731 8  85160319.86646
G24  21889507.914    21889513.160 5 115030187.128 7  89633916.31945
G28  22544361.023    22544362.227 4 118471364.728 7  92315399.58944
G32  24796896.680    24796900.051 4 130308561.138 6 101539161.92544
> 2015 07 19 00 50 15.0000000  0 11
G01  23160334.141    23160339.445 5 121708385.068 7  94837730.73545
G04  22107770.438    22107774.512 5 116177071.354 8  90527632.19745
G11  22963011.977    22963014.000 5 120671377.833 7  94029695.39645
G14  22117985.055    22117988.074 5 116230822.649 7  90569459.49945
G15  24383536.602    24383538.859 3 128136357.189 6  99846507.16543
G18  22528357.250    22528358.395 4 118387309.978 7  92249844.05944
G19  23618813.086    23618814.055 5 124117700.980 7  96715083.58645
G22  20799855.813    20799856.605 6 109303968.134 8  85171930.52046
G24  21887127.766    21887132.602 5 115017678.071 7  89624169.00645
G28  22550610.344    22550612.309 4 118504204.304 7  92340988.87544
G32  24786126.766    24786129.844 3 130251960.746 6 101495057.64643
> 2015 07 19 00 50 30.0000000  0 11
G01  23152069.172    23152075.004 5 121664951.143 7  94803886.24145
G04  22104122.133    22104125.387 6 116157896.591 8  90512690.80746
G11  22959813.477    22959815.559 5 120654569.025 7  94016597.59445
G14  22109294.133    22109297.328 5 116185152.279 7  90533872.23145
G15  24393636.148    24393637.527 3 128189424.309 6  99887858.19143
G18  22538310.445    22538312.352 4 118439615.939 7  92290601.93444
G19  23627134.656    23627135.039 5 124161428.388 7  96749156.81245
G22  20802719.844    20802720.988 6 109319019.764 8  85183659.22046
G24  21884775.859    21884781.457 5 115005322.072 7  89614540.98345
G28  22556888.859    22556890.766 4 118537203.123 7  92366702.24744
G32  24775360.891    24775363.910 3 130195387.649 6 101450974.68443
> 2015 07 19 00 50 45.0000000  0 11
G01  23143822.125    23143827.898 5 121621613.359 7  94770116.47645
G04  22100498.398    22100502.121 6 116138854.466 8  90497852.78946
G11  22956638.234    22956640.258 5 120637882.313 7  94003594.95345
G14  22100623.688    22100626.766 5 116139588.690 7  90498368.18645
G15  24403741.484    24403745.207 3 128242541.259 6  99929248.02643
G18  22548279.086    22548281.402 4 118492003.743 7  92331423.59344
G19  23635473.914    23635474.531 5 124205252.021 7  96783305.06445
G22  20805612.508    20805612.832 6 109334222.045 8  85195505.28946
G24  21882453.867    21882458.938 5 114993119.214 7  89605032.29745
G28  22563198.773    22563200.445 4 118570360.798 7  92392539.39744
G32  24764600.578    24764604.125 4 130138841.844 6 101406912.98844
> 2015 07 19 00 51 00.0000000  0 11
G01  23135593.172    23135599.414 5 121578372.199 7  94736422.14445
G04  22096899.828    22096903.785 6 116119944.638 8  90483117.81746
G11  22953485.820    22953487.902 5 120621317.594 7  93990687.33845
G14  22091973.883    22091976.492 5 116094131.856 7  90462947.32345
G15  24413859.953    24413862.445 3 128295707.484 6  99970676.21643
G18  22558263.703    22558266.254 4 118544472.782 7  92372308.56244
G19  23643831.453    23643832.188 5 124249171.439 7  96817528.11145
G22  20808534.344    20808535.020 6 109349574.281 8  85207468.09346
G24  21880161.164    21880166.762 5 114981069.341 7  89595642.80245
G28  22569538.805    22569540.594 4 118603676.773 7  92418499.89344
G32  24753846.188    24753850.027 3 130082323.478 7 101362872.67943
> 2015 07 19 00 51 15.0000000  0 11
G01  23127383.578    23127389.996 5 121535228.234 7  94702803.48845
G04  22093326.977    22093330.230 6 116101167.841 8  90468486.50646
G11  22950356.906    22950358.637 5 120604875.401 7  93977875.16845
G14  22083344.078    22083346.395 5 116048782.316 7  90427610.02645
G15  24423989.648    24423989.504 3 128348923.006 6 100012142.87243
G18  22568263.586    22568266.547 4 118597023.185 7  92413256.93644
G19  23652206.852    23652207.762 5 124293186.191 7  96851825.35245
G22  20811484.398    20811485.016 6 109365076.945 8  85219548.04146
G24  21877897.273    21877902.344 6 114969172.901 7  89586372.88446
G28  22575909.063    22575910.793 4 118637151.118 7  92444583.80044
G32  24743095.289    24743099.012 3 130025833.125 7 101318854.21643
> 2015 07 19 00 51 30.0000000  0 11
G01  23119191.461    23119197.469 5 121492181.707 7  94669260.78345
G04  22089778.922    22089782.762 6 116082524.046 8  90453958.82746
G11  22947251.688    22947253.301 5 120588555.822 7  93965158.57345
G14  22074734.953    22074737.152 5 116003540.464 7  90392356.60145
G15  24434120.852    24434125.160 3 128402187.687 6 100053647.81243
G18  22578278.773    22578281.324 4 118649654.513 7  92454268.35744
G19  23660600.273    23660601.359 5 124337296.106 7  96886196.66045
G22  20814463.055    20814463.730 6 109380730.155 8  85231745.34546
G24  21875662.719    21875667.730 5 114957430.189 7  89577222.73345
G28  22582308.797    22582310.820 4 118670783.435 7  92470790.77044
G32  24732352.406    24732354.723 3 129969370.806 7 101274857.49243
> 2015 07 19 00 51 45.0000000  0 11
G01  23111018.586    23111024.770 5 121449232.735 7  94635794.04245
G04  22086256.375    22086260.273 5 116064013.300 8  90439534.75645
G11  22944168.984    22944171.418 5 120572358.901 7  93952537.57945
G14  22066146.141    22066148.984 5 115958406.368 7  90357187.09545
G15  24444265.570    24444270.230 3 128455500.984 6 100095190.63543
G18  22588309.578    22588311.660 4 118702366.241 7  92495342.41544
G19  23669012.359    23669013.328 5 124381500.992 7  96920642.10245
G22  20817470.445    20817471.121 6 109396533.546 8  85244059.70646
G24  21873457.578    21873462.648 5 114945841.137 7  89568192.31645
G28  22588739.008    22588740.387 4 118704573.174 7  92497120.35944
G32  24721613.289    24721615.195 3 129912936.975 7 101230883.08043
> 2015 07 19 00 52 00.0000000  0 11
G01  23102864.820    23102870.301 5 121406382.015 7  94602403.95045
G04  22082759.492    22082763.156 6 116045636.140 8  90425214.90946
G11  22941110.719    22941112.508 5 120556284.882 7  93940012.30045
G14  22057578.273    22057580.941 5 115913380.757 7  90322102.13645
G15  24454422.859    24454425.234 3 128508862.735 6 100136771.20343
G18  22598356.063    22598357.910 4 118755158.297 7  92536479.06744
G19  23677442.258    23677443.402 5 124425800.381 7  96955161.11845
G22  20820506.016    20820506.809 6 109412487.166 8  85256491.18046
G24  21871281.438    21871286.566 5 114934405.846 7  89559281.72445
G28  22595198.891    22595200.504 4 118738520.414 7  92523572.69944
G32  24710878.859    24710882.230 3 129856531.877 7 101186931.04843
> 2015 07 19 00 52 15.0000000  0 11
G01  23094728.852    23094735.211 5 121363629.281 7  94569090.09045
G04  22079288.484    22079291.914 6 116027392.382 8  90410998.95646
G11  22938075.000    22938076.906 5 120540333.918 7  93927583.01545
G14  22049030.797    22049033.582 5 115868463.701 7  90287101.80745
G15  24464584.805    24464587.766 3 128562272.677 6 100178389.36243
G18  22608416.977    22608419.293 4 118808030.107 7  92577677.84944
G19  23685889.656    23685891.270 5 124470193.794 7  96989753.40445
G22  20823570.336    20823571.188 6 109428590.436 8  85269039.17746
G24  21869134.219    21869139.816 5 114923124.406 7  89550490.99145
G28  22601688.961    22601690.223 4 118772624.404 7  92550147.17244
G32  24700151.398    24700154.711 4 129800155.679 7 101143001.57344
> 2015 07 19 00 52 30.0000000  0 11
G01  23086612.563    23086618.336 5 121320975.315 7  94535853.22345
G04  22075842.219    22075845.414 5 116009282.288 8  90396887.15645
G11  22935063.219    22935065.184 5 120524506.146 7  93915249.72645
G14  22040503.906    22040507.102 5 115823655.751 7  90252186.54345
G15  24474761.563    24474760.891 3 128615730.362 6 100220044.68743
G18  22618494.047    22618495.777 4 118860981.587 7  92618938.72244
G19  23694355.477    23694356.387 5 124514681.039 7  97024418.81145
G22  20826663.648    20826664.031 6 109444843.496 8  85281703.87446
G24  21867017.133    21867022.203 5 114911996.935 7  89541820.25845
G28  22608208.586    22608210.258 4 118806884.971 7  92576843.61244
G32  24689428.797    24689431.641 4 129743808.582 7 101099094.71244
> 2015 07 19 00 52 45.0000000  0 11
G01  23078514.063    23078520.422 5 121278420.349 7  94502693.52945
G04  22072421.250    22072424.445 5 115991306.063 8  90382879.71845
G11  22932074.750    22932076.773 5 120508801.518 8  93903012.38245
G14  22031998.195    22032000.336 5 115778956.947 7  90217356.27045
G15  24484942.164    24484941.727 3 128669235.585 7 100261737.04743
G18  22628584.680    22628587.348 4 118914012.345 7  92660261.38644
G19  23702838.547    23702840.395 5 124559261.737 7  97059157.04145
G22  20829784.672    20829784.879 6 109461246.134 8  85294485.11346
G24  21864928.469    21864933.480 5 114901023.501 7  89533269.55145
G28  22614757.500    22614759.348 4 118841301.865 7  92603661.93444
G32  24678712.211    24678714.703 4 129687490.851 6 101055210.69944
> 2015 07 19 00 53 00.0000000  0 11
G01  23070435.359    23070441.133 5 121235964.588 7  94469611.14045
G04  22069026.117    22069028.844 6 115973463.885 8  90368976.79446
G11  22929109.586    22929111.961 5 120493220.124 7  93890871.05845
G14  22023513.133    22023515.859 5 115734367.666 7  90182611.38145
G15  24495137.445    24495133.492 3 128722788.026 7 100303466.24043
G18  22638691.047    22638692.895 4 118967121.960 7  92701645.48844
G19  23711339.602    23711341.508 5 124603935.559 7  97093967.83845
G22  20832934.672    20832934.938 6 109477798.320 8  85307382.89946
G24  21862870.047    21862874.824 5 114890204.076 7  89524838.84545
G28  22621336.961    22621338.750 4 118875874.605 7  92630601.70644
G32  24667999.938    24668003.426 3 129631202.917 6 101011349.95843
> 2015 07 19 00 53 15.0000000  0 11
G01  23062375.219    23062380.758 5 121193608.124 7  94436606.06345
G04  22065655.945    22065659.727 5 115955755.495 8  90355178.04445
G11  22926167.969    22926170.168 5 120477761.864 7  93878825.62545
G14  22015048.805    22015051.707 5 115689888.245 7  90147952.14145
G15  24505333.328    24505333.008 3 128776387.461 7 100345232.03143
G18  22648812.617    22648814.465 4 119020309.979 7  92743090.66644
G19  23719858.781    23719859.691 5 124648702.034 7  97128850.82045
G22  20836112.570    20836113.539 6 109494499.641 8  85320396.88846
G24  21860840.695    21860845.297 5 114879538.629 7  89516528.14345
G28  22627945.359    22627947.852 4 118910602.719 7  92657662.57744
G32  24657295.102    24657298.297 4 129574944.664 6 100967512.29944
> 2015 07 19 00 53 30.0000000  0 11
G01  23054334.063    23054340.422 5 121151351.584 7  94403678.85145
G04  22062311.469    22062314.840 5 115938181.485 8  90341484.01345
G11  22923250.148    22923252.348 5 120462427.294 7  93866876.58245
G14  22006605.117    22006608.195 5 115645519.052 7  90113378.82245
G15  24515542.570    24515541.605 3 128830033.727 7 100387034.30743
G18  22658948.672    22658950.754 4 119073576.165 7  92784596.76144
G19  23728395.172    23728397.020 5 124693560.986 7  97163805.82645
G22  20839319.508    20839319.949 6 109511350.206 8  85333527.19146
G24  21858840.836    21858845.203 5 114869027.530 7  89508337.68045
G28  22634583.047    22634585.539 4 118945486.138 7  92684844.46844
G32  24646595.141    24646598.746 3 129518716.559 6 100923698.13643
> 2015 07 19 00 53 45.0000000  0 11
G01  23046311.469    23046317.594 5 121109195.315 7  94370829.84945
G04  22058993.125    22058996.379 5 115920741.852 8  90327894.66945
G11  22920354.813    22920357.246 5 120447216.471 8  93855023.91345
G14  21998182.984    21998186.297 5 115601260.213 7  90078891.41145
G15  24525760.164    24525758.965 3 128883726.330 7 100428872.70143
G18  22669100.094    22669102.117 4 119126920.214 7  92826163.52144
G19  23736949.594    23736951.031 5 124738512.030 7  97198832.64145
G22  20842554.266    20842554.941 6 109528349.933 8  85346773.73746
G24  21856869.273    21856874.402 6 114858670.763 7  89500267.50046
G28  22641251.172    22641252.668 4 118980524.324 7  92712146.95844
G32  24635900.750    24635904.473 4 129462519.099 6 100879907.91844
> 2015 07 19 00 54 00.0000000  0 11
G01  23038308.938    23038314.770 5 121067139.514 7  94338059.12345
G04  22055699.672    22055703.219 5 115903436.774 8  90314410.16345
G11  22917484.703    22917487.195 5 120432129.311 7  93843267.54745
G14  21989782.023    21989785.336 5 115557112.120 7  90044490.27345
G15  24535982.977    24535985.176 3 128937465.090 6 100470747.05543
G18  22679265.211    22679267.117 4 119180341.818 7  92867790.71744
G19  23745520.297    23745521.852 5 124783554.883 7  97233931.02045
G22  20845817.750    20845818.016 6 109545498.686 8  85360136.41846
G24  21854927.828    21854932.723 6 114848468.694 7  89492317.86646
G28  22647948.273    22647950.180 4 119015716.861 7  92739569.66544
G32  24625213.195    24625216.156 4 129406352.379 6 100836141.64444
> 2015 07 19 00 54 15.0000000  0 11
G01  23030325.172    23030331.180 5 121025184.556 7  94305366.89945
G04  22052432.914    22052436.520 5 115886266.740 8  90301030.93045
G11  22914637.289    22914639.898 5 120417166.207 8  93831607.86945
G14  21981402.031    21981405.168 5 115513075.364 7  90010175.98045
G15  24546216.703    24546219.664 3 128991249.791 6 100512657.19443
G18  22689445.539    22689447.855 4 119233840.773 7  92909478.19944
G19  23754109.211    23754110.355 5 124828689.320 7  97269100.76645
G22  20849109.500    20849109.941 6 109562796.456 8  85373615.22746
G24  21853015.766    21853020.953 6 114838421.593 7  89484488.98546
G28  22654674.117    22654676.551 4 119051063.787 7  92767112.75644
G32  24614530.633    24614533.828 4 129350216.694 6 100792399.53344
> 2015 07 19 00 54 30.0000000  0 11
G01  23022360.633    23022366.582 5 120983330.661 7  94272753.44645
G04  22049191.297    22049194.844 5 115869231.385 8  90287756.58745
G11  22911813.445    22911816.582 5 120402327.314 8  93820045.10345
G14  21973043.242    21973046.496 5 115469149.936 7  89975948.41345
G15  24556458.922    24556463.523 3 129045079.966 6 100554602.78443
G18  22699641.164    22699642.895 4 119287416.572 7  92951225.57644
G19  23762716.164    23762716.313 5 124873914.791 7  97304341.39845
G22  20852429.258    20852428.879 6 109580242.791 8  85387209.79046
G24  21851133.609    21851138.504 5 114828528.698 7  89476780.24745
G28  22661429.758    22661431.840 4 119086564.425 7  92794775.61944
G32  24603854.219    24603857.941 4 129294112.272 6 100748681.82944
> 2015 07 19 00 54 45.0000000  0 11
G01  23014415.969    23014421.449 5 120941578.335 7  94240219.16045
G04  22045975.242    22045978.496 5 115852331.129 8  90274587.52445
G11  22909014.289    22909016.020 5 120387612.791 7  93808579.27645
G14  21964706.016    21964708.449 5 115425336.399 7  89941808.07645
G15  24566714.836    24566715.863 3 129098955.448 6 100596583.64543
G18  22709849.953    22709852.738 4 119341068.934 7  92993032.61144
G19  23771338.586    23771339.379 5 124919230.989 7  97339652.74745
G22  20855777.180    20855777.855 6 109597837.746 8  85400920.13746
G24  21849280.344    21849285.648 5 114818790.490 7  89469192.04945
G28  22668214.047    22668216.480 4 119122218.497 7  92822558.00344
G32  24593184.039    24593187.410 4 129238039.407 6 100704988.68844
> 2015 07 19 00 55 00.0000000  0 11
G01  23006489.930    23006495.352 5 120899927.812 7  94207764.24645
G04  22042784.664    22042788.738 5 115835566.125 8  90261523.87145
G11  22906237.047    22906238.719 5 120373022.574 7  93797210.25645
G14  21956389.320    21956392.457 5 115381634.743 7  89907754.86345
G15  24576973.352    24576976.137 3 129152876.102 6 100638599.75243
G18  22720074.359    22720076.969 4 119394797.570 7  93034899.08944
G19  23779979.172    23779980.609 5 124964637.594 7  97375034.50945
G22  20859153.656    20859153.863 6 109615581.224 8  85414746.24246
G24  21847456.680    21847461.867 6 114809207.315 7  89461724.66546
G28  22675028.539    22675030.797 4 119158025.671 7  92850459.72444
G32  24582518.977    24582523.285 4 129181998.326 6 100661320.26344
> 2015 07 19 00 55 15.0000000  0 11
G01  22998583.602    22998589.375 5 120858379.368 7  94175388.87845
G04  22039620.328    22039623.348 5 115818936.514 8  90248565.71445
G11  22903484.516    22903486.480 5 120358556.867 7  93785938.30045
G14  21948094.891    21948098.027 5 115338045.361 7  89873789.14245
G15  24587242.391    24587246.055 3 129206841.556 6 100680650.74743
G18  22730313.750    22730315.305 4 119448602.099 7  93076824.68944
G19  23788636.961    23788638.047 5 125010134.168 7  97410486.37045
G22  20862558.625    20862558.539 6 109633472.764 8  85428687.70446
G24  21845662.922    21845667.523 5 114799778.869 7  89454377.83345
G28  22681870.758    22681873.719 4 119193985.677 7  92878480.51744
G32  24571861.109    24571865.008 4 129125989.252 6 100617676.80144
> 2015 07 19 00 55 30.0000000  0 11
G01  22990696.445    22990702.043 5 120816933.168 7  94143093.17745
G04  22036481.297    22036484.375 5 115802442.497 8  90235713.27345
G11  22900754.758    22900757.309 5 120344215.562 7  93774763.24945
G14  21939821.500    21939824.930 5 115294568.677 7  89839911.25945
G15  24597522.422    24597523.977 3 129260851.479 6 100722736.32943
G18  22740566.828    22740568.793 4 119502482.248 7  93118809.20044
G19  23797311.953    23797312.746 5 125055720.506 7  97446008.23645
G22  20865991.391    20865991.832 6 109651512.455 8  85442744.63946
G24  21843898.172    21843903.242 6 114790505.359 7  89447151.71146
G28  22688743.156    22688745.238 4 119230097.837 7  92906619.87344
G32  24561210.086    24561213.340 4 129070012.381 6 100574058.42944
> 2015 07 19 00 55 45.0000000  0 11
G01  22982828.781    22982834.379 5 120775589.702 7  94110877.53245
G04  22033368.797    22033372.285 5 115786084.101 8  90222966.42945
G11  22898050.367    22898052.332 5 120329999.111 7  93763685.54145
G14  21931569.766    21931572.199 5 115251204.964 7  89806121.38545
G15  24607803.781    24607810.023 3 129314905.628 6 100764856.48043
G18  22750834.031    22750836.348 4 119556437.635 7  93160852.32944
G19  23806003.891    23806004.742 5 125101396.205 7  97481599.66745
G22  20869452.516    20869452.840 6 109669700.075 8  85456916.78846
G24  21842162.570    21842167.816 6 114781387.117 7  89440046.59946
G28  22695643.719    22695645.391 4 119266362.242 7  92934877.89544
G32  24550563.836    24550567.324 4 129014068.079 6 100530465.40344
> 2015 07 19 00 56 00.0000000  0 11
G01  22974981.195    22974986.852 5 120734349.092 7  94078741.96545
G04  22030281.711    22030284.965 5 115769861.646 8  90210325.58445
G11  22895368.508    22895370.648 5 120315907.258 8  93752704.82345
G14  21923339.281    21923342.418 5 115207954.491 7  89772419.73845
G15  24618102.133    24618104.508 3 129369003.600 6 100807010.72643
G18  22761115.727    22761118.102 4 119610467.922 7  93202953.81244
G19  23814712.930    23814713.605 5 125147160.930 7  97517260.47345
G22  20872941.258    20872941.406 6 109688035.379 8  85471204.00346
G24  21840457.453    21840462.230 5 114772424.171 7  89433062.49345
G28  22702573.859    22702575.648 4 119302778.322 7  92963254.04244
G32  24539923.813    24539927.359 4 128958156.656 7 100486898.03844
> 2015 07 19 00 56 15.0000000  0 11
G01  22967153.203    22967159.152 5 120693211.493 7  94046686.60845
G04  22027220.180    22027223.727 5 115753774.806 8  90197790.33745
G11  22892710.414    22892712.555 5 120301940.323 7  93741821.50745
G14  21915130.633    21915133.535 5 115164817.297 7  89738806.31745
G15  24628405.563    24628406.648 3 129423145.191 6 100849198.94443
G18  22771411.461    22771414.305 4 119664572.690 7  93245113.32844
G19  23823437.859    23823439.531 5 125193014.262 7  97552990.32045
G22  20876458.648    20876458.973 6 109706518.265 8  85485606.23746
G24  21838781.234    21838786.305 5 114763616.071 7  89426199.03745
G28  22709532.688    22709534.008 4 119339345.531 7  92991747.97644
G32  24529290.586    24529294.836 4 128902278.153 7 100443356.32544
> 2015 07 19 00 56 30.0000000  0 11
G01  22959344.500    22959350.039 5 120652177.820 7  94014712.31245
G04  22024185.195    22024188.918 5 115737824.130 8  90185361.18445
G11  22890076.445    22890078.762 5 120288098.585 7  93731035.77645
G14  21906943.430    21906946.684 5 115121794.179 7  89705281.81345
G15  24638714.586    24638718.367 3 129477330.084 6 100891420.97143
G18  22781721.148    22781723.758 4 119718751.856 7  93287330.83044
G19  23832180.328    23832181.648 5 125238956.074 7  97588789.14245
G22  20880003.820    20880004.262 6 109725148.873 8  85500123.54646
G24  21837134.844    21837139.387 6 114754963.503 7  89419456.80746
G28  22716519.625    22716520.887 4 119376063.615 7  93020359.43944
G32  24518663.766    24518668.133 4 128846433.067 6 100399840.57544
> 2015 07 19 00 56 45.0000000  0 11
G01  22951555.781    22951561.906 5 120611248.041 7  93982819.06445
G04  22021175.633    22021179.883 6 115722009.698 8  90173038.20446
G11  22887466.227    22887468.660 5 120274381.635 7  93720347.17745
G14  21898778.383    21898781.754 5 115078885.114 7  89671846.15345
G15  24649037.031    24649037.473 3 129531558.135 6 100933676.46743
G18  22792045.578    22792047.602 4 119773004.880 7  93329605.89244
G19  23840939.180    23840940.441 5 125284985.754 7  97624656.42545
G22  20883577.242    20883577.391 6 109743926.624 8  85514755.51846
G24  21835517.648    21835522.660 6 114746466.250 7  89412835.59846
G28  22723535.750    22723537.832 4 119412932.219 7  93049088.20544
G32  24508043.227    24508047.125 4 128790621.509 7 100356351.02344
> 2015 07 19 00 57 00.0000000  0 11
G01  22943786.398    22943793.051 5 120570422.420 7  93951006.91445
G04  22018192.203    22018196.043 6 115706331.798 8  90160821.64046
G11  22884879.906    22884882.047 5 120260789.904 7  93709756.23545
G14  21890634.820    21890637.664 5 115036090.504 7  89638499.68445
G15  24659361.164    24659363.598 3 129585828.963 6 100975965.45743
G18  22802383.289    22802386.074 4 119827331.518 7  93371938.28944
G19  23849715.359    23849716.504 5 125331103.059 7  97660591.96645
G22  20887178.719    20887178.926 6 109762851.657 8  85529502.22746
G24  21833929.938    21833935.184 6 114738124.569 8  89406335.58846
G28  22730580.164    22730581.777 4 119449951.095 7  93077934.07444
G32  24497429.313    24497432.977 4 128734843.966 7 100312887.97344
> 2015 07 19 00 57 15.0000000  0 11
G01  22936038.109    22936044.059 5 120529701.173 7  93919276.01745
G04  22015234.672    22015238.629 5 115690790.453 8  90148711.52845
G11  22882317.563    22882318.883 5 120247323.687 8  93699263.09945
G14  21882513.133    21882515.625 5 114993410.690 8  89605242.60645
G15  24669697.156    24669699.648 3 129640142.369 6 101018287.55743
G18  22812735.758    22812738.367 4 119881731.430 7  93414327.80044
G19  23858508.180    23858509.148 5 125377307.748 7  97696595.58845
G22  20890807.969    20890808.586 6 109781923.852 8  85544363.60846
G24  21832372.578    21832377.531 5 114729938.243 8  89399956.64345
G28  22737652.813    22737654.602 4 119487119.843 7  93106896.69844
G32  24486822.211    24486824.879 4 128679100.530 7 100269451.52444
> 2015 07 19 00 57 30.0000000  0 11
G01  22928308.977    22928314.867 5 120489084.779 7  93887626.90445
G04  22012303.375    22012307.039 6 115675385.534 8  90136707.65246
G11  22879778.477    22879780.324 5 120233982.974 8  93688867.74945
G14  21874413.633    21874416.477 5 114950846.243 8  89572075.52045
G15  24680041.945    24680043.617 3 129694497.950 6 101060642.54443
G18  22823101.594    22823104.145 4 119936204.289 7  93456774.17444
G19  23867316.766    23867317.969 5 125423599.267 7  97732666.84745
G22  20894465.484    20894465.867 6 109801142.822 8  85559339.37946
G24  21830843.852    21830848.746 6 114721907.427 8  89393698.88046
G28  22744754.766    22744756.262 4 119524438.019 7  93135975.80344
G32  24476220.320    24476223.691 4 128623391.176 7 100226041.53344
> 2015 07 19 00 57 45.0000000  0 11
G01  22920599.719    22920605.375 5 120448573.551 7  93856059.65845
G04  22009398.070    22009401.969 6 115660117.642 8  90124810.53046
G11  22877264.656    22877266.035 5 120220768.210 8  93678570.61645
G14  21866335.805    21866338.766 5 114908397.265 8  89538998.40045
G15  24690393.242    24690395.441 3 129748895.666 6 101103030.40743
G18  22833481.297    22833483.555 4 119990749.821 7  93499277.15144
G19  23876142.773    23876144.035 5 125469977.555 7  97768805.78845
G22  20898150.023    20898150.523 6 109820508.898 8  85574429.84746
G24  21829345.227    21829350.883 5 114714032.581 8  89387562.64345
G28  22751883.867    22751885.363 4 119561905.476 7  93165171.21344
G32  24465626.000    24465630.016 4 128567716.859 7 100182658.85944
> 2015 07 19 00 58 00.0000000  0 11
G01  22912911.094    22912916.516 5 120408167.710 7  93824574.53745
G04  22006518.680    22006522.813 6 115644986.814 8  90113020.32346
G11  22874773.438    22874775.637 5 120207678.939 7  93668371.18045
G14  21858280.273    21858283.000 5 114866063.756 7  89506011.24245
G15  24700750.828    24700755.078 3 129803335.011 6 101145450.69043
G18  22843874.844    22843876.750 4 120045367.504 7  93541836.36444
G19  23884984.570    23884985.773 5 125516442.048 7  97805011.88645
G22  20901863.445    20901864.590 6 109840021.377 8  85589634.31746
G24  21827876.094    21827880.637 5 114706313.112 7  89381547.47645
G28  22759042.078    22759043.984 4 119599521.602 7  93194482.45044
G32  24455038.313    24455041.508 4 128512077.400 7 100139303.41544
> 2015 07 19 00 58 15.0000000  0 11
G01  22905242.063    22905247.602 5 120367867.483 7  93793171.76945
G04  22003665.289    22003669.070 5 115629992.945 8  90101336.84945
G11  22872306.289    22872308.371 5 120194715.232 8  93658269.58645
G14  21850245.734    21850248.930 5 114823846.336 8  89473114.67745
G15  24711118.641    24711121.660 3 129857815.684 6 101187903.10443
G18  22854281.719    22854284.211 4 120100057.147 7  93584451.66344
G19  23893842.438    23893844.168 5 125562992.343 7  97841284.80445
G22  20905604.828    20905605.328 6 109859680.277 8  85604952.97846
G24  21826436.922    21826442.109 5 114698749.521 8  89375653.78145
G28  22766228.258    22766230.164 4 119637286.088 7  93223909.32844
G32  24444457.250    24444460.621 4 128456473.035 7 100095975.31744
> 2015 07 19 00 58 30.0000000  0 11
G01  22897593.602    22897598.965 5 120327673.318 7  93761851.61745
G04  22000838.500    22000841.578 6 115615136.286 8  90089760.25746
G11  22869863.211    22869865.117 5 120181877.557 8  93648266.20045
G14  21842234.969    21842237.227 5 114781745.316 7  89440308.81345
G15  24721493.719    24721497.734 4 129912337.438 6 101230387.57044
G18  22864701.914    22864705.168 4 120154818.557 7  93627122.88144
G19  23902717.313    23902718.574 5 125609628.273 7  97877624.45245
G22  20909373.047    20909374.191 6 109879485.533 8  85620385.68046
G24  21825027.242    21825032.430 5 114691341.754 7  89369881.49645
G28  22773443.141    22773445.164 4 119675198.438 7  93253451.34444
G32  24433882.695    24433886.477 4 128400904.254 7 100052674.99244
> 2015 07 19 00 58 45.0000000  0 11
G01  22889965.047    22889970.527 5 120287585.479 7  93730614.35345
G04  21998037.070    21998040.910 6 115600417.053 8  90078290.82246
G11  22867444.438    22867446.695 5 120169165.801 7  93638360.92245
G14  21834244.906    21834247.750 5 114739760.747 7  89407593.64445
G15  24731877.742    24731880.410 4 129966900.076 6 101272903.92944
G18  22875137.258    22875139.105 4 120209651.197 7  93669849.61844
G19  23911608.023    23911609.227 5 125656349.473 7  97914030.56745
G22  20913169.555    20913170.934 6 109899436.815 8  85635932.14846
G24  21823647.359    21823651.844 5 114684089.937 7  89364230.73845
G28  22780685.906    22780686.816 4 119713258.396 7  93283108.42344
G32  24423315.078    24423318.391 4 128345371.052 7 100009402.35544
> 2015 07 19 00 59 00.0000000  0 11
G01  22882356.414    22882361.895 5 120247604.324 7  93699460.25345
G04  21995262.359    21995265.613 6 115585835.202 8  90066928.42246
G11  22865049.297    22865051.672 5 120156580.157 7  93628553.91345
G14  21826277.711    21826280.438 5 114697892.969 7  89374969.41345
G15  24742267.648    24742270.375 4 130021503.208 6 101315451.80344
G18  22885585.063    22885586.852 4 120264554.818 7  93712631.65944
G19  23920515.438    23920516.172 5 125703155.573 7  97950502.82745
G22  20916994.125    20916995.094 6 109919534.055 8  85651592.33546
G24  21822297.000    21822302.539 5 114676994.266 7  89358701.65045
G28  22787956.719    22787958.215 4 119751465.827 7  93312880.46444
G32  24412754.672    24412757.867 4 128289873.748 7  99966157.63944
> 2015 07 19 00 59 15.0000000  0 11
G01  22874768.695    22874774.938 5 120207729.979 7  93668389.29245
G04  21992513.695    21992517.711 6 115571390.983 8  90055673.25446
G11  22862678.469    22862680.668 5 120144120.689 7  93618845.20445
G14  21818332.555    21818335.457 5 114656142.504 7  89342436.67445
G15  24752666.211    24752669.465 4 130076146.644 6 101358031.11144
G18  22896045.344    22896047.953 4 120319528.905 7  93755468.60344
G19  23929438.297    23929439.383 5 125750046.181 7  97987040.91345
G22  20920845.875    20920847.254 6 109939777.083 8  85667366.15046
G24  21820976.695    21820981.590 5 114670054.523 7  89353294.06845
G28  22795254.711    22795256.559 4 119789820.147 7  93342766.95644
G32  24402200.633    24402203.711 4 128234412.806 7  99922941.34444
> 2015 07 19 00 59 30.0000000  0 11
G01  22867201.391    22867207.398 5 120167962.805 7  93637401.84245
G04  21989790.852    21989794.867 6 115557084.391 8  90044525.29646
G11  22860332.047    22860333.484 5 120131787.608 7  93609235.03845
G14  21810410.508    21810413.000 5 114614509.482 7  89309995.38445
G15  24763072.070    24763075.324 4 130130830.049 6 101400641.56644
G18  22906520.680    22906522.996 4 120374573.233 7  93798360.28544
G19  23938376.898    23938378.336 5 125797021.035 7  98023644.64845
G22  20924726.133    20924727.512 6 109960165.620 8  85683253.29446
G24  21819685.266    21819691.039 5 114663270.806 7  89348008.05245
G28  22802581.453    22802582.891 4 119828320.862 7  93372767.52944
G32  24391653.734    24391657.867 4 128178988.236 6  99879753.31744
> 2015 07 19 00 59 45.0000000  0 11
G01  22859654.320    22859660.211 5 120128303.309 7  93606498.36045
G04  21987095.219    21987098.590 5 115542915.738 8  90033484.79345
G11  22858008.680    22858010.586 5 120119580.881 7  93599723.29045
G14  21802510.234    21802513.137 5 114572994.233 7  89277645.83645
G15  24773485.711    24773488.262 4 130185553.172 6 101443282.96444
G18  22917008.523    22917011.191 4 120429687.534 7  93841306.49244
G19  23947331.883    23947333.027 5 125844079.607 7  98060313.65545
G22  20928633.273    20928634.477 6 109980699.632 8  85699253.74546
G24  21818424.219    21818429.348 5 114656643.415 7  89342843.87545
G28  22809935.375    22809937.105 4 119866967.722 7  93402882.01244
G32  24381113.484    24381117.266 4 128123600.621 6  99836594.15944
> 2015 07 19 01 00 00.0000000  0 11
G01  22852128.164    22852133.352 5 120088751.675 7  93575678.88945
G04  21984424.969    21984428.516 5 115528885.500 8  90022552.31245
G11  22855710.078    22855711.867 5 120107500.688 7  93590310.11245
G14  21794632.211    21794636.168 5 114531597.092 7  89245388.34045
G15  24783906.875    24783909.133 4 130240315.815 6 101485955.14144
G18  22927509.758    22927512.074 4 120484871.564 7  93884307.00244
G19  23956302.250    23956303.453 5 125891221.778 7  98097047.81045
G22  20932568.680    20932570.059 6 110001379.059 8  85715367.54846
G24  21817192.609    21817198.031 5 114650171.884 7  89337801.13345
G28  22817317.430    22817318.750 4 119905760.322 7  93433109.97644
G32  24370580.508    24370584.406 4 128068250.045 7  99793463.83044
> 2015 07 19 01 00 15.0000000  0 11
G01  22844622.266    22844627.688 5 120049308.080 7  93544943.59445
G04  21981781.344    21981784.422 6 115514993.177 8  90011727.25946
G11  22853435.617    22853437.465 5 120095546.711 7  93580995.13545
G14  21786777.266    21786779.758 5 114490318.008 7  89213222.87445
G15  24794334.547    24794337.918 4 130295117.500 6 101528657.74744
G18  22938023.461    22938025.953 4 120540124.887 7  93927361.50944
G19  23965289.672    23965290.348 5 125938446.926 7  98133846.60245
G22  20936531.383    20936532.234 6 110022203.518 8  85731594.39846
G24  21815990.961    21815996.676 5 114643856.757 7  89332880.28545
G28  22824727.352    22824728.965 4 119944698.445 7  93463451.41844
G32  24360055.742    24360058.762 4 128012936.631 6  99750362.42944
> 2015 07 19 01 00 30.0000000  0 11
G01  22837137.195    22837143.262 5 120009973.041 7  93514292.92545
G04  21979163.844    21979167.098 6 115501239.251 8  90001010.02846
G11  22851185.094    22851186.473 5 120083719.938 8  93571779.48445
G14  21778944.945    21778947.145 5 114449157.650 7  89181149.82445
G15  24804770.188    24804773.617 4 130349958.208 6 101571390.75744
G18  22948551.531    22948553.906 4 120595447.222 7  93970469.80944
G19  23974291.430    23974292.984 5 125985755.085 7  98170710.09745
G22  20940521.922    20940522.656 6 110043173.176 8  85747934.45846
G24  21814818.813    21814824.117 5 114637697.987 7  89328081.25745
G28  22832164.203    22832166.578 4 119983781.679 7  93493905.89044
G32  24349536.258    24349539.980 4 127957660.929 7  99707290.44244
> 2015 07 19 01 00 45.0000000  0 11
G01  22829672.625    22829678.398 5 119970746.635 7  93483726.91845
G04  21976572.867    21976576.180 6 115487623.362 8  89990400.25246
G11  22848958.750    22848960.832 5 120072019.569 7  93562662.24445
G14  21771134.789    21771137.867 5 114408116.281 7  89149169.53845
G15  24815213.672    24815216.984 4 130404837.439 6 101614153.80844
G18  22959091.359    22959094.496 4 120650838.080 7  94013631.49144
G19  23983309.656    23983310.801 5 126033145.431 7  98207637.60045
G22  20944539.969    20944540.762 6 110064287.367 8  85764387.08846
G24  21813676.945    21813682.309 5 114631695.642 7  89323404.10045
G28  22839628.953    22839631.563 4 120023009.454 7  93524473.03244
G32  24339024.992    24339028.891 4 127902422.961 7  99664247.88444
> 2015 07 19 01 01 00.0000000  0 11
G01  22822229.492    22822234.914 5 119931629.266 7  93453245.80745
G04  21974008.367    21974011.211 6 115474146.244 8  89979898.69846
G11  22846756.133    22846757.980 5 120060446.422 7  93553644.22545
G14  21763347.961    21763350.395 5 114367194.348 8  89117282.30545
G15  24825664.039    24825667.820 4 130459755.174 6 101656946.83044
G18  22969645.266    22969647.992 4 120706297.390 7  94056846.51644
G19  23992343.914    23992344.648 5 126080617.887 7  98244629.08945
G22  20948585.414    20948585.680 6 110085546.209 8  85780952.39146
G24  21812564.242    21812569.605 5 114625849.893 7  89318848.98845
G28  22847120.695    22847123.422 4 120062381.432 7  93555152.48944
G32  24328520.930    24328524.008 4 127847223.095 6  99621234.96044
> 2015 07 19 01 01 15.0000000  0 11
G01  22814805.797    22814811.746 5 119892621.248 7  93422849.90745
G04  21971470.141    21971473.688 6 115460807.806 8  89969505.24146
G11  22844577.852    22844580.051 5 120049000.392 7  93544725.17645
G14  21755583.086    21755586.340 5 114326392.061 7  89085488.34345
G15  24836122.633    24836125.008 4 130514710.988 6 101699769.53444
G18  22980212.555    22980214.695 4 120761824.779 7  94100114.56644
G19  24001393.117    24001394.262 5 126128172.202 7  98281684.39545
G22  20952658.086    20952658.469 6 110106949.661 8  85797630.42546
G24  21811481.922    21811487.227 5 114620160.731 7  89314415.91145
G28  22854640.961    22854642.984 4 120101897.236 7  93585943.99944
G32  24318024.180    24318027.844 4 127792061.718 7  99578252.05844
> 2015 07 19 01 01 30.0000000  0 11
G01  22807403.570    22807408.992 5 119853722.621 7  93392539.22345
G04  21968958.117    21968961.547 6 115447607.824 8  89959219.55546
G11  22842424.313    22842426.160 5 120037681.297 7  93535905.09545
G14  21747841.977    21747843.648 5 114285709.427 7  89053787.61345
G15  24846587.320    24846590.105 4 130569704.364 7 101742621.52344
G18  22990790.625    22990794.523 4 120817419.688 7  94143435.29444
G19  24010457.234    24010459.199 4 126175807.785 7  98318803.02944
G22  20956758.609    20956758.758 6 110128497.124 8  85814420.64046
G24  21810428.781    21810434.027 6 114614627.685 7  89310104.47246
G28  22862188.578    22862189.957 4 120141556.384 7  93616847.21844
G32  24307534.938    24307537.840 4 127736938.849 6  99535299.21644
> 2015 07 19 01 01 45.0000000  0 11
G01  22800022.898    22800028.379 5 119814934.035 7  93362314.31045
G04  21966472.766    21966475.609 6 115434546.795 8  89949042.17746
G11  22840294.250    22840296.801 5 120026489.276 8  93527183.97145
G14  21740122.977    21740125.645 5 114245146.884 8  89022180.42145
G15  24857058.289    24857061.543 4 130624735.231 6 101785502.71144
G18  23001383.430    23001386.449 4 120873081.968 7  94186808.47544
G19  24019537.867    24019539.188 5 126223524.321 7  98355984.77545
G22  20960886.633    20960887.016 6 110150188.624 8  85831323.07246
G24  21809405.688    21809410.934 5 114609251.072 7  89305914.92945
G28  22869762.086    22869763.699 4 120181358.844 7  93647862.23544
G32  24297051.797    24297055.754 4 127681854.797 7  99492376.54144
> 2015 07 19 01 02 00.0000000  0 11
G01  22792662.188    22792667.961 5 119776255.692 7  93332175.31945
G04  21964013.680    21964017.402 6 115421624.838 8  89938973.19546
G11  22838189.016    22838191.332 5 120015424.700 8  93518562.19245
G14  21732427.023    21732430.102 5 114204704.916 8  88990667.24245
G15  24867538.602    24867540.918 4 130679803.341 7 101828412.90644
G18  23011988.484    23011991.445 4 120928811.294 7  94230233.91744
G19  24028633.508    24028635.063 4 126271321.543 7  98393229.33944
G22  20965041.688    20965042.012 6 110172024.053 8  85848337.65146
G24  21808412.359    21808417.078 5 114604031.105 7  89301847.45045
G28  22877364.195    22877365.281 4 120221303.975 7  93678988.33944
G32  24286577.805    24286581.176 4 127626810.019 7  99449484.52944
> 2015 07 19 01 02 15.0000000  0 11
G01  22785323.391    22785329.105 5 119737687.905 7  93302122.50345
G04  21961581.063    21961583.848 6 115408841.936 8  89929012.54246
G11  22836107.617    22836109.230 5 120004487.742 7  93510039.91845
G14  21724754.180    21724756.438 5 114164383.669 7  88959248.14245
G15  24878024.781    24878028.094 4 130734908.426 7 101871351.91444
G18  23022605.492    23022608.219 4 120984607.243 7  94273711.27944
G19  24037744.148    24037745.469 4 126319199.261 7  98430536.69144
G22  20969224.211    20969224.477 6 110194003.336 8  85865464.33546
G24  21807448.875    21807453.887 5 114598967.716 7  89297901.94345
G28  22884991.797    22884993.410 4 120261391.418 7  93710225.35644
G32  24276110.844    24276114.215 4 127571804.624 7  99406623.13844
> 2015 07 19 01 02 30.0000000  0 11
G01  22778005.094    22778011.043 5 119699230.927 7  93272155.98445
G04  21959175.109    21959178.305 6 115396198.201 8  89919160.28646
G11  22834050.844    22834052.633 5 119993678.312 7  93501617.00545
G14  21717104.180    21717107.609 5 114124183.746 7  88927923.68245
G15  24888517.273    24888520.820 3 130790050.309 6 101914319.61143
G18  23033236.234    23033239.195 4 121040469.583 7  94317240.38144
G19  24046870.023    24046871.520 4 126367156.919 7  98467906.28544
G22  20973433.820    20973434.379 6 110216126.455 8  85882703.20146
G24  21806515.242    21806520.254 5 114594060.909 7  89294078.43745
G28  22892647.109    22892648.840 4 120301620.823 7  93741572.94444
G32  24265650.008    24265654.199 4 127516838.906 7  99363792.64344
> 2015 07 19 01 02 45.0000000  0 11
G01  22770708.164    22770714.172 5 119660885.041 7  93242276.02745
G04  21956795.133    21956799.148 6 115383693.821 8  89909416.59346
G11  22832017.391    22832019.414 5 119982996.256 7  93493293.34045
G14  21709477.500    21709480.695 5 114084104.959 8  88896693.50745
G15  24899017.469    24899021.426 2 130845228.724 6 101957315.75542
G18  23043879.195    23043881.160 4 121096397.788 7  94360820.77744
G19  24056011.383    24056012.938 4 126415194.177 7  98505337.94944
G22  20977671.164    20977671.020 6 110238392.790 8  85900053.61946
G24  21805611.477    21805616.371 6 114589310.933 8  89290377.11946
G28  22900329.492    22900330.988 4 120341991.692 7  93773030.75044
G32  24255198.289    24255202.422 4 127461913.280 7  99320993.46944
> 2015 07 19 01 03 00.0000000  0 11
G01  22763432.484    22763437.848 5 119622650.598 7  93212482.93945
G04  21954442.602    21954446.207 6 115371328.969 8  89899781.64546
G11  22830009.211    22830011.820 5 119972441.809 7  93485069.16645
G14  21701873.469    21701876.605 5 114044147.501 8  88865557.73545
G15  24909523.977    24909528.109 2 130900443.227 5 102000340.12442
G18  23054533.539    23054536.559 4 121152391.649 7  94404452.34044
G19  24065167.227    24065169.074 4 126463310.722 7  98542831.38044
G22  20981935.727    20981935.348 6 110260802.392 8  85917515.67746
G24  21804737.703    21804742.070 6 114584717.794 8  89286798.02846
G28  22908038.469    22908040.668 4 120382503.819 7  93804598.67144
G32  24244754.016    24244757.738 4 127407027.929 7  99278225.72644
> 2015 07 19 01 03 15.0000000  0 11
G01  22756177.734    22756183.391 5 119584527.996 7  93182777.03845
G04  21952115.906    21952119.277 6 115359103.522 8  89890255.24546
G11  22828025.000    22828027.375 5 119962015.078 8  93476944.43445
G14  21694293.711    21694296.438 6 114004311.974 8  88834517.07846
G15  24920037.367                   130955693.69114
G18  23065201.828    23065204.086 4 121208450.993 7  94448134.95344
G19  24074338.125    24074340.500 4 126511506.115 7  98580386.22444
G22  20986227.172    20986227.145 6 110283355.021 8  85935089.17646
G24  21803893.133    21803898.027 6 114580281.227 8  89283340.92246
G28  22915774.117    22915776.316 4 120423156.748 7  93836276.28044
G32  24234318.023    24234321.336 4 127352183.028 7  99235489.41644
> 2015 07 19 01 03 30.0000000  0 10
G01  22748944.406    22748950.590 5 119546517.474 7  93153158.44845
G04  21949816.375    21949819.746 6 115347017.993 8  89880837.84346
G11  22826065.906    22826067.930 5 119951716.326 7  93468919.37645
G14  21686736.289    21686739.250 5 113964598.799 8  88803571.73245
G18  23075882.203    23075884.461 4 121264575.619 7  94491868.41444
G19  24083524.977    24083527.000 4 126559780.207 7  98618002.40744
G22  20990546.086    20990546.410 6 110306050.680 8  85952774.08446
G24  21803078.680    21803084.219 5 114576001.667 8  89280006.16345
G28  22923537.852    22923539.289 4 120463950.150 7  93868063.35844
G32  24223889.602    24223892.445 4 127297379.003 7  99192784.93944
> 2015 07 19 01 03 45.0000000  0 10
G01  22741733.289    22741739.063 5 119508619.131 7  93123627.20345
G04  21947543.523    21947547.129 6 115335072.392 8  89871529.54146
G11  22824129.508    22824132.059 5 119941545.572 8  93460994.10945
G14  21679202.633    21679205.184 5 113925008.095 8  88772721.79245
G18  23086573.883    23086577.137 4 121320764.968 7  94535652.33244
G19  24092726.281    24092727.777 4 126608132.500 7  98655679.53044
G22  20994891.867    20994892.367 6 110328888.877 8  85970570.06946
G24  21802294.344    21802299.414 5 114571879.017 8  89276793.70945
G28  22931326.469    22931328.316 4 120504883.540 7  93899959.46844
G32  24213468.328    24213471.758 4 127242616.148 7  99150112.60844
> 2015 07 19 01 04 00.0000000  0 10
G01  22734542.758    22734548.414 5 119470833.373 7  93094183.72045
G04  21945296.844    21945299.863 6 115323266.571 8  89862330.14146
G11  22822218.797    22822220.996 5 119931502.680 8  93453168.46045
G14  21671691.539    21671694.852 5 113885540.317 8  88741967.71845
G18  23097279.117    23097281.961 4 121377018.699 7  94579486.43944
G19  24101941.273    24101943.648 4 126656562.469 7  98693417.12844
G22  20999265.023    20999265.230 6 110351869.574 8  85988477.11746
G24  21801539.602    21801544.730 6 114567912.998 8  89273703.29846
G28  22939142.648    22939144.203 4 120545956.593 7  93931964.41744
G32  24203055.234    24203059.309 4 127187894.420 7  99107472.29944
> 2015 07 19 01 04 15.0000000  0 10
G01  22727373.797    22727378.926 5 119433160.491 7  93064828.19145
G04  21943076.469    21943080.250 6 115311600.870 8  89853239.96446
G11  22820332.250    22820334.156 5 119921587.849 8  93445442.59445
G14  21664204.992    21664207.484 5 113846195.543 8  88711309.49645
G18  23107995.852    23107998.813 4 121433336.408 7  94623370.35244
G19  24111172.641    24111174.488 4 126705070.045 7  98731215.21144
G22  21003665.039    21003665.480 6 110374992.548 8  86006495.00246
G24  21800815.367    21800819.617 6 114564104.192 8  89270735.38746
G28  22946984.445    22946986.352 4 120587168.924 7  93964077.97544
G32  24192649.305    24192653.438 4 127133214.374 7  99064864.45744
> 2015 07 19 01 04 30.0000000  0 10
G01  22720226.133    22720232.551 5 119395600.771 7  93035560.85145
G04  21940883.680    21940887.578 6 115300075.391 8  89844259.04146
G11  22818469.602    22818471.977 5 119911801.099 8  93437816.53645
G14  21656740.789    21656743.926 5 113806974.129 8  88680747.42645
G18  23118725.047    23118728.770 4 121489717.809 7  94667303.89444
G19  24120418.227    24120420.309 4 126753654.734 7  98769073.41544
G22  21008092.773    21008092.922 6 110398257.431 8  86024623.38846
G24  21800120.609    21800124.508 6 114560452.240 8  89267889.71146
G28  22954853.156    22954855.707 4 120628520.026 7  93996299.62444
G32  24182252.352    24182255.547 4 127078576.123 7  99022289.20444
> 2015 07 19 01 04 45.0000000  0 10
G01  22713100.336    22713106.402 5 119358154.474 7  93006381.90445
G04  21938716.914    21938720.988 6 115288689.921 8  89835387.14346
G11  22816631.789    22816634.164 5 119902142.497 8  93430290.32945
G14  21649301.172    21649304.250 5 113767876.285 8  88650281.61245
G18  23129466.453    23129469.063 4 121546162.476 7  94711286.75444
G19  24129677.906    24129679.813 4 126802316.087 7  98806991.32344
G22  21012546.898    21012546.813 6 110421664.267 8  86042862.39246
G24  21799454.625    21799460.164 6 114556957.239 8  89265166.32946
G28  22962748.625    22962750.824 4 120670009.547 7  94028629.11544
G32  24171863.016    24171866.621 4 127023979.854 7  98979746.60044
> 2015 07 19 01 05 00.0000000  0 10
G01  22705996.266    22706002.566 5 119320822.187 7  92977291.83245
G04  21936577.148    21936581.223 6 115277444.979 8  89826624.74346
G11  22814818.398    22814821.125 5 119892612.639 8  93422864.51745
G14  21641884.781    21641887.391 5 113728902.346 8  88619912.33745
G18  23140218.906    23140221.867 4 121602670.358 7  94755318.83644
G19  24138953.117    24138954.262 4 126851054.034 7  98844968.92244
G22  21017028.023    21017028.055 6 110445213.142 8  86061212.15446
G24  21798819.781    21798824.734 5 114553619.281 8  89262565.34845
G28  22970669.883    22970672.727 4 120711637.184 7  94061066.22044
G32  24161482.078    24161485.332 4 126969426.347 7  98937237.43844
> 2015 07 19 01 05 15.0000000  0 10
G01  22698913.961    22698920.145 5 119283603.977 7  92948290.64345
G04  21934464.133    21934467.504 6 115266340.897 8  89817972.25046
G11  22813029.086    22813031.285 5 119883211.314 8  93415538.87345
G14  21634491.891    21634494.500 5 113690052.645 8  88589639.87245
G18  23150985.266    23150987.230 4 121659240.988 7  94799399.82544
G19  24148241.594    24148243.031 4 126899868.322 7  98883006.03944
G22  21021536.031    21021536.531 6 110468903.572 8  86079672.21646
G24  21798214.219    21798219.699 5 114550438.505 8  89260086.81545
G28  22978618.688    22978620.652 4 120753402.384 7  94093610.43444
G32  24151108.945    24151112.668 4 126914915.601 7  98894761.57444
> 2015 07 19 01 05 30.0000000  0 10
G01  22691852.992    22691859.469 5 119246500.200 7  92919378.60345
G04  21932377.703    21932381.895 5 115255377.553 7  89809429.38345
G11  22811264.727    22811266.398 5 119873938.702 7  93408313.56045
G14  21627122.555    21627125.750 5 113651327.489 7  88559464.43945
G18  23161760.836    23161764.090 4 121715874.027 7  94843529.42344
G19  24157545.484    24157546.629 4 126948758.348 7  98921102.18944
G22  21026070.844    21026071.402 6 110492735.405 8  86098242.44746
G24  21797638.766    21797644.539 6 114547415.103 8  89257730.93546
G28  22986592.516    22986593.953 4 120795305.081 7  94126261.86944
G32  24140743.648    24140747.488 4 126860447.765 7  98852319.09844
> 2015 07 19 01 05 45.0000000  0 10
G01  22684814.586    22684820.125 5 119209510.811 7  92890555.69245
G04  21930318.570    21930322.879 6 115244554.495 8  89800995.75346
G11  22809525.117    22809527.199 5 119864794.235 7  93401188.05045
G14  21619777.219    21619780.297 5 113612727.108 8  88529386.30345
G18  23172550.492    23172551.754 4 121772569.168 7  94887707.42144
G19  24166863.242    24166864.211 4 126997723.461 7  98959256.82644
G22  21030632.539    21030633.391 6 110516708.356 8  86116922.70646
G24  21797093.789    21797098.859 6 114544548.544 8  89255497.28246
G28  22994592.352    22994594.551 4 120837344.352 7  94159019.67644
G32  24130387.711    24130391.434 4 126806022.986 7  98809910.22044
> 2015 07 19 01 06 00.0000000  0 10
G01  22677796.938    22677802.887 5 119172636.209 7  92861822.26445
G04  21928285.953    21928289.793 6 115233871.848 8  89792671.52746
G11  22807809.055    22807811.078 5 119855778.232 8  93394162.60845
G14  21612455.125    21612458.613 5 113574251.536 7  88499405.42445
G18  23183350.281    23183353.184 4 121829325.968 7  94931933.49944
G19  24176195.438    24176196.055 4 127046763.442 7  98997469.81544
G22  21035221.844    21035222.109 6 110540822.095 8  86135712.62946
G24  21796578.391    21796583.285 5 114541838.817 8  89253385.80845
G28  23002618.602    23002619.219 4 120879520.088 7  94191883.91644
G32  24120039.297    24120042.961 4 126751641.391 7  98767534.91544
> 2015 07 19 01 06 15.0000000  0 10
G01  22670802.281    22670808.348 5 119135876.851 7  92833178.57145
G04  21926279.820    21926283.602 5 115223330.347 7  89784457.25145
G11  22806117.570    22806119.887 5 119846891.083 7  93387237.55545
G14  21605157.148    21605160.578 5 113535901.253 7  88469522.12445
G18  23194162.820    23194164.961 4 121886144.290 7  94976207.48444
G19  24185541.516    24185542.133 4 127095878.105 7  99035740.98844
G22  21039836.852    21039837.234 6 110565076.788 8  86154612.43146
G24  21796092.500    21796097.043 5 114539286.102 8  89251396.66645
G28  23010669.836    23010670.980 4 120921832.000 7  94224854.26744
G32  24109699.117    24109702.254 4 126697303.843 7  98725194.05044
> 2015 07 19 01 06 30.0000000  0 10
G01  22663829.180    22663835.129 5 119099233.171 7  92804625.02345
G04  21924300.648    21924304.371 6 115212930.406 8  89776353.47046
G11  22804451.563    22804453.293 5 119838132.801 8  93380412.84545
G14  21597883.242    21597886.203 5 113497676.872 7  88439736.92245
G18  23204986.891    23204989.207 4 121943023.914 7  95020529.26444
G19  24194901.617    24194902.645 4 127145067.279 7  99074070.18144
G22  21044479.195    21044479.402 6 110589472.255 8  86173621.94046
G24  21795636.563    21795641.281 6 114536890.770 8  89249530.17746
G28  23018747.117    23018749.082 4 120964279.691 7  94257930.30844
G32  24099367.227    24099370.949 4 126643010.298 7  98682887.34344
> 2015 07 19 01 06 45.0000000  0 10
G01  22656878.125    22656885.070 5 119062705.417 7  92776161.82645
G04  21922348.641    21922352.012 6 115202671.663 8  89768359.71146
G11  22802809.313    22802811.395 5 119829503.534 8  93373688.76645
G14  21590633.406    21590636.777 5 113459578.418 7  88410049.89645
G18  23215821.711    23215824.789 4 121999964.210 7  95064898.30044
G19  24204276.531    24204277.969 4 127194330.475 7  99112457.07844
G22  21049147.977    21049149.238 6 110614008.015 8  86192740.67146
G24  21795210.344    21795215.414 5 114534652.607 8  89247786.16645
G28  23026850.367    23026852.098 4 121006862.789 7  94291111.93744
G32  24089044.273    24089047.117 4 126588761.181 7  98640615.29044
> 2015 07 19 01 07 00.0000000  0 10
G01  22649949.297    22649955.012 5 119026293.644 7  92747788.99945
G04  21920423.164    21920426.477 6 115192554.194 8  89760476.12646
G11  22801191.789    22801193.695 5 119821002.955 7  93367064.85545
G14  21583407.719    21583410.270 5 113421605.949 7  88380460.96845
G18  23226668.453    23226671.473 3 122056964.978 7  95109314.45643
G19  24213665.141    24213666.227 4 127243667.250 7  99150901.33144
G22  21053843.859    21053844.242 6 110638684.110 8  86211968.80646
G24  21794814.000    21794819.188 5 114532571.627 8  89246164.63445
G28  23034979.594    23034981.031 4 121049580.834 7  94324398.72544
G32  24078728.914    24078732.754 4 126534556.537 7  98598377.88444
> 2015 07 19 01 07 15.0000000  0 10
G01  22643042.547    22643048.965 5 118989998.075 7  92719506.66345
G04  21918524.719    21918527.621 6 115182577.943 8  89752702.54346
G11  22799598.984    22799600.832 5 119812631.506 8  93360541.64345
G14  21576206.047    21576208.598 5 113383760.006 8  88350970.69945
G18  23237527.813    23237529.836 4 122114025.982 7  95153777.55744
G19  24223067.063    24223068.734 4 127293077.134 7  99189402.51344
G22  21058566.172    21058566.496 6 110663500.147 8  86231305.96646
G24  21794448.492    21794453.094 6 114530647.693 8  89244665.47346
G28  23043133.836    23043135.508 4 121092433.271 7  94357790.22844
G32  24068422.820    24068426.602 4 126480396.713 7  98556175.40544
> 2015 07 19 01 07 30.0000000  0 10
G01  22636158.039    22636163.988 5 118953818.909 7  92691314.99645
G04  21916653.195    21916656.449 6 115172742.639 8  89745038.65746
G11  22798029.758    22798032.309 5 119804388.906 8  93354118.79045
G14  21569028.031    21569030.758 5 113346040.349 7  88321578.72845
G18  23248397.195    23248399.395 4 122171146.612 7  95198287.13644
G19  24232482.813    24232484.367 4 127342559.800 7  99227960.43144
G22  21063314.906    21063316.520 6 110688455.814 8  86250751.94846
G24  21794111.727    21794117.324 6 114528880.709 8  89243288.58146
G28  23051313.672    23051315.402 3 121135419.558 7  94391286.11343
G32  24058125.141    24058128.453 4 126426281.850 7  98514008.00844
> 2015 07 19 01 07 45.0000000  0 10
G01  22629295.477    22629301.367 5 118917757.023 7  92663214.79145
G04  21914808.430    21914811.566 6 115163049.135 8  89737485.33946
G11  22796486.211    22796488.000 5 119796275.882 8  93347796.97145
G14  21561874.383    21561876.875 5 113308448.130 7  88292286.10045
G18  23259278.281    23259280.832 3 122228326.975 7  95242843.24343
G19  24241913.250    24241914.980 4 127392115.182 7  99266575.02444
G22  21068090.789    21068091.934 6 110713551.490 8  86270307.04046
G24  21793805.891    21793810.727 6 114527271.132 8  89242034.36646
G28  23059519.578    23059520.781 4 121178539.617 7  94424886.12044
G32  24047836.195    24047839.156 5 126372212.574 7  98471876.10745
> 2015 07 19 01 08 00.0000000  0 10
G01  22622455.711    22622461.309 5 118881812.294 7  92635205.79945
G04  21912990.711    21912994.199 6 115153497.344 8  89730042.44046
G11  22794966.945    22794968.676 5 119788292.168 7  93341575.91545
G14  21554745.445    21554747.820 5 113270983.109 7  88263092.56145
G18  23270170.453    23270172.828 3 122285566.381 7  95287445.36643
G19  24251356.617    24251358.465 4 127441742.803 7  99305245.92044
G22  21072892.758    21072893.609 6 110738786.492 8  86289970.63146
G24  21793529.180    21793535.012 6 114525818.944 8  89240902.78646
G28  23067749.875    23067752.133 4 121221793.141 7  94458590.22144
G32  24037555.656    24037558.969 4 126318188.925 7  98429779.71544
> 2015 07 19 01 08 15.0000000  0 10
G01  22615637.867    22615644.637 5 118845985.181 7  92607288.51245
G04  21911200.047    21911203.242 6 115144087.199 8  89722709.92446
G11  22793472.484    22793474.566 5 119780437.622 7  93335455.48145
G14  21547639.906    21547642.809 5 113233645.668 8  88233998.48245
G18  23281073.648    23281076.199 3 122342864.630 7  95332093.33643
G19  24260814.227    24260815.957 4 127491442.198 7  99343972.71944
G22  21077721.203    21077721.762 6 110764160.725 8  86309742.77846
G24  21793282.820    21793288.242 6 114524523.621 8  89239893.42546
G28  23076006.469    23076007.965 4 121265179.471 7  94492397.77544
G32  24027284.750    24027287.301 4 126264211.217 7  98387719.14144
> 2015 07 19 01 08 30.0000000  0 10
G01  22608842.813    22608848.703 5 118810275.631 7  92579462.79945
G04  21909436.523    21909439.953 6 115134818.564 8  89715487.56246
G11  22792002.227    22792004.309 5 119772712.471 8  93329435.97445
G14  21540559.297    21540561.789 5 113196435.549 7  88205003.48745
G18  23291988.461    23291990.543 3 122400221.260 7  95376786.78943
G19  24270285.430    24270287.219 4 127541212.881 7  99382755.08844
G22  21082576.148    21082577.117 6 110789673.820 8  86329623.08446
G24  21793066.188    21793071.551 6 114523385.579 8  89239006.62446
G28  23084288.008    23084289.621 3 121308698.188 7  94526308.49643
G32  24017021.086    24017024.867 4 126210279.637 7  98345694.54244
> 2015 07 19 01 08 45.0000000  0 10
G01  22602070.063    22602076.129 5 118774684.176 7  92551729.18345
G04  21907699.672    21907702.867 6 115125691.705 8  89708375.64546
G11  22790556.930    22790559.363 5 119765116.495 8  93323517.02045
G14  21533503.109    21533506.012 5 113159353.525 7  88176108.31245
G18  23302914.375    23302916.691 3 122457636.049 7  95421525.56143
G19  24279770.070    24279771.332 4 127591054.569 6  99421592.76844
G22  21087457.469    21087458.672 6 110815325.436 8  86349611.22546
G24  21792879.234    21792884.891 6 114522404.749 8  89238242.34746
G28  23092593.977    23092595.941 4 121352348.821 7  94560321.98444
G32  24006767.070    24006770.383 5 126156394.439 7  98303706.06545
> 2015 07 19 01 09 00.0000000  0 10
G01  22595319.672    22595325.973 5 118739211.316 7  92524087.98145
G04  21905989.961    21905993.859 6 115116707.117 8  89701374.67046
G11  22789135.656    22789138.148 5 119757650.401 8  93317699.31245
G14  21526470.516    21526473.418 5 113122399.988 7  88147313.26745
G18  23313851.828    23313853.969 3 122515108.894 7  95466309.57443
G19  24289268.297    24289268.680 4 127640967.278 7  99460485.83344
G22  21092365.320    21092366.523 6 110841115.954 8  86369707.66446
G24  21792722.898    21792728.320 6 114521581.098 8  89237600.55846
G28  23100925.672    23100927.285 3 121396131.227 7  94594438.15943
G32  23996522.492    23996525.512 4 126102556.097 7  98261754.09644
> 2015 07 19 01 09 15.0000000  0 10
G01  22588591.867    22588598.109 5 118703857.158 7  92496539.29445
G04  21904307.453    21904310.473 6 115107864.544 8  89694484.35646
G11  22787739.672    22787742.164 5 119750313.750 7  93311982.44245
G14  21519463.227    21519466.480 5 113085575.274 7  88118618.63345
G18  23324798.539    23324801.148 3 122572639.309 7  95511138.45743
G19  24298779.609    24298779.758 4 127690950.162 7  99499433.49844
G22  21097299.789    21097300.758 6 110867044.912 8  86389912.00846
G24  21792596.430    21792601.676 6 114520914.829 7  89237081.38546
G28  23109282.141    23109283.754 4 121440044.881 7  94628656.57844
G32  23986285.992    23986289.773 4 126048764.761 7  98219838.71844
> 2015 07 19 01 09 30.0000000  0 10
G01  22581887.297    22581893.246 5 118668621.981 7  92469083.40245
G04  21902651.656    21902655.145 6 115099163.901 8  89687704.52346
G11  22786368.281    22786371.125 5 119743106.522 7  93306366.38345
G14  21512480.250    21512483.270 5 113048879.636 7  88090024.60945
G18  23335757.945    23335759.559 3 122630226.838 7  95556011.84143
G19  24308304.555    24308305.113 4 127741003.136 7  99538435.81744
G22  21102259.703    21102261.023 6 110893112.230 8  86410224.21046
G24  21792499.586    21792504.773 6 114520405.799 8  89236684.72146
G28  23117663.461    23117664.723 4 121484089.418 7  94662976.99244
G32  23976058.945    23976062.141 4 125995020.795 7  98177960.29144
> 2015 07 19 01 09 45.0000000  0 10
G01  22575204.320    22575211.148 5 118633505.827 7  92441720.11645
G04  21901023.570    21901026.883 6 115090605.342 8  89681035.35846
G11  22785021.117    22785023.668 5 119736029.108 7  93300851.55245
G14  21505522.313    21505524.395 5 113012312.976 7  88061531.02145
G18  23346727.891    23346728.859 3 122687871.199 7  95600929.51943
G19  24317842.336    24317842.719 4 127791125.772 7  99577492.40344
G22  21107246.188    21107247.625 6 110919317.452 8  86430643.83946
G24  21792432.461    21792437.824 5 114520053.849 7  89236410.48545
G28  23126069.289    23126071.078 3 121528264.336 7  94697399.01543
G32  23965840.445    23965844.227 4 125941324.339 7  98136118.88144
> 2015 07 19 01 10 00.0000000  0 10
G01  22568544.859    22568551.395 5 118598509.474 7  92414450.25645
G04  21899421.898    21899425.270 6 115082189.724 8  89674477.73146
G11  22783699.641    22783701.723 5 119729081.592 7  93295437.94945
G14  21498588.539    21498591.324 5 112975876.182 8  88033138.75745
G18  23357707.219    23357709.359 3 122745572.387 7  95645891.45243
G19  24327394.219    24327394.191 4 127841317.843 7  99616603.07344
G22  21112259.852    21112260.410 6 110945660.749 8  86451171.02446
G24  21792395.383    21792400.863 5 114519859.503 7  89236259.05645
G28  23134500.375    23134502.867 3 121572569.420 7  94731922.43843
G32  23955631.734    23955635.223 4 125887676.011 7  98094314.97244
> 2015 07 19 01 10 15.0000000  0 10
G01  22561907.977    22561914.453 5 118563633.149 7  92387273.97345
G04  21897847.477    21897851.141 6 115073916.670 8  89668031.21346
G11  22782401.938    22782404.020 5 119722263.705 7  93290125.32545
G14  21491679.297    21491682.492 5 112939569.254 7  88004847.67145
G18  23368698.180    23368700.086 3 122803329.977 7  95690897.35443
G19  24336957.875    24336958.902 4 127891578.851 7  99655767.47944
G22  21117298.773    21117300.152 6 110972141.834 8  86471805.68046
G24  21792388.398    21792393.938 5 114519822.367 8  89236230.15345
G28  23142956.117    23142958.609 3 121617004.153 7  94766546.86943
G32  23945432.023    23945435.453 4 125834075.889 7  98052548.62444
> 2015 07 19 01 10 30.0000000  0 10
G01  22555294.453    22555300.285 5 118528876.441 7  92360190.80445
G04  21896300.484    21896303.563 6 115065785.669 8  89661695.30646
G11  22781129.680    22781131.586 5 119715575.749 7  93284913.93245
G14  21484795.055    21484797.898 5 112903392.097 7  87976657.70445
G18  23379699.852    23379701.582 3 122861143.427 6  95735946.77543
G19  24346535.586    24346535.969 4 127941908.269 7  99694985.18844
G22  21122364.305    21122365.332 6 110998760.063 8  86492547.18946
G24  21792411.086    21792415.863 6 114519942.210 8  89236323.56646
G28  23151436.578    23151438.074 3 121661567.864 7  94801271.85143
G32  23935241.203    23935245.043 4 125780523.982 7  98010819.85344
> 2015 07 19 01 10 45.0000000  0 10
G01  22548703.406    22548709.590 5 118494240.237 7  92333201.55145
G04  21894780.125    21894783.789 6 115057797.338 8  89655470.55546
G11  22779881.414    22779883.496 5 119709018.139 7  93279804.16545
G14  21477935.734    21477938.461 5 112867345.421 7  87948569.43145
G18  23390711.203    23390714.164 3 122919012.478 6  95781039.54043
G19  24356125.641    24356126.785 4 127992306.066 7  99734256.19744
G22  21127455.672    21127456.992 6 111025515.672 8  86513395.73546
G24  21792463.266    21792469.449 6 114520219.425 8  89236539.57246
G28  23159941.531    23159942.969 3 121706260.599 7  94836097.32843
G32  23925059.727    23925063.918 4 125727020.961 7  97969129.20944
> 2015 07 19 01 11 00.0000000  0 10
G01  22542135.055    22542140.945 5 118459724.556 7  92306306.14845
G04  21893287.313    21893290.684 6 115049951.761 8  89649357.05946
G11  22778658.422    22778660.328 5 119702590.539 7  93274795.66045
G14  21471100.938    21471103.664 5 112831429.166 7  87920582.71845
G18  23401735.594    23401737.148 3 122976936.897 7  95826175.42543
G19  24365728.445    24365730.410 4 128042771.699 7  99773579.96144
G22  21132572.914    21132573.766 6 111052408.282 8  86534351.09946
G24  21792546.188    21792551.727 6 114520653.824 8  89236878.08746
G28  23168470.539    23168472.621 3 121751081.764 7  94871022.91043
G32  23914887.734    23914891.398 4 125673566.897 7  97927476.67344
> 2015 07 19 01 11 15.0000000  0 10
G01  22535590.125    22535596.016 5 118425329.750 7  92279504.97245
G04  21891821.297    21891824.902 6 115042248.768 8  89643354.65346
G11  22777460.078    22777461.750 5 119696292.769 7  93269888.30845
G14  21464291.555    21464294.164 5 112795643.509 7  87892697.74145
G18  23412767.352    23412769.375 3 123034916.187 7  95871354.06143
G19  24375345.039    24375346.711 4 128093304.870 7  99812956.42044
G22  21137716.727    21137717.285 6 111079437.442 8  86555412.78246
G24  21792658.992    21792664.355 6 114521245.411 8  89237339.08346
G28  23177024.281    23177025.777 3 121796030.683 7  94906048.00743
G32  23904725.641    23904729.656 4 125620161.921 7  97885862.39444
> 2015 07 19 01 11 30.0000000  0 10
G01  22529067.844    22529073.910 5 118391056.299 7  92252798.42045
G04  21890382.680    21890386.988 6 115034689.016 8  89637463.95646
G11  22776285.977    22776287.824 5 119690125.384 8  93265082.66845
G14  21457506.727    21457509.395 6 112759989.304 8  87864915.31346
G18  23423810.461    23423813.129 3 123092950.249 7  95916575.38443
G19  24384973.813    24384975.602 4 128143905.351 7  99852385.29444
G22  21142886.023    21142887.520 6 111106603.256 8  86576580.94046
G24  21792801.688    21792806.465 6 114521994.119 8  89237922.47546
G28  23185601.945    23185602.914 3 121841107.516 7  94941172.86643
G32  23894572.469    23894576.191 4 125566806.669 7  97844286.90744
> 2015 07 19 01 11 45.0000000  0 10
G01  22522569.234    22522575.184 5 118356904.072 7  92226186.28345
G04  21888971.266    21888975.281 6 115027271.689 8  89631684.12746
G11  22775137.430    22775139.512 5 119684087.898 7  93260378.23845
G14  21450746.719    21450750.031 5 112724466.224 8  87837234.98445
G18  23434864.805    23434867.180 3 123151038.506 7  95961838.92843
G19  24394616.570    24394617.012 3 128194572.448 7  99891866.11543
G22  21148081.516    21148082.367 6 111133905.251 8  86597855.18446
G24  21792973.758    21792978.770 6 114522899.801 8  89238628.17146
G28  23194204.383    23194205.410 4 121886311.254 7  94976396.56944
G32  23884428.648    23884432.137 4 125513501.024 7  97802750.08744
> 2015 07 19 01 12 00.0000000  0 10
G01  22516093.422    22516099.664 5 118322874.093 7  92199669.46645
G04  21887586.883    21887590.488 6 115019998.008 8  89626016.34346
G11  22774012.953    22774014.977 5 119678181.029 7  93255775.60745
G14  21444011.695    21444014.422 5 112689074.882 7  87809657.26845
G18  23445929.359    23445931.266 3 123209180.987 7  96007144.72943
G19  24404269.828    24404272.086 4 128245306.327 7  99931399.01444
G22  21153302.516    21153303.660 6 111161343.961 8  86619236.01746
G24  21793176.000    21793181.363 6 114523963.026 8  89239456.62746
G28  23202829.945    23202831.324 3 121931641.941 7  95011719.12643
G32  23874294.281    23874298.238 4 125460245.810 7  97761252.51744
> 2015 07 19 01 12 15.0000000  0 10
G01  22509640.727    22509646.910 5 118288966.096 7  92173247.70445
G04  21886229.922    21886233.762 6 115012867.317 8  89620460.02546
G11  22772913.500    22772915.992 5 119672404.453 7  93251274.46045
G14  21437302.516    21437304.891 5 112653815.489 7  87782182.42145
G18  23457002.609    23457005.629 3 123267377.160 7  96052492.34943
G19  24413937.188    24413939.387 3 128296106.260 7  99970983.36343
G22  21158550.180    21158551.090 6 111188918.593 8  86640722.77646
G24  21793408.609    21793413.797 6 114525183.537 8  89240407.63646
G28  23211481.063    23211482.852 3 121977099.079 7  95047140.29143
G32  23864169.164    23864173.355 4 125407040.863 7  97719794.10544
> 2015 07 19 01 12 30.0000000  0 10
G01  22503211.359    22503217.895 5 118255180.432 7  92146921.33245
G04  21884900.461    21884904.477 6 115005879.597 8  89615015.03646
G11  22771839.555    22771841.168 5 119666758.171 7  93246874.79345
G14  21430618.234    21430620.492 5 112618688.302 7  87754810.62545
G18  23468088.750    23468089.836 3 123325626.629 7  96097881.51743
G19  24423616.734    24423618.582 4 128346971.907 7 100010618.90344
G22  21163823.141    21163823.582 6 111216628.990 8  86662315.34246
G24  21793670.969    21793675.922 6 114526561.007 8  89241480.97246
G28  23220154.625    23220156.473 3 122022682.074 7  95082659.53343
G32  23854054.422    23854058.438 4 125353886.465 7  97678375.06344
> 2015 07 19 01 12 45.0000000  0 10
G01  22496805.969    22496811.742 5 118221517.162 7  92120690.23845
G04  21883598.211    21883601.465 6 114999035.016 8  89609681.57446
G11  22770789.703    22770792.078 5 119661241.693 7  93242576.07245
G14  21423958.648    21423961.785 5 112583693.636 8  87727542.19145
G18  23479182.922    23479183.949 3 123383929.095 7  96143311.97743
G19  24433308.695    24433310.191 4 128397902.930 7 100050305.41144
G22  21169122.375    21169122.934 6 111244474.830 8  86684013.45146
G24  21793962.742    21793967.871 6 114528095.701 8  89242676.80046
G28  23228852.266    23228854.582 3 122068390.479 7  95118276.42243
G32  23843948.977    23843953.285 4 125300782.995 7  97636995.74744
> 2015 07 19 01 13 00.0000000  0 10
G01  22490423.398    22490429.465 5 118187976.659 7  92094554.74945
G04  21882322.648    21882326.195 6 114992333.827 8  89604459.74246
G11  22769764.930    22769766.895 5 119655855.989 8  93238379.34545
G14  21417324.031    21417326.758 5 112548831.917 8  87700377.41545
G18  23490288.141    23490289.695 3 123442284.347 7  96188783.57743
G19  24443012.844    24443014.867 3 128448899.099 7 100090042.67243
G22  21174446.719    21174447.746 6 111272455.940 8  86705816.96346
G24  21794284.984    21794290.113 6 114529787.498 8  89243995.03346
G28  23237574.688    23237576.535 3 122114224.045 7  95153990.86743
G32  23833854.492    23833858.332 4 125247730.718 7  97595656.25644
> 2015 07 19 01 13 15.0000000  0 10
G01  22484064.266    22484070.156 5 118154559.254 7  92068515.18545
G04  21881075.086    21881078.281 6 114985776.090 8  89599349.83246
G11  22768764.617    22768766.406 5 119650600.520 8  93234284.15845
G14  21410715.281    21410717.773 5 112514102.607 7  87673315.57445
G18  23501402.227    23501403.957 3 123500692.022 7  96234296.00843
G19  24452729.711    24452731.207 3 128499959.899 7 100129830.32543
G22  21179797.172    21179798.375 6 111300571.919 8  86727725.48846
G24  21794636.695    21794642.000 6 114531636.329 8  89245435.65646
G28  23246320.313    23246321.984 3 122160182.068 7  95189802.26243
G32  23823768.336    23823772.059 5 125194729.852 7  97554356.82045
> 2015 07 19 01 13 30.0000000  0 10
G01  22477728.172    22477734.355 5 118121265.204 7  92042571.83445
G04  21879853.938    21879858.070 6 114979361.164 8  89594351.00946
G11  22767789.313    22767791.922 5 119645475.625 7  93230290.70745
G14  21404131.852    21404135.457 5 112479506.447 7  87646357.57245
G18  23512526.719    23512528.742 3 123559151.684 7  96279848.95143
G19  24462458.484    24462459.980 4 128551084.884 7 100169668.00044
G22  21185173.133    21185173.574 6 111328822.663 8  86749739.05246
G24  21795018.539    21795023.199 6 114533642.008 8  89246998.55046
G28  23255088.984    23255091.008 3 122206264.295 7  95225710.51943
G32  23813692.320    23813696.336 4 125141780.624 7  97513097.66944
> 2015 07 19 01 13 45.0000000  0 10
G01  22471416.273    22471422.223 5 118088094.822 7  92016724.78845
G04  21878661.313    21878664.391 6 114973090.203 8  89589464.53446
G11  22766839.320    22766841.344 5 119640481.425 7  93226399.06945
G14  21397573.734    21397576.520 5 112445043.694 8  87619503.43145
G18  23523661.047    23523663.129 3 123617663.125 7  96325442.24043
G19  24472199.766    24472200.793 3 128602273.888 7 100209555.57443
G22  21190574.406    21190575.375 6 111357208.133 8  86771857.59446
G24  21795430.305    21795435.492 6 114535804.952 8  89248683.93746
G28  23263881.664    23263883.512 3 122252470.468 7  95261715.30543
G32  23803626.734    23803630.633 4 125088883.523 7  97471879.12244
> 2015 07 19 01 14 00.0000000  0 10
G01  22465127.305    22465133.840 5 118055048.232 7  91990974.07545
G04  21877495.258    21877498.922 6 114966962.886 8  89584690.01246
G11  22765914.055    22765915.844 5 119635617.984 7  93222609.37145
G14  21391041.273    21391044.000 5 112410715.123 8  87592754.01745
G18  23534804.258    23534806.926 3 123676226.204 7  96371075.77943
G19  24481952.219    24481953.305 4 128653526.530 7 100249492.71344
G22  21196001.617    21196002.000 6 111385728.142 8  86794081.02446
G24  21795871.758    21795876.594 6 114538124.996 8  89250491.75446
G28  23272697.898    23272699.922 3 122298800.093 7  95297816.24843
G32  23793570.250    23793574.383 4 125036038.739 7  97430701.33844
> 2015 07 19 01 14 15.0000000  0 10
G01  22458862.695    22458869.523 5 118022126.114 7  91965320.54545
G04  21876356.477    21876360.492 6 114960979.096 8  89580027.22846
G11  22765012.883    22765014.906 5 119630885.296 8  93218921.59945
G14  21384534.469    21384537.020 5 112376520.445 8  87566108.89845
G18  23545959.188    23545961.094 3 123734840.402 7  96416749.13843
G19  24491718.336    24491718.426 4 128704842.297 7 100289479.02844
G22  21201454.609    21201454.641 6 111414382.214 8  86816408.88646
G24  21796342.781    21796347.910 6 114540602.095 8  89252421.95546
G28  23281537.922    23281539.652 3 122345252.531 6  95334012.82843
G32  23783524.328    23783528.109 4 124983246.611 7  97389564.60344
> 2015 07 19 01 14 30.0000000  0 10
G01  22452621.602    22452627.434 5 117989328.475 7  91939763.94945
G04  21875244.766    21875248.547 6 114955139.271 8  89575476.76446
G11  22764137.461    22764139.309 5 119626283.481 7  93215335.84245
G14  21378052.484    21378055.035 5 112342460.000 8  87539568.32045
G18  23557123.203    23557125.109 3 123793505.518 7  96462462.20943
G19  24501495.078    24501495.988 3 128756221.013 7 100329514.39343
G22  21206932.805    21206932.836 6 111443170.581 8  86838841.45346
G24  21796843.672    21796849.328 6 114543236.176 8  89254474.48446
G28  23290400.891    23290402.504 3 122391827.720 7  95370305.12043
G32  23773488.734    23773492.398 4 124930507.405 7  97348469.07644
> 2015 07 19 01 14 45.0000000  0 10
G01  22446404.133    22446410.199 5 117956655.622 7  91914304.65945
G04  21874161.484    21874164.504 6 114949443.137 8  89571038.19946
G11  22763286.352    22763288.375 5 119621812.350 8  93211851.92445
G14  21371597.391    21371598.828 5 112308534.196 8  87513132.77245
G18  23568296.539    23568298.094 3 123852221.086 7  96508214.55643
G19  24511282.922    24511284.711 3 128807662.150 7 100369598.37743
G22  21212436.789    21212436.820 6 111472092.477 8  86861378.01246
G24  21797375.578    21797380.648 6 114546026.987 8  89256649.11046
G28  23299287.039    23299289.590 3 122438525.164 6  95406692.68243
G32  23763462.633    23763466.297 4 124877821.382 7  97307415.07344
> 2015 07 19 01 15 00.0000000  0 10
G01  22440210.203    22440215.977 5 117924107.647 7  91888942.63345
G04  21873104.852    21873108.516 6 114943890.890 8  89566711.85446
G11  22762460.453    22762462.301 5 119617471.623 8  93208469.43645
G14  21365166.664    21365169.449 6 112274742.937 8  87486801.98046
G18  23579479.273    23579480.887 3 123910986.875 6  96554006.03743
G19  24521084.469    24521085.203 3 128859165.394 7 100409730.77043
G22  21217965.609    21217965.875 6 111501147.844 8  86884018.57546
G24  21797935.820    21797941.477 5 114548974.791 8  89258946.10645
G28  23308196.484    23308198.449 3 122485344.382 6  95443175.22943
G32  23753447.164    23753450.477 4 124825188.582 7  97266402.53144
> 2015 07 19 01 15 15.0000000  0 10
G01  22434040.492    22434046.676 5 117891685.001 7  91863678.24245
G04  21872075.633    21872079.297 6 114938482.454 8  89562497.55746
G11  22761659.055    22761661.195 5 119613262.008 8  93205189.26045
G14  21358762.063    21358764.555 5 112241086.790 8  87460576.41645
G18  23590670.938    23590672.316 3 123969802.526 7  96599836.38643
G19  24530896.930    24530897.547 3 128910730.453 7 100449911.31243
G22  21223520.461    21223520.727 6 111530336.605 8  86906763.08546
G24  21798526.586    21798531.949 6 114552079.488 8  89261365.38546
G28  23317128.672    23317130.520 3 122532284.818 6  95479752.15543
G32  23743441.914    23743445.520 4 124772609.669 7  97225431.98144
> 2015 07 19 01 15 30.0000000  0 10
G01  22427894.531    22427901.008 5 117859387.663 7  91838511.45445
G04  21871073.297    21871077.371 6 114933217.680 8  89558395.10446
G11  22760882.992    22760885.367 5 119609183.056 8  93202010.85945
G14  21352383.352    21352385.785 5 112207565.412 8  87434455.81245
G18  23601872.711    23601874.793 3 124028667.542 6  96645705.23143
G19  24540720.664    24540721.281 3 128962356.872 7 100490139.66843
G22  21229099.914    21229099.945 6 111559658.276 8  86929611.14646
G24  21799147.555    21799152.684 5 114555340.790 7  89263906.64845
G28  23326084.242    23326086.500 3 122579346.136 7  95516423.33843
G32  23733446.648    23733450.020 4 124720084.497 7  97184503.27544
> 2015 07 19 01 15 45.0000000  0 10
G01  22421773.008    22421778.840 5 117827216.440 7  91813443.01345
G04  21870098.961    21870102.332 6 114928097.534 8  89554405.52746
G11  22760131.617    22760133.465 5 119605235.235 8  93198934.68745
G14  21346029.984    21346033.238 5 112174179.806 8  87408441.06945
G18  23613084.305    23613086.914 3 124087581.900 7  96691612.45643
G19  24550556.031    24550556.883 3 129014044.483 7 100530415.72343
G22  21234704.375    21234704.934 6 111589112.946 8  86952562.81046
G24  21799797.922    21799803.227 6 114558759.095 8  89266570.33346
G28  23335062.477    23335065.262 3 122626528.180 6  95553188.57843
G32  23723461.797    23723465.285 4 124667613.876 7  97143617.10844
> 2015 07 19 01 16 00.0000000  0 10
G01  22415675.148    22415680.746 5 117795171.114 7  91788472.60445
G04  21869151.938    21869155.777 6 114923120.972 8  89550527.61146
G11  22759405.953    22759407.684 5 119601418.237 8  93195960.41645
G14  21339702.656    21339705.559 5 112140929.935 7  87382532.10645
G18  23624305.078    23624306.457 3 124146545.159 7  96737557.84743
G19  24560403.500    24560405.055 3 129065792.728 6 100570739.01543
G22  21240334.891    21240335.332 6 111618700.329 8  86975617.96046
G24  21800477.781    21800483.262 5 114562334.074 8  89269356.07345
G28  23344063.938    23344065.727 3 122673830.110 6  95590047.21943
G32  23713486.891    23713490.906 4 124615197.825 7  97102773.52344
> 2015 07 19 01 16 15.0000000  0 10
G01  22409600.516    22409606.641 5 117763252.107 7  91763600.62045
G04  21868232.461    21868236.066 6 114918288.528 8  89546761.99146
G11  22758703.742    22758706.176 5 119597732.155 8  93193088.13045
G14  21333400.570    21333404.176 5 112107816.136 7  87356729.22545
G18  23635534.234    23635535.906 3 124205556.989 6  96783541.07643
G19  24570262.461    24570263.664 3 129117601.272 6 100611109.27443
G22  21245990.563    21245990.652 6 111648420.074 8  86998776.22846
G24  21801188.211    21801193.574 6 114566065.760 8  89272263.84346
G28  23353088.227    23353089.605 3 122721251.695 6  95626999.15943
G32  23703523.023    23703526.395 4 124562836.469 7  97061972.49844
> 2015 07 19 01 16 30.0000000  0 10
G01  22403550.961    22403556.793 5 117731459.820 7  91738827.41345
G04  21867340.234    21867343.723 6 114913600.433 8  89543108.95846
G11  22758027.688    22758029.828 5 119594177.052 8  93190317.87045
G14  21327126.070    21327128.387 5 112074838.603 7  87331032.46645
G18  23646772.023    23646775.160 3 124264617.130 6  96829561.92543
G19  24580132.102    24580134.008 3 129169469.878 6 100651526.36143
G22  21251670.797    21251671.414 6 111678271.910 8  87022037.40346
G24  21801928.297    21801933.543 6 114569954.346 8  89275293.97946
G28  23362135.188    23362136.273 3 122768792.529 6  95664044.01343
G32  23693569.508    23693573.582 4 124510530.166 7  97021214.36344
> 2015 07 19 01 16 45.0000000  0 10
G01  22397525.344    22397531.645 5 117699794.548 7  91714153.21745
G04  21866475.438    21866479.043 6 114909056.586 8  89539568.28546
G11  22757375.836    22757378.563 5 119590753.064 8  93187649.73745
G14  21320876.398    21320879.125 6 112041997.622 7  87305442.14346
G18  23658021.320    23658023.285 3 124323725.290 6  96875620.20343
G19  24590014.453    24590016.008 3 129221398.242 6 100691990.00743
G22  21257376.922    21257377.363 6 111708255.748 8  87045401.45446
G24  21802698.383    21802703.453 6 114573999.578 8  89278446.09246
G28  23371203.430    23371205.746 3 122816452.126 6  95701181.35543
G32  23683627.336    23683630.238 4 124458279.187 7  96980499.25544
> 2015 07 19 01 17 00.0000000  0 10
G01  22391523.492    22391529.090 5 117668256.221 7  91689577.94145
G04  21865638.813    21865642.711 6 114904656.821 8  89536139.85246
G11  22756749.672    22756752.223 5 119587459.979 7  93185083.61245
G14  21314652.961    21314655.395 5 112009293.064 7  87279958.05545
G18  23669277.359    23669279.617 3 124382881.032 6  96921715.54543
G19  24599907.109    24599909.250 3 129273385.668 7 100732499.69943
G22  21263107.305    21263108.098 6 111738371.155 8  87068868.02046
G24  21803497.594    21803502.664 5 114578201.273 8  89281720.13845
G28  23380296.063    23380297.559 3 122864229.973 6  95738410.86843
G32  23673694.328    23673697.406 4 124406083.892 7  96939827.68444
> 2015 07 19 01 17 15.0000000  0 10
G01  22385546.102    22385552.344 5 117636845.366 7  91665101.97045
G04  21864829.023    21864832.160 6 114900401.352 8  89532823.75946
G11  22756147.625    22756150.000 5 119584298.275 7  93182619.94245
G14  21308455.828    21308458.672 6 111976725.738 7  87254580.85246
G18  23680543.563    23680546.289 3 124442084.098 6  96967847.78843
G19  24609811.547    24609813.277 3 129325432.091 6 100773055.33543
G22  21268863.430    21268863.813 6 111768618.206 8  87092437.17446
G24  21804326.688    21804331.758 6 114582559.639 8  89285116.29346
G28  23389409.984    23389412.184 3 122912125.756 6  95775732.25543
G32  23663772.109    23663775.363 4 124353944.617 7  96899199.67144
> 2015 07 19 01 17 30.0000000  0 10
G01  22379593.141    22379599.266 5 117605562.152 7  91640725.42745
G04  21864046.891    21864049.969 6 114896290.407 8  89529620.36746
G11  22755571.055    22755573.898 5 119581267.588 7  93180258.27645
G14  21302284.258    21302286.809 5 111944295.925 7  87229310.92045
G18  23691818.469    23691821.020 3 124501334.134 6  97014016.59743
G19  24619727.016    24619728.512 3 129377537.200 6 100813656.72843
G22  21274644.031    21274644.531 6 111798996.536 8  87116108.65246
G24  21805185.289    21805191.121 5 114587074.348 8  89288634.27045
G28  23398546.250    23398548.391 3 122960139.260 6  95813145.42343
G32  23653861.156    23653864.293 4 124301861.836 7  96858615.83344
> 2015 07 19 01 17 45.0000000  0 10
G01  22373664.273    22373670.750 5 117574406.924 7  91616448.64045
G04  21863292.078    21863295.449 6 114892324.067 8  89526529.67046
G11  22755019.414    22755021.320 5 119578367.989 8  93177998.75145
G14  21296139.578    21296142.246 5 111912003.596 7  87204148.13245
G18  23703102.922    23703104.887 3 124560630.886 6  97060221.84643
G19  24629653.781    24629655.395 3 129429700.492 7 100854303.43043
G22  21280449.750    21280450.250 6 111829505.761 8  87139882.02846
G24  21806075.094    21806080.047 6 114591745.632 8  89292274.25946
G28  23407705.625    23407707.238 3 123008269.848 6  95850649.77543
G32  23643960.914    23643964.227 4 124249835.366 7  96818075.77244
> 2015 07 19 01 18 00.0000000  0 10
G01  22367760.078    22367766.613 5 117543379.792 7  91592271.59045
G04  21862564.781    21862568.094 6 114888502.360 8  89523551.75546
G11  22754492.633    22754495.184 5 119575599.591 7  93175841.46045
G14  21290020.641    21290023.191 5 111879848.933 7  87179092.53145
G18  23714394.414    23714397.902 3 124619974.157 6  97106463.36143
G19  24639590.477    24639592.617 3 129481921.631 6 100894995.23343
G22  21286280.328    21286281.004 6 111860145.970 8  87163757.49446
G24  21806993.688    21806998.523 5 114596573.486 8  89296036.22545
G28  23416886.570    23416888.652 3 123056517.109 6  95888245.02543
G32  23634071.102    23634074.414 4 124197865.717 7  96777579.93744
> 2015 07 19 01 18 15.0000000  0 11
G01  22361880.641    22361886.238 5 117512481.321 7  91568194.87345
G04  21861865.125    21861868.672 6 114884825.261 8  89520686.47946
G11  22753991.305    22753993.211 5 119572962.752 8  93173786.69745
G14  21283927.766    21283931.313 6 111847832.306 7  87154144.45746
G17  23741885.016                   124764430.97615
G18  23725695.461    23725699.125 3 124679363.561 6  97152740.76143
G19  24649539.352    24649540.906 3 129534200.374 7 100935731.93043
G22  21292135.664    21292136.340 6 111890916.899 8  87187734.86246
G24  21807942.211    21807947.223 6 114601557.824 8  89299920.14146
G28  23426089.953    23426092.211 3 123104880.645 6  95925930.85643
G32  23624192.711    23624195.613 4 124145953.381 7  96737128.86044
> 2015 07 19 01 18 30.0000000  0 11
G01  22356024.977    22356031.043 5 117481711.384 7  91544218.24545
G04  21861192.844    21861196.215 6 114881293.210 8  89517934.43346
G11  22753514.453    22753516.770 5 119570457.392 8  93171834.50745
G14  21277861.789    21277864.574 6 111815953.635 8  87129303.84146
G17  23733485.086                   124720292.44015
G18  23737006.133    23737009.094 3 124738798.754 6  97199053.86643
G19  24659498.547    24659499.750 3 129586536.278 6 100976513.13843
G22  21298016.070    21298017.098 6 111921817.803 8  87211813.39946
G24  21808919.867    21808925.465 6 114606698.310 8  89303925.71646
G28  23435315.438    23435317.402 3 123153360.067 6  95963707.06543
G32  23614325.195    23614328.566 4 124094098.206 7  96696722.23244
> 2015 07 19 01 18 45.0000000  0 11
G01  22350194.672    22350200.563 5 117451070.542 7  91520342.20345
G04  21860548.539    21860551.617 6 114877905.703 8  89515294.93546
G11  22753062.273    22753065.059 5 119568083.241 7  93169984.54845
G14  21271821.805    21271824.590 5 111784213.734 7  87104571.42845
G17  23725110.422                   124676266.46115
G18  23748324.375    23748328.332 3 124798279.547 6  97245402.48243
G19  24669468.227    24669470.367 3 129638928.777 6 101017338.48143
G22  21303921.297    21303921.504 6 111952848.901 8  87235993.40346
G24  21809928.008    21809933.723 6 114611995.359 8  89308053.31746
G28  23444562.563    23444565.055 3 123201954.820 6  96001573.05143
G32  23604467.508    23604471.582 4 124042300.731 7  96656360.57844
> 2015 07 19 01 19 00.0000000  0 11
G01  22344388.016    22344394.551 5 117420559.025 7  91496566.99145
G04  21859930.961    21859934.391 6 114874662.841 8  89512768.12446
G11  22752635.984    22752638.242 5 119565840.392 7  93168236.83845
G14  21265808.398    21265811.066 5 111752612.682 7  87079947.19545
G17  23716752.508                   124632353.08815
G18  23759652.617    23759655.109 3 124857805.464 6  97291786.28543
G19  24679448.789    24679450.109 3 129691377.732 6 101058207.78043
G22  21309850.984    21309851.250 6 111984010.168 8  87260274.94146
G24  21810965.859    21810971.105 5 114617448.631 8  89312302.64045
G28  23453832.180    23453834.145 3 123250664.636 6  96039528.74743
G32  23594622.578    23594625.539 4 123990561.091 7  96616043.90044
> 2015 07 19 01 19 15.0000000  0 11
G01  22338607.047    22338612.938 5 117390176.896 7  91472892.54845
G04  21859341.156    21859344.703 6 114871564.678 8  89510354.08346
G11  22752234.406    22752236.078 5 119563728.769 7  93166591.32845
G14  21259821.289    21259824.191 6 111721150.628 8  87055431.32846
G17  23708417.250                   124588552.82115
G18  23770988.789    23770990.871 3 124917376.215 6  97338205.03243
G19  24689440.375    24689442.223 3 129743882.769 6 101099120.76943
G22  21315805.281    21315806.309 6 112015300.919 8  87284657.29946
G24  21812033.445    21812038.516 6 114623057.892 8  89316673.50546
G28  23463123.258    23463124.754 3 123299488.933 6  96077573.64943
G32  23584788.078    23584790.980 4 123938879.664 7  96575772.62444
> 2015 07 19 01 19 30.0000000  0 11
G01  22332849.984    22332856.285 5 117359924.288 7  91449319.04345
G04  21858779.039    21858782.527 6 114868610.849 8  89508052.43546
G11  22751857.203    22751859.520 5 119561748.403 7  93165048.11645
G14  21253860.836    21253863.797 6 111689827.597 7  87031023.74146
G17  23700102.539                   124544865.82615
G18  23782331.563    23782335.520 3 124976991.336 6  97384658.35443
G19  24699443.234    24699443.676 3 129796443.369 6 101140077.11343
G22  21321784.711    21321784.977 6 112046721.058 8  87309140.55946
G24  21813130.477    21813135.547 5 114628823.130 8  89321165.91145
G28  23472434.602    23472437.797 3 123348427.216 6  96115707.36443
G32  23574964.484    23574968.090 4 123887256.774 7  96535547.07844
> 2015 07 19 01 19 45.0000000  0 11
G01  22327117.734    22327123.625 5 117329801.860 7  91425846.96245
G04  21858244.219    21858247.883 6 114865802.144 8  89505863.90446
G11  22751505.961    22751507.750 5 119559899.680 7  93163607.53845
G14  21247927.203    21247930.223 6 111658644.139 7  87006724.92946
G17  23691811.953                   124501292.64615
G18  23793685.516    23793688.125 3 125036650.785 6  97431146.20643
G19  24709454.852    24709455.996 3 129849059.362 6 101181076.49943
G22  21327788.008    21327788.625 6 112078270.361 8  87333724.34746
G24  21814256.914    21814262.746 6 114634744.400 8  89325779.89346
G28  23481769.891    23481772.266 3 123397479.505 6  96153929.96543
G32  23565151.977    23565155.055 4 123835692.752 7  96495367.34344
> 2015 07 19 01 20 00.0000000  0 11
G01  22321410.602    22321416.727 5 117299809.850 7  91402476.52945
G04  21857737.656    21857741.262 6 114863138.647 8  89503788.58446
G11  22751179.016    22751181.039 5 119558182.467 7  93162269.40045
G14  21242019.625    21242021.941 6 111627600.530 7  86982535.11046
G17  23683541.359                   124457833.704 5
G18  23805048.828    23805050.090 3 125096354.099 6  97477668.22043
G19  24719477.742    24719478.770 3 129901730.486 6 101222118.91143
G22  21333816.523    21333817.316 6 112109948.852 8  87358408.89546
G24  21815413.539    21815418.727 6 114640821.856 8  89330515.59546
G28  23491125.992    23491128.074 3 123446645.056 6  96192240.73643
G32  23555350.641    23555354.656 4 123784188.058 7  96455233.92844
> 2015 07 19 01 20 15.0000000  0 11
G01  22315728.383    22315734.449 6 117269948.611 7  91379208.14046
G04  21857258.414    21857261.727 6 114860619.682 8  89501825.68346
G11  22750877.227    22750879.250 5 119556596.769 7  93161033.78245
G14  21236138.875    21236141.543 5 111596696.868 7  86958454.32045
G17  23675292.922                   124414489.080 5
G18  23816416.031    23816418.875 3 125156101.085 6  97524224.31043
G19  24729510.891    24729512.621 3 129954456.184 6 101263203.83743
G22  21339868.656    21339869.859 6 112141755.973 8  87383193.70146
G24  21816599.820    21816604.598 6 114647055.229 8  89335372.77446
G28  23500502.953    23500505.152 2 123495923.440 6  96230639.49342
G32  23545560.656    23545564.672 4 123732742.740 7  96415146.78644
> 2015 07 19 01 20 30.0000000  0 11
G01  22310070.906    22310077.324 5 117240217.882 7  91356041.31845
G04  21856806.438    21856809.633 6 114858245.808 8  89499975.94646
G11  22750600.000    22750602.258 5 119555142.589 7  93159900.70345
G14  21230284.773    21230287.031 5 111565933.379 7  86934482.80945
G17  23667066.766                   124371259.69015
G18  23827793.242    23827797.141 2 125215891.413 6  97570814.11642
G19  24739554.484    24739556.039 3 130007236.001 6 101304330.93443
G22  21345946.625    21345946.773 6 112173691.620 8  87408078.62346
G24  21817815.625    21817820.402 5 114653444.529 8  89340351.47045
G28  23509901.438    23509903.813 3 123545314.186 6  96269125.77143
G32  23535782.563    23535786.578 4 123681356.824 7  96375105.83544
> 2015 07 19 01 20 45.0000000  0 11
G01  22304438.203    22304444.035 5 117210617.949 7  91332976.32245
G04  21856382.477    21856385.965 6 114856016.669 8  89498238.95146
G11  22750348.344    22750351.070 5 119553819.707 7  93158869.88345
G14  21224457.094    21224459.645 6 111535310.251 7  86910620.67546
G17  23658861.977                   124328145.670 5
G18  23839180.836    23839183.270 3 125275724.583 6  97617437.34443
G19  24749609.281    24749610.074 3 130060069.842 6 101345500.13443
G22  21352047.531    21352048.559 6 112205755.325 8  87433063.29546
G24  21819061.109    21819066.707 6 114659989.823 7  89345451.71546
G28  23519320.820    23519323.664 3 123594816.912 6  96307699.29843
G32  23526016.305    23526018.914 4 123630030.666 7  96335111.35344
> 2015 07 19 01 21 00.0000000  0 11
G01  22298830.336    22298836.285 5 117181149.484 7  91310013.85945
G04  21855985.766    21855989.137 6 114853932.734 8  89496615.13346
G11  22750121.633    22750123.949 5 119552628.321 8  93157941.58745
G14  21218656.555    21218659.633 6 111504827.861 8  86886868.16346
G17  23650679.070                   124285147.334 5
G18  23850573.102    23850576.941 3 125335600.478 6  97664093.85543
G19  24759673.484    24759674.395 3 130112957.138 6 101386710.97243
G22  21358173.492    21358174.285 6 112237946.963 8  87458147.70246
G24  21820336.102    21820341.406 6 114666690.884 8  89350673.32746
G28  23528762.891    23528765.324 2 123644431.263 6  96346359.84942
G32  23516259.742    23516263.758 4 123578764.715 7  96295163.84744
> 2015 07 19 01 21 15.0000000  0 11
G01  22293247.797    22293254.039 6 117151812.671 7  91287153.98546
G04  21855616.266    21855620.340 6 114851994.100 8  89495104.57346
G11  22749920.102    22749921.715 5 119551568.801 7  93157116.06745
G14  21212882.820    21212885.547 6 111474486.559 8  86863225.65646
G17  23642520.227                   124242265.095 5
G18  23861976.398    23861979.008 3 125395518.747 6  97710783.38543
G19  24769746.859    24769748.121 3 130165897.763 6 101427963.37443
G22  21364323.766    21364325.027 6 112270266.517 8  87483331.79646
G24  21821640.961    21821646.148 6 114673547.671 8  89356016.28446
G28  23538225.273    23538227.473 3 123694156.785 6  96385107.01943
G32  23506515.859    23506519.816 5 123527559.458 7  96255263.60745
> 2015 07 19 01 21 30.0000000  0 11
G01  22287690.266    22287696.273 5 117122607.642 7  91264396.86545
G04  21855275.047    21855278.945 6 114850200.399 8  89493706.98846
G11  22749743.234    22749745.551 5 119550640.687 7  93156392.88545
G14  21207135.727    21207138.688 6 111444286.144 8  86839692.91446
G17  23634383.156                   124199499.092 5
G18  23873385.102    23873388.648 3 125455479.025 6  97757505.65743
G19  24779832.328    24779832.828 3 130218891.244 6 101469256.96643
G22  21370498.195    21370498.813 6 112302713.544 8  87508615.23046
G24  21822975.570    21822980.406 6 114680560.164 7  89361480.58446
G28  23547709.641    23547710.727 2 123743992.976 6  96423940.39642
G32  23496783.938    23496787.836 4 123476414.878 7  96215410.67144
> 2015 07 19 01 21 45.0000000  0 11
G01  22282158.172    22282164.707 5 117093534.360 7  91241742.27145
G04  21854961.211    21854965.402 6 114848551.979 8  89492422.65346
G11  22749591.336    22749593.887 5 119549844.098 7  93155772.18845
G14  21201415.641    21201418.309 6 111414226.957 7  86816270.14446
G17  23626265.797                   124156849.859 5
G18  23884804.398    23884806.949 2 125515480.940 6  97804260.36342
G19  24789926.234    24789926.910 3 130271937.047 6 101510591.33943
G22  21376696.586    21376697.203 6 112335287.718 8  87533997.73446
G24  21824339.742    21824344.695 6 114687728.138 7  89367066.01646
G28  23557213.703    23557215.023 2 123793939.397 6  96462859.66842
G32  23487062.609    23487066.801 5 123425331.522 7  96175605.55545
> 2015 07 19 01 22 00.0000000  0 11
G01  22276650.789    22276656.504 5 117064593.520 7  91219190.92945
G04  21854675.164    21854679.063 6 114847048.730 8  89491251.37246
G11  22749465.281    22749467.773 5 119549179.047 7  93155253.99145
G14  21195722.570    21195724.945 6 111384309.712 7  86792958.11546
G17  23618173.070                   124114317.79315
G18  23896231.063    23896232.910 3 125575524.336 6  97851047.40943
G19  24800030.680    24800030.652 3 130325034.992 6 101551966.29943
G22  21382919.555    21382920.699 6 112367989.187 8  87559479.44946
G24  21825732.688    21825738.520 5 114695051.698 7  89372772.70545
G28  23566739.500    23566741.113 2 123843995.737 6  96501864.68042
G32  23477352.930    23477357.297 4 123374309.320 7  96135847.99444
> 2015 07 19 01 22 15.0000000  0 11
G01  22271168.453    22271174.930 5 117035785.202 7  91196742.88945
G04  21854416.656    21854420.320 6 114845690.560 8  89490193.15546
G11  22749363.695    22749365.953 5 119548645.636 7  93154838.42445
G14  21190056.086    21190059.281 6 111354534.040 8  86769756.32946
G17  23610100.969                   124071903.148 5
G18  23907663.969    23907666.637 3 125635608.756 6  97897866.37243
G19  24810143.805    24810145.301 3 130378184.710 6 101593381.66643
G22  21389166.664    21389167.691 6 112400817.058 8  87585059.56446
G24  21827156.797    21827162.102 6 114702530.553 7  89378600.38446
G28  23576285.102    23576287.066 2 123894161.449 6  96540954.83842
G32  23467655.992    23467660.184 4 123323348.802 7  96096138.49044
> 2015 07 19 01 22 30.0000000  0 11
G01  22265711.750    22265717.758 6 117007109.598 7  91174398.28946
G04  21854186.156    21854190.055 6 114844477.282 8  89489247.75646
G11  22749287.156    22749289.063 5 119548243.384 7  93154524.91545
G14  21184417.375    21184419.984 5 111324900.145 8  86746664.89445
G17  23602052.148                   124029606.217 5
G18  23919104.734    23919108.223 3 125695733.961 6  97944717.14143
G19  24820268.156    24820269.477 3 130431385.738 6 101634836.94743
G22  21395437.422    21395438.625 6 112433771.335 8  87610738.23846
G24  21828608.664    21828614.145 5 114710164.743 7  89384549.10245
G28  23585853.117    23585854.203 3 123944436.030 6  96580129.85043
G32  23457970.078    23457973.801 4 123272450.149 7  96056477.24244
> 2015 07 19 01 22 45.0000000  0 11
G01  22260280.359    22260286.191 5 116978567.041 7  91152157.33245
G04  21853982.688    21853985.707 6 114843409.383 8  89488415.64046
G11  22749235.547    22749238.098 5 119547972.816 7  93154314.00245
G14  21178805.109    21178808.129 6 111295408.870 8  86723684.70746
G17  23594026.289                   123987427.51515
G18  23930556.008    23930556.859 3 125755899.612 6  97991599.45643
G19  24830402.680    24830403.180 3 130484637.801 6 101676332.04443
G22  21401732.523    21401733.316 6 112466851.962 8  87636515.36046
G24  21830091.414    21830096.660 6 114717954.134 8  89390618.77946
G28  23595440.289    23595442.195 2 123994819.203 6  96619389.42242
G32  23448296.438    23448299.984 4 123221613.528 7  96016864.21744
> 2015 07 19 01 23 00.0000000  0 11
G01  22254874.250    22254880.082 6 116950157.748 7  91130020.20946
G04  21853807.148    21853810.461 6 114842486.655 8  89487696.60046
G11  22749208.734    22749211.520 5 119547834.133 7  93154206.00945
G14  21173220.180    21173223.375 6 111266060.023 8  86700815.49146
G17  23586023.039                   123945367.353 5
G18  23942010.555    23942014.160 2 125816105.488 6  98038513.09542
G19  24840545.859    24840546.594 3 130537940.389 6 101717866.43543
G22  21408051.945    21408052.797 6 112500058.510 8  87662390.56246
G24  21831602.883    21831608.363 6 114725898.697 7  89396809.34046
G28  23605047.523    23605050.426 2 124045310.488 6  96658733.32742
G32  23438633.969    23438638.043 4 123170839.493 7  95977299.99644
> 2015 07 19 01 23 15.0000000  0 12
G01  22249493.375    22249499.383 5 116921881.942 7  91107987.15345
G04  21853659.508    21853662.703 6 114841709.097 8  89487090.70046
G11  22749207.570    22749210.297 5 119547826.826 7  93154200.32145
G12  25030659.492    25030658.176 4 131537023.37817 102496349.34254
G14  21167662.734    21167665.227 5 111236853.665 8  86678057.27345
G17  23578040.867    23578044.531 2 123903426.104 5  96548150.85852
G18  23953477.070    23953478.273 2 125876351.153 6  98085457.66942
G19  24850698.281    24850699.016 3 130591293.316 6 101759440.10343
G22  21414394.453    21414395.539 6 112533390.905 8  87688363.88846
G24  21833144.945    21833149.547 6 114733998.489 7  89403120.88246
G28  23614676.992    23614678.020 2 124095909.316 6  96698160.98642
G32  23428983.758    23428988.242 4 123120128.219 7  95937784.73144
> 2015 07 19 01 23 30.0000000  0 12
G01  22244138.563    22244144.453 6 116893739.901 8  91086058.28346
G04  21853539.109    21853542.363 6 114841077.130 8  89486598.31146
G11  22749231.375    22749233.691 5 119547951.183 8  93154297.21745
G12  25020267.555                   131482427.866 6
G14  21162131.852    21162134.461 6 111207790.458 8  86655410.66846
G17  23570082.789    23570085.633 2 123861604.253 5  96515562.37042
G18  23964947.352    23964950.898 2 125936636.369 6  98132433.17742
G19  24860860.523    24860861.258 3 130644696.339 6 101801052.78043
G22  21420761.695    21420762.488 6 112566849.015 8  87714435.21446
G24  21834715.266    21834720.395 6 114742253.228 7  89409553.16146
G28  23624324.891    23624327.910 2 124146615.471 6  96737672.28642
G32  23419346.898    23419350.328 5 123069480.053 7  95898318.60745
> 2015 07 19 01 23 45.0000000  0 12
G01  22238808.531    22238814.715 5 116865731.956 7  91064233.93545
G04  21853446.422    21853449.969 6 114840590.702 8  89486219.38546
G11  22749280.031    22749282.465 5 119548207.230 7  93154496.76145
G12  25009887.813    25009888.605 3 131427874.46716 102411318.18553
G14  21156628.930    21156631.539 6 111178870.406 8  86632875.56846
G17  23562147.141    23562149.750 2 123819901.874 5  96483066.98642
G18  23976427.422    23976429.855 2 125996961.015 6  98179439.34142
G19  24871032.008    24871033.504 3 130698148.995 6 101842704.15343
G22  21427152.211    21427153.121 6 112600432.279 8  87740604.00746
G24  21836315.445    21836321.160 6 114750663.268 8  89416106.44946
G28  23633994.969    23633997.285 2 124197428.356 6  96777266.69542
G32  23409720.281    23409724.121 4 123018895.066 7  95858901.66544
> 2015 07 19 01 24 00.0000000  0 12
G01  22233504.305    22233510.078 6 116837857.956 8  91042513.90146
G04  21853381.695    21853384.773 6 114840249.281 8  89485953.37346
G11  22749354.016    22749356.742 5 119548594.739 8  93154798.66545
G12  24999510.086                   131373362.769 6
G14  21151152.750    21151156.121 5 111150093.773 8  86610452.31645
G17  23554234.211    23554236.879 2 123778319.481 5  96450665.06942
G18  23987914.063    23987916.906 2 126057324.505 6  98226475.80842
G19  24881213.328    24881214.180 3 130751650.757 6 101884393.80343
G22  21433566.352    21433567.496 6 112634140.484 8  87766870.15646
G24  21837945.797    21837950.926 5 114759227.930 7  89422780.20945
G28  23643684.156    23643686.121 2 124248347.663 6  96816944.10042
G32  23400106.414    23400110.664 4 122968373.817 7  95819534.46044
> 2015 07 19 01 24 15.0000000  0 12
G01  22228225.898    22228231.906 6 116810118.487 8  91020898.67646
G04  21853344.117    21853347.254 6 114840053.426 8  89485800.83846
G11  22749452.734    22749454.934 5 119549113.947 7  93155203.21445
G12  24989151.164                   131318893.81017
G14  21145703.688    21145706.121 5 111121460.713 7  86588140.82845
G17  23546343.875    23546346.836 2 123736857.565 5  96418356.99942
G18  23999408.586    23999410.727 2 126117726.663 6  98273542.37842
G19  24891402.766    24891405.551 2 130805201.489 6 101926121.61842
G22  21440004.820    21440005.555 5 112667973.404 8  87793233.44545
G24  21839604.664    21839609.793 6 114767947.531 7  89429574.70946
G28  23653394.609    23653396.340 2 124299372.986 6  96856704.10742
G32  23390504.898    23390508.680 5 122917916.458 7  95780217.01345
> 2015 07 19 01 24 30.0000000  0 12
G01  22222972.750    22222978.406 6 116782513.910 7  90999388.68946
G04  21853334.680    21853337.406 6 114840002.960 8  89485761.58346
G11  22749576.352    22749579.605 5 119549764.636 7  93155710.18845
G12  24978794.586                   131264467.74517
G14  21140282.688    21140285.473 5 111092971.501 8  86565941.47045
G17  23538477.773    23538479.738 2 123695516.117 5  96386142.86942
G18  24010910.094    24010912.352 2 126178167.098 6  98320638.77942
G19  24901602.039    24901604.355 2 130858800.756 6 101967887.26142
G22  21446466.695    21446467.605 6 112701930.921 8  87819693.86646
G24  21841293.617    21841298.043 5 114776821.938 8  89436489.83745
G28  23663124.352    23663125.730 2 124350503.737 6  96896546.23342
G32  23380915.469    23380919.074 5 122867523.341 7  95740949.68645
> 2015 07 19 01 24 45.0000000  0 12
G01  22217745.750    22217751.406 6 116755044.253 7  90977983.83146
G04  21853352.164    21853355.770 6 114840097.783 8  89485835.52746
G11  22749725.477    22749728.262 5 119550547.019 7  93156319.81645
G12  24968444.531                   131210084.870 7
G14  21134888.438    21134891.164 6 111064626.419 8  86543854.47146
G17  23530633.031    23530635.875 2 123654295.845 5  96354023.18142
G18  24022418.188    24022421.031 2 126238645.398 6  98367764.65042
G19  24911811.125    24911812.328 2 130912447.892 6 102009690.12942
G22  21452952.063    21452952.563 6 112736012.587 8  87846250.99946
G24  21843012.078    21843016.270 6 114785850.730 8  89443525.27046
G28  23672874.125    23672875.973 2 124401739.432 6  96936470.19542
G32  23371338.125    23371342.023 5 122817194.763 7  95701732.69745
> 2015 07 19 01 25 00.0000000  0 12
G01  22212543.664    22212549.730 6 116727709.203 8  90956683.83546
G04  21853397.773    21853401.438 6 114840337.558 8  89486022.47446
G11  22749899.539    22749901.680 5 119551460.665 8  93157031.89045
G12  24958105.445    24958110.281 5 131155746.177 7 102199312.70555
G14  21129522.414    21129524.789 5 111036425.358 8  86521879.84245
G17  23522811.664    23522815.328 2 123613196.705 5  96321997.90242
G18  24033933.594    24033937.258 2 126299160.917 6  98414919.59342
G19  24922030.789    24922030.352 2 130966142.386 6 102051529.91942
G22  21459461.391    21459462.008 6 112770217.722 8  87872904.33546
G24  21844758.594    21844764.543 5 114795033.455 8  89450680.62245
G28  23682644.172    23682646.137 2 124453079.333 6  96976475.31042
G32  23361772.930    23361776.477 5 122766930.269 7  95662565.55545
> 2015 07 19 01 25 15.0000000  0 12
G01  22207367.969    22207373.918 6 116700509.413 8  90935489.26546
G04  21853471.117    21853474.840 6 114840722.482 8  89486322.45646
G11  22750098.078    22750100.688 5 119552505.592 8  93157846.19445
G12  24947776.461    24947776.609 5 131101451.435 7 102156937.17655
G14  21124182.695    21124185.480 6 111008368.344 8  86500017.29346
G17  23515015.445    23515017.762 2 123572219.098 5  96290067.29842
G18  24045455.164    24045459.531 2 126359713.734 6  98462103.55842
G19  24932255.648    24932256.969 2 131019884.063 6 102093406.46042
G22  21465994.086    21465994.293 6 112804546.133 8  87899653.64946
G24  21846535.828    21846540.957 5 114804370.399 7  89457956.14045
G28  23692433.313    23692434.809 2 124504523.164 6  97016561.32442
G32  23352220.453    23352224.469 5 122716730.591 7  95623448.90245
> 2015 07 19 01 25 30.0000000  0 12
G01  22202217.352    22202223.184 6 116673445.263 8  90914400.40746
G04  21853572.086    21853575.750 6 114841252.786 8  89486735.72746
G11  22750321.961    22750324.277 5 119553682.081 8  93158762.97245
G12  24937453.281    24937449.152 4 131047200.987 7 102114692.27754
G14  21118871.195    21118873.980 6 110980455.823 8  86478267.35746
G17  23507240.148    23507242.465 2 123531363.664 5  96258231.97342
G18  24056986.289    24056989.191 2 126420303.644 6  98509316.41342
G19  24942490.344    24942492.309 2 131073672.880 6 102135319.75042
G22  21472549.742    21472549.949 6 112838998.489 8  87926499.72946
G24  21848341.773    21848346.902 5 114813862.149 8  89465352.31445
G28  23702242.867    23702244.012 2 124556070.749 6  97056728.24742
G32  23342680.055    23342683.719 5 122666596.323 7  95584383.26545
> 2015 07 19 01 25 45.0000000  0 12
G01  22197093.172    22197099.180 6 116646517.643 8  90893417.85246
G04  21853700.719    21853703.680 6 114841929.229 8  89487262.88246
G11  22750571.000    22750573.492 5 119554990.885 8  93159782.81445
G12  24927135.813                   130992996.78017
G14  21113587.281    21113590.008 5 110952689.015 8  86456630.96245
G17  23499487.797    23499492.164 2 123490631.547 6  96226492.63442
G18  24068524.898    24068527.098 2 126480930.918 6  98556558.39042
G19  24952736.328    24952737.121 2 131127509.149 6 102177270.05742
G22  21479129.680    21479129.828 6 112873574.814 8  87953442.34546
G24  21850177.398    21850182.645 5 114823508.453 7  89472868.91645
G28  23712070.516    23712073.242 2 124607722.465 6  97096976.33042
G32  23333152.430    23333156.621 5 122616528.197 7  95545369.08645
> 2015 07 19 01 26 00.0000000  0 12
G01  22191995.305    22192001.254 6 116619726.345 8  90872541.52746
G04  21853857.219    21853860.473 6 114842751.536 8  89487903.71846
G11  22750845.375    22750847.281 5 119556431.407 8  93160905.21545
G12  24916827.133    24916831.031 3 130938835.820 7 102030249.74953
G14  21108331.250    21108332.980 6 110925067.597 8  86435107.83046
G17  23491761.195    23491764.918 2 123450022.493 5  96194849.21442
G18  24080066.852    24080069.813 2 126541594.896 6  98603828.98342
G19  24962991.195    24962990.172 2 131181392.107 6 102219256.74942
G22  21485732.469    21485733.027 6 112908274.236 8  87980480.82346
G24  21852042.516    21852047.996 5 114833309.322 7  89480505.93945
G28  23721920.789    23721922.051 2 124659477.253 6  97137304.75142
G32  23323637.414    23323641.137 5 122566526.270 7  95506406.45045
> 2015 07 19 01 26 15.0000000  0 12
G01  22186922.414    22186928.012 5 116593071.374 8  90851771.39845
G04  21854041.430    21854044.449 6 114843719.204 8  89488657.78546
G11  22751144.430    22751146.688 5 119558003.648 8  93162130.31845
G12  24906529.453    24906529.543 4 130884720.542 7 101988081.91344
G14  21103102.555    21103104.813 6 110897591.463 8  86413697.87146
G17  23484057.734    23484060.227 2 123409536.534 6  96163301.72742
G18  24091618.266    24091620.699 2 126602295.077 6  98651127.80342
G19  24973250.773    24973252.563 2 131235320.994 6 102261279.13042
G22  21492359.000    21492359.207 6 112943096.757 8  88007615.44546
G24  21853937.047    21853942.000 5 114843264.290 7  89488263.05445
G28  23731788.086    23731790.285 2 124711334.591 6  97177713.04642
G32  23314135.273    23314139.055 5 122516590.665 7  95467495.62045
> 2015 07 19 01 26 30.0000000  0 12
G01  22181876.461    22181882.234 5 116566553.103 7  90831107.83745
G04  21854253.336    21854256.531 6 114844832.096 8  89489524.87746
G11  22751468.563    22751471.055 5 119559707.666 8  93163458.23345
G12  24896239.820    24896237.391 3 130830651.193 7 101945949.92343
G14  21097902.070    21097903.977 6 110870260.895 8  86392401.32846
G17  23476376.641    23476379.484 2 123369174.049 6  96131850.47642
G18  24103175.469    24103179.074 2 126663031.159 6  98698454.58542
G19  24983523.016    24983523.926 2 131289295.513 6 102303337.14942
G22  21499008.852    21499009.176 6 112978041.604 8  88034845.18146
G24  21855860.820    21855865.949 5 114853373.351 8  89496140.25945
G28  23741676.789    23741677.992 2 124763293.905 6  97218200.85542
G32  23304645.820    23304649.543 5 122466721.433 7  95428636.44145
> 2015 07 19 01 26 45.0000000  0 11
G01  22176856.313    22176861.969 6 116540171.701 7  90810550.93846
G04  21854492.313    21854495.742 6 114846090.327 8  89490505.13046
G11  22751817.891    22751819.797 5 119561543.407 7  93164888.75345
G12  24885960.648    24885959.039 3 130776627.731 7 101903853.82743
G14  21092728.859    21092730.883 6 110843076.093 8  86371218.35346
G17  23468718.555    23468722.395 2 123328935.505 6  96100495.75142
G18  24114739.086    24114743.160 2 126723802.966 5  98745809.14342
G22  21505681.813    21505681.785 6 113013108.614 8  88062170.10046
G24  21857813.586    21857818.949 5 114863636.280 8  89504137.36745
G28  23751582.922    23751585.121 2 124815354.827 6  97258767.88842
G32  23295168.563    23295172.871 5 122416919.094 7  95389829.41445
> 2015 07 19 01 27 00.0000000  0 11
G01  22171862.516    22171868.699 6 116513927.431 7  90790100.85046
G04  21854759.953    21854763.383 6 114847494.552 8  89491599.31546
G11  22752192.250    22752194.859 5 119563510.974 8  93166422.08545
G12  24875687.188    24875686.926 3 130722650.755 7 101861793.89743
G14  21087583.672    21087586.281 6 110816037.312 8  86350149.13946
G17  23461085.672    23461088.926 2 123288821.403 6  96069237.99442
G18  24126312.477    24126314.148 2 126784610.152 6  98793191.34642
G22  21512378.367    21512378.340 6 113048297.772 8  88089590.22546
G24  21859796.047    21859801.469 5 114874053.255 8  89512254.49845
G28  23761509.063    23761511.320 2 124867517.038 5  97299413.72942
G32  23285703.914    23285707.285 5 122367183.750 7  95351074.50545
> 2015 07 19 01 27 15.0000000  0 11
G01  22166893.672    22166900.617 6 116487820.395 8  90769757.75146
G04  21855054.992    21855058.246 6 114849043.966 8  89492806.59546
G11  22752591.453    22752593.594 5 119565609.731 7  93168057.55245
G12  24865422.195                   130668720.536 6
G14  21082465.984    21082467.656 6 110789144.615 8  86329193.76846
G17  23453476.250    23453479.328 2 123248831.829 6  96038077.37242
G18  24137890.359    24137893.145 2 126845452.101 6  98840600.59242
G22  21519097.086    21519097.586 6 113083608.433 8  88117105.05846
G24  21861806.836    21861812.785 5 114884623.997 7  89520491.45545
G28  23771454.180    23771456.613 2 124919779.806 5  97340138.03452
G32  23276252.508    23276256.406 5 122317515.954 7  95312372.40445
> 2015 07 19 01 27 30.0000000  0 11
G01  22161951.930    22161958.465 5 116461850.894 7  90749521.80845
G04  21855377.813    21855380.715 6 114850738.879 8  89494127.14946
G11  22753015.961    22753017.691 5 119567840.079 8  93169795.45945
G12  24855166.453                   130614837.816 6
G14  21077376.328    21077378.703 6 110762398.499 8  86308352.64146
G17  23445890.367    23445891.922 3 123208967.290 6  96007014.12743
G18  24149473.797    24149476.934 2 126906328.739 5  98888036.93642
G22  21525840.141    21525839.762 5 113119040.687 8  88144714.60545
G24  21863848.477    21863853.488 5 114895348.589 8  89528848.29945
G28  23781419.398    23781420.133 2 124972143.032 5  97380940.53542
G32  23266813.992    23266817.305 5 122267915.695 7  95273722.82445
> 2015 07 19 01 27 45.0000000  0 11
G01  22157036.445    22157042.746 6 116436019.048 8  90729393.13946
G04  21855727.789    21855731.043 6 114852578.917 8  89495560.69646
G11  22753465.828    22753467.500 5 119570201.941 8  93171635.96345
G12  24844922.930    24844926.828 3 130561002.303 6 101735821.15653
G14  21072314.383    21072316.582 6 110735798.872 8  86287625.67946
G17  23438328.641    23438331.016 3 123169227.921 6  95976048.37843
G18  24161065.188    24161068.559 2 126967239.610 5  98935499.91542
G22  21532605.516    21532605.195 6 113154593.980 8  88172418.52346
G24  21865918.305    21865923.082 5 114906226.309 8  89537324.45345
G28  23791401.602    23791403.273 2 125024605.870 5  97421820.61642
G32  23257388.313    23257392.211 5 122218383.498 7  95235126.45545
> 2015 07 19 01 28 00.0000000  0 11
G01  22152147.266    22152153.684 6 116410325.249 7  90709372.04646
G04  21856105.828    21856108.730 6 114854564.688 8  89497107.86846
G11  22753939.867    22753942.008 5 119572695.316 7  93173578.93045
G12  24834689.250    24834693.324 4 130507214.671 7 101693908.73844
G14  21067280.375    21067282.984 6 110709345.974 8  86267012.99846
G17  23430790.406    23430792.020 3 123129614.290 6  95945180.64843
G18  24172662.961    24172665.805 2 127028184.632 6  98982989.44742
G22  21539393.789    21539394.230 6 113190268.042 8  88200216.43946
G24  21868016.938    21868022.418 5 114917257.545 8  89545920.23445
G28  23801403.242    23801406.555 2 125077168.233 5  97462778.27042
G32  23247975.484    23247978.445 5 122168919.377 7  95196583.01945
> 2015 07 19 01 28 15.0000000  0 11
G01  22147283.773    22147290.309 6 116384769.734 7  90689458.69346
G04  21856511.617    21856514.461 6 114856696.246 8  89498768.70846
G11  22754438.875    22754441.133 5 119575320.397 7  93175624.54045
G12  24824465.609    24824465.113 4 130453475.388 7 101652033.97644
G14  21062274.664    21062277.215 6 110683040.255 8  86246514.98446
G17  23423275.477    23423278.320 3 123090126.778 6  95914411.17543
G18  24184268.992    24184270.020 2 127089163.432 6  99030505.32742
G22  21546205.617    21546206.059 5 113226062.989 8  88228108.58645
G24  21870145.758    21870150.828 5 114928442.242 7  89554635.59245
G28  23811424.836    23811427.973 2 125129829.690 5  97503813.13842
G32  23238575.430    23238579.855 5 122119523.757 7  95158092.89245
> 2015 07 19 01 28 30.0000000  0 11
G01  22142447.164    22142453.758 6 116359352.186 7  90669652.79946
G04  21856944.484    21856948.500 6 114858973.023 8  89500542.75646
G11  22754963.703    22754965.434 5 119578076.522 7  93177772.15645
G12  24814252.047                   130399784.92317
G14  21057297.102    21057299.477 6 110656881.496 8  86226131.52646
G17  23415785.125    23415787.266 3 123050765.179 6  95883739.79943
G18  24195876.195    24195880.504 2 127150175.397 6  99078047.09542
G22  21553040.188    21553040.629 5 113261978.018 8  88256094.29445
G24  21872303.516    21872308.352 5 114939779.807 8  89563470.06145
G28  23821464.953    23821467.211 2 125182589.323 5  97544924.57252
G32  23229189.250    23229192.738 5 122070196.456 7  95119655.98045
> 2015 07 19 01 28 45.0000000  0 11
G01  22137636.664    22137642.789 6 116334072.684 8  90649954.49246
G04  21857405.633    21857408.594 6 114861394.774 8  89502429.73446
G11  22755512.711    22755515.379 5 119580963.657 7  93180021.93045
G12  24804041.391                   130346142.76617
G14  21052346.984    21052349.594 6 110630869.541 8  86205862.48646
G17  23408319.648    23408320.559 3 123011529.768 6  95853166.71943
G18  24207494.445    24207496.820 2 127211219.916 5  99125614.14542
G22  21559897.078    21559897.402 5 113298012.689 8  88284173.29445
G24  21874489.406    21874494.945 5 114951269.866 7  89572423.34945
G28  23831523.086    23831525.344 2 125235446.400 5  97586111.82342
G32  23219815.422    23219819.789 5 122020937.741 7  95081272.57445
> 2015 07 19 01 29 00.0000000  0 11
G01  22132852.594    22132858.660 6 116308932.409 8  90630364.69546
G04  21857894.031    21857897.578 6 114863962.172 8  89504430.22646
G11  22756087.344    22756089.660 5 119583982.473 7  93182374.25345
G12  24793836.031                   130292549.769 6
G14  21047425.375    21047428.160 6 110605005.512 8  86185708.72246
G17  23400877.422    23400879.328 3 122972421.645 6  95822692.90643
G18  24219116.492    24219119.336 2 127272297.561 6  99173207.11442
G22  21566777.156    21566777.305 5 113334167.416 8  88312345.80345
G24  21876705.055    21876710.359 5 114962913.008 7  89581495.92245
G28  23841600.711    23841601.855 2 125288401.357 5  97627375.38542
G32  23210455.008    23210458.848 5 121971748.762 7  95042943.55045
> 2015 07 19 01 29 15.0000000  0 11
G01  22128095.164    22128101.582 6 116283931.709 8  90610883.61746
G04  21858410.758    21858414.480 6 114866675.655 8  89506544.50546
G11  22756686.813    22756689.012 5 119587133.296 8  93184829.45245
G12  24783645.898                   130239007.036 6
G14  21042532.086    21042534.402 6 110579290.012 8  86165670.75446
G17  23393459.438    23393462.223 3 122933441.408 6  95792318.68143
G18  24230744.680    24230748.988 2 127333408.193 5  99220825.73242
G22  21573680.078    21573680.051 5 113370442.255 8  88340611.84445
G24  21878950.203    21878955.039 5 114974709.889 8  89590688.28545
G28  23851695.867    23851697.422 2 125341454.175 5  97668715.19642
G32  23201107.992    23201111.129 5 121922629.691 7  95004668.83645
> 2015 07 19 01 29 30.0000000  0 11
G01  22123364.023    22123370.266 6 116259070.600 8  90591511.39946
G04  21858954.914    21858958.461 6 114869534.481 8  89508771.96746
G11  22757311.336    22757313.770 5 119590415.672 8  93187387.20045
G12  24773470.680                   130185514.445 6
G14  21037666.430    21037668.980 6 110553722.579 8  86145748.12746
G17  23386066.734    23386068.641 3 122894589.078 6  95762044.14643
G18  24242379.297    24242383.605 2 127394551.275 5  99268469.67842
G22  21580605.953    21580605.574 5 113406836.697 8  88368971.16745
G24  21881224.164    21881229.586 5 114986659.833 7  89599999.91545
G28  23861809.383    23861812.168 2 125394603.839 5  97710130.48042
G32  23191774.422    23191778.672 5 121873580.682 7  94966448.76945
> 2015 07 19 01 29 45.0000000  0 11
G01  22118660.203    22118666.152 6 116234348.916 8  90572247.80646
G04  21859526.211    21859529.992 6 114872539.145 8  89511113.28146
G11  22757961.398    22757963.715 5 119593829.119 7  93190046.99945
G12  24763296.516                   130132072.588 6
G14  21032829.305    21032832.266 6 110528303.269 8  86125940.91446
G17  23378696.445    23378698.645 3 122855864.710 6  95731869.35043
G18  24254021.477    24254024.672 2 127455726.051 6  99316138.27242
G22  21587553.805    21587553.953 5 113443350.133 8  88397423.19245
G24  21883527.313    21883532.324 5 114998762.311 8  89609430.42845
G28  23871942.242    23871944.441 2 125447849.732 5  97751620.80842
G32  23182453.523    23182458.184 5 121824601.781 7  94928283.32145
> 2015 07 19 01 30 00.0000000  0 11
G01  22113981.844    22113988.086 6 116209766.721 7  90553092.83246
G04  21860126.063    21860129.668 6 114875689.114 8  89513567.77846
G11  22758635.781    22758638.391 5 119597373.780 7  93192809.02245
G12  24753135.688    24753145.035 3 130078681.062 5 101359968.75353
G14  21028020.258    21028023.219 6 110503032.293 8  86106249.28446
G17  23371352.305    23371354.270 3 122817268.600 6  95701794.41643
G18  24265667.234    24265671.836 2 127516932.571 5  99363831.63242
G22  21594524.789    21594524.996 5 113479982.218 8  88425967.65845
G24  21885859.000    21885864.656 5 115011017.120 8  89618979.63845
G28  23882092.391    23882095.000 2 125501191.435 5  97793185.76042
G32  23173147.031    23173151.457 5 121775693.550 7  94890173.07945
> 2015 07 19 01 30 15.0000000  0 11
G01  22109330.594    22109336.719 6 116185324.699 7  90534047.10446
G04  21860753.398    21860756.945 6 114878984.722 8  89516135.74146
G11  22759335.664    22759337.746 5 119601049.937 7  93195673.50545
G12  24742992.617    24742995.695 4 130025340.796 7 101318407.03454
G14  21023239.609    21023242.395 6 110477910.044 8  86086673.46546
G17  23364032.820    23364034.375 3 122778801.445 6  95671820.04343
G18  24277322.781    24277325.215 2 127578170.647 6  99411549.60242
G22  21601518.211    21601518.594 5 113516732.954 8  88454604.57245
G24  21888220.008    21888225.371 5 115023424.831 8  89628648.00545
G28  23892261.414                   125554628.815 5
G32  23163853.289    23163857.656 5 121726856.169 7  94852117.96945
> 2015 07 19 01 30 30.0000000  0 11
G01  22104706.313    22104712.613 6 116161022.745 7  90515110.55546
G04  21861407.867    21861412.234 6 114882425.758 8  89518817.16546
G11  22760059.734    22760062.227 5 119604857.403 7  93198640.31845
G12  24732850.789    24732850.703 3 129972051.810 6 101276883.13843
G14  21018487.383    21018490.285 6 110452936.404 8  86067213.45346
G17  23356736.570    23356738.945 3 122740463.175 6  95641946.03043
G18  24288980.258    24288984.684 2 127639439.536 5  99459291.51442
G22  21608534.336    21608534.484 5 113553601.953 8  88483333.66945
G24  21890610.406    21890615.711 5 115035984.413 8  89638434.71245
G28  23902447.758                   125608161.014 5
G32  23154573.805    23154577.645 5 121678089.709 7  94814118.15145
> 2015 07 19 01 30 45.0000000  0 11
G01  22100108.422    22100114.371 6 116136861.142 7  90496283.34946
G04  21862090.734    21862094.340 6 114886012.035 8  89521611.64546
G11  22760809.570    22760811.301 5 119608796.243 7  93201709.50645
G12  24722714.680    24722722.035 3 129918814.517 6 101235399.63543
G14  21013763.023    21013767.039 6 110428112.060 8  86047869.85046
G17  23349466.359    23349468.500 3 122702254.482 6  95612173.03343
G18  24300647.859    24300649.707 2 127700739.357 6  99507057.61542
G22  21615572.508    21615572.773 5 113590588.962 8  88512154.70445
G24  21893029.750    21893034.469 5 115048696.432 7  89648340.19345
G28  23912653.375                   125661787.804 5
G32  23145307.117    23145311.074 5 121629394.918 7  94776174.33445
> 2015 07 19 01 31 00.0000000  0 11
G01  22095537.492    22095543.090 6 116112839.923 7  90477565.52946
G04  21862800.445    21862804.402 6 114889743.343 8  89524519.07846
G11  22761584.414    22761585.617 5 119612866.103 8  93204880.79945
G12  24712600.820    24712600.793 4 129865629.530 7 101193956.86844
G14  21009067.891    21009071.027 6 110403436.491 8  86028642.16146
G17  23342220.180    23342221.617 3 122664175.294 6  95582500.97543
G18  24312315.664    24312319.914 2 127762069.425 6  99554847.24642
G22  21622633.461    21622633.785 6 113627693.459 8  88541067.28346
G24  21895477.055    21895482.945 5 115061560.190 7  89658363.90545
G28  23922876.875                   125715508.491 5
G32  23136054.617    23136058.398 5 121580771.284 7  94738285.79045
> 2015 07 19 01 31 15.0000000  0 11
G01  22090993.258    22090998.973 6 116088959.666 7  90458957.59146
G04  21863538.578    21863542.242 6 114893620.189 8  89527539.95146
G11  22762383.867    22762386.008 5 119617067.216 8  93208154.37045
G12  24702488.055    24702487.324 3 129812496.87916 101152555.81753
G14  21004400.375    21004403.688 6 110378910.300 8  86009530.85046
G17  23334998.078    23335000.512 3 122626226.193 6  95552930.22043
G18  24323991.961    24323996.387 2 127823429.567 5  99602660.28542
G22  21629716.602    21629716.984 6 113664915.602 8  88570071.53146
G24  21897953.977    21897959.223 5 115074576.059 8  89668506.13845
G28  23933117.180                   125769322.904 5
G32  23126815.133    23126819.559 5 121532219.931 7  94700453.76245
> 2015 07 19 01 31 30.0000000  0 11
G01  22086476.273    22086482.047 6 116065220.496 7  90440459.54746
G04  21864304.094    21864307.523 6 114897642.632 8  89530674.30446
G11  22763208.070    22763209.801 5 119621399.602 7  93211530.21845
G12  24692390.531    24692388.395 4 129759417.326 7 101111195.23944
G14  20999761.984    20999765.063 6 110354533.901 8  85990536.26446
G17  23327801.969    23327804.109 3 122588407.508 6  95523461.11843
G18  24335674.156    24335679.285 2 127884819.571 5  99650496.54742
G22  21636821.664    21636822.398 5 113702254.978 7  88599167.09245
G24  21900459.414    21900465.070 5 115087743.791 8  89678766.70645
G28  23943375.102                   125823230.821 5
G32  23117590.070    23117593.793 5 121483740.747 7  94662677.87745
> 2015 07 19 01 31 45.0000000  0 11
G01  22081984.953    22081991.078 6 116041622.712 8  90422071.65446
G04  21865096.820    21865100.719 6 114901810.818 8  89533922.34346
G11  22764057.469    22764059.375 5 119625863.611 7  93215008.72345
G12  24682297.242    24682297.625 3 129706391.170 6 101069876.15643
G14  20995152.094    20995154.879 6 110330307.607 8  85971658.68246
G17  23320629.867    23320632.125 4 122550719.809 6  95494094.04644
G18  24347363.188    24347367.496 2 127946239.168 5  99698355.99542
G22  21643949.266    21643950.352 5 113739711.598 8  88628354.07645
G24  21902994.516    21903000.055 5 115101063.573 7  89689145.76845
G28  23953650.055                   125877231.737 5
G32  23108378.086    23108381.984 5 121435334.225 7  94624958.55645
> 2015 07 19 01 32 00.0000000  0 11
G01  22077521.859    22077527.398 6 116018166.473 7  90403794.06046
G04  21865917.305    21865921.613 6 114906124.315 8  89537283.54646
G11  22764931.797    22764933.703 5 119630458.629 8  93218589.21045
G12  24672214.516    24672217.242 3 129653418.885 6 101028599.07843
G14  20990570.711    20990573.555 6 110306231.383 8  85952898.04646
G17  23313483.867    23313485.598 3 122513163.382 7  95464829.29043
G18  24359057.523    24359060.191 2 128007687.968 6  99746238.07442
G22  21651099.422    21651099.805 5 113777284.965 8  88657632.03445
G24  21905558.133    21905562.969 5 115114534.871 7  89699642.89645
G28  23963945.961                   125931325.107 5
G32  23099180.672    23099184.629 5 121387000.251 7  94587295.61445
> 2015 07 19 01 32 15.0000000  0 11
G01  22073085.227    22073091.234 6 115994851.792 8  90385626.74946
G04  21866766.070    21866769.969 6 114910583.190 8  89540758.06346
G11  22765831.250    22765833.684 5 119635184.773 7  93222271.86145
G12  24662145.500    24662147.582 3 129600500.220 6 100987363.79443
G14  20986017.586    20986019.785 6 110282305.055 8  85934254.19546
G17  23306361.617    23306363.289 4 122475738.394 6  95435666.93144
G18  24370756.797    24370757.707 2 128069165.710 6  99794142.76142
G22  21658271.461    21658272.313 5 113814974.671 7  88687000.62145
G24  21908150.305    21908155.844 5 115128157.679 7  89710258.08645
G28  23974256.414                   125985510.305 5
G32  23089996.828    23090000.902 5 121338739.532 7  94549689.90045
> 2015 07 19 01 32 30.0000000  0 11
G01  22068675.352    22068681.418 6 115971678.907 7  90367569.95246
G04  21867642.313    21867645.859 6 114915186.893 8  89544345.27946
G11  22766755.742    22766757.180 5 119640042.231 8  93226056.96045
G12  24652081.516    24652089.047 3 129547636.024 5 100946170.89043
G14  20981492.578    20981495.129 6 110258529.056 8  85915727.53746
G17  23299264.523    23299267.016 4 122438445.056 6  95406607.18144
G18  24382461.625    24382462.594 2 128130672.085 6  99842069.70652
G22  21665465.750    21665466.191 5 113852780.484 8  88716459.70245
G24  21910771.039    21910776.871 5 115141931.735 7  89720991.12745
G28  23984584.922                   126039786.890 5
G32  23080827.133    23080831.090 5 121290552.127 7  94512141.35245
> 2015 07 19 01 32 45.0000000  0 11
G01  22064293.094    22064298.516 6 115948647.952 7  90349623.70946
G04  21868545.703    21868549.836 6 114919935.968 8  89548045.88246
G11  22767704.469    22767706.844 5 119645030.701 8  93229944.17645
G12  24642039.414    24642037.688 3 129494826.373 6 100905020.54643
G14  20976996.953    20976999.445 6 110234903.409 8  85897318.00046
G17  23292192.984    23292195.125 3 122401283.753 7  95377650.30943
G18  24394168.102    24394173.523 2 128192206.717 5  99890018.72452
G22  21672682.273    21672682.598 5 113890701.920 7  88746008.86545
G24  21913420.953    21913426.609 5 115155856.768 7  89731841.80945
G28  23994930.898                   126094154.480 5
G32  23071671.508    23071675.699 5 121242438.240 7  94474650.03545
> 2015 07 19 01 33 00.0000000  0 11
G01  22059937.078    22059943.438 6 115925759.690 7  90331788.74646
G04  21869477.336    21869481.586 6 114924830.376 8  89551859.61146
G11  22768678.961    22768681.102 5 119650150.256 8  93233933.41245
G12  24631996.633    24631999.828 3 129442072.008 6 100863913.26343
G14  20972530.125    20972532.207 6 110211428.698 8  85879026.00746
G17  23285146.906    23285149.691 4 122364255.095 7  95348796.83244
G18  24405883.156                   128253769.720 5
G22  21679920.219    21679920.543 5 113928739.142 8  88775648.19245
G24  21916099.484    21916105.199 5 115169933.415 7  89742810.62645
G28  24005293.797                   126148612.935 5
G32  23062529.875    23062534.008 5 121194398.466 7  94437216.40945
> 2015 07 19 01 33 15.0000000  0 11
G01  22055608.703    22055614.828 6 115903013.678 7  90314064.48646
G04  21870436.563    21870440.051 6 114929870.163 8  89555786.73946
G11  22769677.859    22769680.293 5 119655400.862 8  93238024.82745
G12  24621968.820    24621972.543 4 129389373.025 6 100822849.18144
G14  20968091.594    20968094.086 6 110188104.773 8  85860851.47846
G17  23278126.180    23278128.203 3 122327359.137 7  95320046.72443
G18  24417603.141                   128315360.392 5
G22  21687180.641    21687181.668 5 113966891.714 7  88805377.44745
G24  21918807.273    21918812.754 5 115184161.055 7  89753897.10645
G28  24015673.906                   126203161.625 5
G32  23053402.094    23053406.051 5 121146432.945 7  94399840.69945
> 2015 07 19 01 33 30.0000000  0 11
G01  22051307.359    22051313.543 6 115880410.507 7  90296451.60946
G04  21871423.180    21871426.609 6 114935055.401 8  89559827.34346
G11  22770702.258    22770704.281 5 119660782.690 8  93242218.53245
G12  24611953.938    24611953.090 4 129336729.676 6 100781828.39344
G14  20963681.438    20963683.520 6 110164931.980 8  85842794.77946
G17  23271130.398    23271132.012 4 122290596.362 7  95291400.42444
G18  24429328.961                   128376978.450 5
G22  21694462.539    21694463.918 5 114005159.336 7  88835196.33345
G24  21921543.688    21921548.406 5 115198539.363 8  89765100.98245
G28  24026072.703                   126257800.068 5
G32  23044288.625    23044293.109 5 121098542.022 8  94362523.16945
> 2015 07 19 01 33 45.0000000  0 11
G01  22047033.555    22047039.738 6 115857950.275 8  90278950.11146
G04  21872437.750    21872440.887 6 114940385.730 8  89563980.87046
G11  22771751.148    22771753.289 5 119666295.306 8  93246514.13345
G12  24601949.469    24601947.859 4 129284142.606 7 100740851.55344
G14  20959300.922    20959303.473 6 110141910.581 8  85824856.01746
G17  23264159.734    23264161.699 4 122253967.079 7  95262858.12944
G18  24441060.211                   128438623.889 5
G22  21701766.594    21701767.152 6 114043541.827 7  88865104.73546
G24  21924308.305    21924313.785 5 115213068.624 8  89776422.49445
G28  24036485.484                   126312527.904 5
G32  23035189.953    23035192.973 5 121050725.925 7  94325263.85645
> 2015 07 19 01 34 00.0000000  0 11
G01  22042786.914    22042792.863 6 115835633.147 7  90261560.13346
G04  21873479.617    21873482.754 6 114945861.157 8  89568247.46046
G11  22772825.227    22772827.191 5 119671938.368 7  93250911.23045
G12  24591946.211    24591950.813 3 129231611.889 6 100699918.44243
G14  20954948.805    20954951.297 6 110119040.609 8  85807035.31046
G17  23257215.242    23257217.617 4 122217471.475 7  95234419.95244
G18  24452797.289                   128500296.149 5
G22  21709092.281    21709092.840 5 114082038.799 7  88895102.36845
G24  21927101.688    21927106.582 5 115227748.117 8  89787861.06045
G28  24046915.906                   126367344.520 5
G32  23026104.484    23026108.559 5 121002984.928 7  94288063.20445
> 2015 07 19 01 34 15.0000000  0 11
G01  22038567.211    22038573.219 6 115813459.532 8  90244281.95646
G04  21874548.906    21874552.102 6 114951481.586 8  89572626.89046
G11  22773923.836    22773926.094 5 119677712.607 7  93255410.58845
G12  24581961.023    24581965.449 3 129179138.277 6 100659029.97043
G14  20950625.664    20950628.156 6 110096322.452 8  85789332.85946
G17  23250295.383    23250297.465 4 122181110.217 7  95206086.46044
G18  24464537.914                   128561995.201 5
G22  21716439.609    21716440.813 6 114120650.203 7  88925189.13146
G24  21929923.719    21929928.496 5 115242578.535 7  89799417.24145
G28  24057364.922                   126422249.971 5
G32  23017034.273    23017038.406 5 120955319.045 7  94250920.69745
> 2015 07 19 01 34 30.0000000  0 11
G01  22034375.203    22034381.445 6 115791429.314 8  90227115.55746
G04  21875646.039    21875649.820 6 114957247.126 8  89577119.51146
G11  22775047.352    22775050.020 5 119683617.436 8  93260011.74745
G12  24571989.984    24571990.133 3 129126721.711 6 100618185.96543
G14  20946331.539    20946333.680 6 110073755.798 8  85771748.45646
G17  23243402.148    23243404.875 4 122144883.223 7  95177857.59844
G18  24476283.664                   128623720.284 5
G22  21723809.336    21723810.363 5 114159375.398 7  88955364.62545
G24  21932774.672    21932779.918 5 115257558.819 8  89811090.19445
G28  24067829.344                   126477243.154 4
G32  23007978.328    23007982.754 5 120907728.855 7  94213837.36545
> 2015 07 19 01 34 45.0000000  0 11
G01  22030210.375    22030216.383 6 115769542.835 8  90210061.18046
G04  21876770.742    21876773.820 6 114963157.541 8  89581724.95046
G11  22776195.914    22776198.289 5 119689653.081 8  93264714.84545
G12  24562023.641    24562027.070 3 129074362.789 6 100577386.81743
G14  20942066.367    20942068.742 6 110051341.130 8  85754282.51346
G17  23236533.734    23236536.109 4 122108791.092 7  95149733.86344
G18  24488035.656                   128685471.286 5
G22  21731200.273    21731200.715 6 114198214.378 7  88985628.79046
G24  21935653.656    21935658.727 6 115272689.293 8  89822880.16446
G28  24078313.164                   126532323.749 5
G32  22998936.672    22998940.395 5 120860214.828 7  94176813.44045
> 2015 07 19 01 35 00.0000000  0 11
G01  22026072.992    22026079.352 6 115747800.430 8  90193119.11746
G04  21877923.195    21877926.508 6 114969213.104 8  89586443.51646
G11  22777369.852    22777372.285 5 119695819.791 8  93269520.20145
G12  24552072.500    24552074.582 4 129022061.935 6 100536632.90644
G14  20937829.641    20937832.016 6 110029078.611 8  85736935.11446
G17  23229691.594    23229694.555 4 122072834.092 7  95121715.41344
G18  24499791.633                   128747248.138 5
G22  21738612.711    21738613.328 5 114237166.729 7  89015981.25245
G24  21938561.469    21938566.363 5 115287970.048 8  89834787.24945
G28  24088809.961                   126587491.504 5
G32  22989909.492    22989914.035 5 120812776.671 7  94139848.47345
> 2015 07 19 01 35 15.0000000  0 11
G01  22021962.648    22021968.715 6 115726202.056 8  90176289.18946
G04  21879103.492    21879106.688 6 114975413.950 8  89591275.32746
G11  22778568.039    22778569.887 5 119702116.972 8  93274427.02945
G12  24542130.711    24542131.973 3 128969819.375 6 100495924.38143
G14  20933622.289    20933624.781 6 110006968.582 8  85719706.53546
G17  23222874.688    23222876.770 4 122037012.613 7  95093802.58944
G18  24511550.961                   128809050.504 5
G22  21746046.766    21746046.855 6 114276232.197 7  89046421.79646
G24  21941498.211    21941503.516 5 115303401.002 8  89846811.38345
G28  24099325.391                   126642746.044 5
G32  22980897.594    22980901.902 5 120765415.395 7  94102943.49345
> 2015 07 19 01 35 30.0000000  0 11
G01  22017879.984    22017886.461 6 115704747.888 8  90159571.65846
G04  21880310.820    21880314.191 6 114981759.738 8  89596220.19646
G11  22779790.719    22779793.211 5 119708544.912 8  93279435.91145
G12  24532202.188    24532202.395 3 128917635.211 6 100455261.50343
G14  20929443.766    20929446.141 6 109985010.891 8  85702596.67246
G17  23216083.633    23216085.891 4 122001326.642 7  95065995.32644
G18  24523316.219                   128870877.934 5
G22  21753501.797    21753502.414 6 114315410.526 8  89076950.35546
G24  21944463.242    21944467.902 6 115318981.449 8  89858952.00146
G28  24109854.320                   126698086.729 4
G32  22971899.531    22971903.664 5 120718130.982 7  94066098.50345
> 2015 07 19 01 35 45.0000000  0 11
G01  22013824.992    22013831.410 6 115683438.329 7  90142966.81446
G04  21881545.930    21881549.184 6 114988250.577 8  89601278.08846
G11  22781038.734    22781041.227 5 119715103.170 8  93284546.11845
G12  24522281.195    24522283.160 3 128865510.074 6 100414644.55243
G14  20925294.555    20925296.930 6 109963205.992 8  85685605.86946
G17  23209318.742    23209321.938 4 121965776.848 7  95038294.22844
G18  24535088.273                   128932730.116 5
G22  21760978.750    21760979.367 5 114354701.366 7  89107566.54045
G24  21947456.242    21947460.844 5 115334711.517 8  89871209.21545
G28  24120403.203                   126753513.514 4
G32  22962915.898    22962920.441 5 120670923.754 7  94029313.62245
> 2015 07 19 01 36 00.0000000  0 11
G01  22009797.188    22009803.605 6 115662273.496 8  90126474.73746
G04  21882808.367    21882811.914 6 114994886.009 8  89606448.53446
G11  22782312.016    22782314.098 5 119721792.170 8  93289758.30045
G12  24512369.891    24512374.961 3 128813444.420 6 100374073.91843
G14  20921174.414    20921176.906 6 109941554.017 8  85668734.21446
G17  23202579.883    23202582.727 4 121930363.540 7  95010699.44344
G18  24546861.273                   128994606.883 5
G22  21768476.609    21768477.871 5 114394104.624 8  89138270.34245
G24  21950478.008    21950483.020 5 115350591.279 8  89883583.06245
G28  24130967.234                   126809025.686 5
G32  22953947.500    22953951.633 5 120623793.969 7  93992589.11045
> 2015 07 19 01 36 15.0000000  0 11
G01  22005797.945    22005803.309 6 115641253.515 8  90110095.46946
G04  21884098.797    21884102.051 6 115001666.372 8  89611731.99146
G11  22783609.625    22783612.176 5 119728611.703 8  93295072.19445
G12  24502474.203    24502480.445 3 128761438.678 6 100333549.99243
G14  20917083.055    20917085.430 6 109920055.043 8  85651981.78346
G17  23195867.195    23195870.098 4 121895086.884 7  94983211.14944
G18  24558639.023                   129056507.936 5
G22  21775996.781    21775997.223 6 114433620.028 7  89169061.54546
G24  21953528.391    21953533.344 5 115366620.277 8  89896073.21145
G28  24141545.797                   126864622.76214
G32  22944993.953    22944997.852 5 120576741.697 7  93955924.87645
> 2015 07 19 01 36 30.0000000  0 11
G01  22001825.391    22001831.809 6 115620378.543 8  90093829.20746
G04  21885416.430    21885420.094 6 115008591.671 8  89617128.46346
G11  22784932.000    22784934.375 5 119735561.560 8  93300487.64545
G12  24492593.773    24492593.980 3 128709492.747 6 100293072.62243
G14  20913021.141    20913023.574 6 109898708.984 8  85635348.46546
G17  23189180.586    23189182.727 4 121859947.290 7  94955829.65244
G18  24570427.289                   129118432.700 5
G22  21783537.445    21783537.945 6 114473247.132 8  89199939.83746
G24  21956607.086    21956611.980 5 115382798.417 8  89908679.56345
G28  24152141.344                   126920304.074 5
G32  22936055.250    22936059.324 5 120529767.598 7  93919321.67245
> 2015 07 19 01 36 45.0000000  0 11
G01  21997880.648    21997886.480 6 115599649.132 7  90077676.44146
G04  21886761.438    21886765.160 6 115015661.593 8  89622637.47946
G11  22786279.664    22786281.570 5 119742641.906 8  93306004.73745
G12  24482717.781    24482720.332 3 128657607.274 6 100252642.39243
G14  20908988.602    20908990.449 6 109877516.481 8  85618834.83546
G17  23182520.164    23182522.246 4 121824945.178 7  94928555.28944
G18  24582216.180                   129180381.253 5
G22  21791099.313    21791099.578 6 114512985.858 8  89230905.10446
G24  21959713.664    21959719.203 6 115399125.901 8  89921402.28546
G28  24162754.313                   126976070.00814
G32  22927131.008    22927135.551 5 120482872.000 7  93882779.69445
> 2015 07 19 01 37 00.0000000  0 11
G01  21993963.602    21993969.668 6 115579065.069 7  90061636.91746
G04  21888134.641    21888138.188 6 115022875.814 8  89628258.83146
G11  22787651.742    22787654.000 5 119749852.561 8  93311623.51345
G12  24472851.867    24472857.934 3 128605782.541 5 100212259.53643
G14  20904984.938    20904987.078 6 109856477.216 8  85602440.63146
G17  23175885.078    23175887.219 4 121790080.407 7  94901387.93044
G18  24594008.555                   129242353.020 5
G22  21798682.672    21798683.289 5 114552835.513 8  89261956.79745
G24  21962849.164    21962854.410 5 115415602.078 8  89934240.86745
G28  24173382.008                   127031918.485 4
G32  22918222.055    22918226.012 5 120436054.815 7  93846298.86045
> 2015 07 19 01 37 15.0000000  0 11
G01  21990073.930    21990080.230 6 115558626.616 7  90045710.92046
G04  21889535.023    21889538.688 6 115030234.529 8  89633992.70346
G11  22789048.477    22789050.383 5 119757193.373 8  93317343.60545
G12  24463001.023    24463008.145 3 128554018.976 5 100171924.30843
G14  20901010.406    20901012.313 6 109835591.570 8  85586166.08846
G17  23169276.438    23169279.398 4 121755353.723 7  94874328.21444
G18  24605807.438                   129304347.733 6
G22  21806286.914    21806287.883 6 114592796.085 8  89293094.89146
G24  21966012.477    21966017.371 5 115432226.769 8  89947195.17445
G28  24184026.055                   127087850.95314
G32  22909327.352    22909331.953 5 120389316.396 7  93809879.32545
> 2015 07 19 01 37 30.0000000  0 11
G01  21986212.523    21986218.121 6 115538334.085 8  90029898.64346
G04  21890962.617    21890966.984 6 115037737.881 8  89639839.34246
G11  22790470.328    22790471.766 5 119764664.360 8  93323165.09745
G12  24453168.781    24453169.691 3 128502316.982 6 100131637.08543
G14  20897064.836    20897067.563 6 109814859.623 8  85570011.32746
G17  23162694.359    23162697.496 4 121720765.196 7  94847376.11644
G18  24617610.047                   129366365.327 6
G22  21813911.797    21813912.883 5 114632867.397 8  89324319.30145
G24  21969204.391    21969209.988 5 115449000.141 8  89960265.33845
G28  24194683.445                   127143866.01014
G32  22900449.094    22900452.699 5 120342656.945 7  93773521.25745
> 2015 07 19 01 37 45.0000000  0 11
G01  21982378.836    21982384.551 6 115518187.547 8  90014200.07146
G04  21892418.266    21892422.516 6 115045386.089 8  89645798.89246
G11  22791916.656    22791918.738 5 119772265.551 8  93329088.07845
G12  24443340.750    24443342.188 3 128450676.847 6 100091397.98943
G14  20893149.258    20893151.281 6 109794281.908 8  85553976.76746
G17  23156139.516    23156141.305 4 121686315.246 7  94820532.01344
G18  24629414.297                   129428405.53215
G22  21821558.125    21821559.387 6 114673049.154 8  89355629.77946
G24  21972424.820    21972429.363 5 115465921.872 8  89973451.09845
G28  24205358.680                   127199962.897 4
G32  22891585.344    22891589.418 5 120296076.994 7  93737225.18345
