     3.02           OBSERVATION DATA    G (GPS)             RINEX VERSION / TYPE
teqc  2019Feb12     Unknown             20211202 222832 UTC PGM / RUN BY / DATE
Linux 2.4.21-27.ELsmp|Opteron|gcc -static|Linux 64|=+       COMMENT
     2.11           OBSERVATION DATA    M (MIXED)           COMMENT
NetR9 5.45          Receiver Operator   20210115 000001 UTC COMMENT
L2C CARRIER PHASE MEASUREMENTS: PHASE SHIFTS REMOVED        COMMENT
L2C PHASE MATCHES L2 P PHASE                                COMMENT
GLONASS C/A & P PHASE MATCH: PHASE SHIFTS REMOVED           COMMENT
Forced Modulo Decimation to 30 seconds                      COMMENT
teqc edited: all GLONASS satellites excluded                COMMENT
teqc edited: all Galileo satellites excluded                COMMENT
ZIMM                                                        MARKER NAME
GEODETIC                                                    MARKER TYPE
TRIMBLE NETR9       SWISSTOPO                               OBSERVER / AGENCY
5429R49141          TRIMBLE NETR9       5.45                REC # / TYPE / VERS
99390               TRM29659.00     NONE                    ANT # / TYPE
  4331297.3480   567555.6390  4633133.7280                  APPROX POSITION XYZ
        0.0000        0.0000        0.0000                  ANTENNA: DELTA H/E/N
G    7 C1C C2C C2W C5X L1C L2W L5X                          SYS / # / OBS TYPES
    30.000                                                  INTERVAL
  2021    01    15    00    00   00.0000000     GPS         TIME OF FIRST OBS
  2021    01    15    23    59   30.0000000     GPS         TIME OF LAST OBS
    31                                                      # OF SATELLITES
   G01   804   804   804   787   803   804   787            PRN / # OF OBS
   G02  1072        1072        1071  1071                  PRN / # OF OBS
   G03   821   821   820   771   816   821   771            PRN / # OF OBS
   G04   888   888   886   659   879   888   659            PRN / # OF OBS
   G05   985   985   985         982   985                  PRN / # OF OBS
   G06  1018  1018  1018   821  1016  1018   821            PRN / # OF OBS
   G07   965   964   964         964   965                  PRN / # OF OBS
   G08   859   859   856   694   851   859   694            PRN / # OF OBS
   G09   779   778   778   761   774   779   761            PRN / # OF OBS
   G10   994   992   994   866   992   994   866            PRN / # OF OBS
   G12   799   798   798         797   799                  PRN / # OF OBS
   G13   792         792         792   792                  PRN / # OF OBS
   G14  1009  1006   988   876  1005  1006   876            PRN / # OF OBS
   G15   902   893   901         892   902                  PRN / # OF OBS
   G16   948         917         936   911                  PRN / # OF OBS
   G17  1066  1065  1065        1063  1065                  PRN / # OF OBS
   G18   939   938   928   827   932   938   827            PRN / # OF OBS
   G19  1036        1033        1032  1029                  PRN / # OF OBS
   G20  1027         997        1014   994                  PRN / # OF OBS
   G21   853         853         852   852                  PRN / # OF OBS
   G22   828         827         827   826                  PRN / # OF OBS
   G23  1033  1032  1023   929  1027  1032   929            PRN / # OF OBS
   G24   803   803   803   753   803   803   753            PRN / # OF OBS
   G25   817   815   816   788   816   816   788            PRN / # OF OBS
   G26   851   845   842   683   848   850   683            PRN / # OF OBS
   G27   796   796   796   747   795   796   747            PRN / # OF OBS
   G28  1000         990         996   987                  PRN / # OF OBS
   G29   778   778   777         775   778                  PRN / # OF OBS
   G30   756   756   756   685   747   756   685            PRN / # OF OBS
   G31  1012  1012  1012        1012  1012                  PRN / # OF OBS
   G32  1060  1060  1060   857  1059  1060   857            PRN / # OF OBS
                                                            END OF HEADER
> 2021 01 15 00 00 00.0000000  0  9
G01  23782692.898 6  23782700.105    23782699.996 3  23782695.898 5 124978904.891 6  97386182.26743  93328420.623 5
G08  20835150.922 8  20835157.566    20835156.387 7  20835153.113 6 109489467.057 8  85316498.11947  81761632.992 6
G10  21048518.117 8  21048523.906    21048524.000 9  21048519.570 6 110610715.066 8  86190207.00749  82598974.035 6
G16  23466055.477 7                  23466058.520 4                 123314804.874 7  96089580.38644
G20  22764951.109 6                  22764953.520 4                 119630629.182 6  93218704.58544
G21  22247745.086 7                  22247747.387 6                 116912708.155 7  91100817.45946
G23  22700396.289 7  22700400.578    22700400.012 5  22700401.668 6 119291398.212 7  92954361.43545  89081245.884 6
G27  20388972.617 8  20388978.531    20388978.059 9  20388975.012 7 107144784.898 8  83489473.86549  80010730.831 7
G32  24340504.531 6  24340510.773    24340509.793 5                 127910218.464 6  99670333.08645
> 2021 01 15 00 00 30.0000000  0 10
G01  23764118.031 6  23764125.496    23764125.402 3  23764120.449 5 124881290.011 6  97310118.66643  93255526.354 5
G08  20826265.563 8  20826272.117    20826271.035 7  20826268.148 7 109442774.632 8  85280114.41747  81726765.281 7
G10  21053719.445 8  21053725.070    21053725.137 9  21053720.742 6 110638048.052 8  86211505.44549  82619385.024 6
G16  23486823.164 7                  23486825.906 4                 123423939.891 7  96174620.65844
G20  22781483.031 6                  22781485.973 4                 119717505.643 6  93286400.54044
G21  22237007.406 7                  22237009.293 5                 116856280.867 7  91056848.14145
G22  25265346.188 5                  25265348.844 2                 132770295.40115 103457378.92942
G23  22716491.461 7  22716496.188    22716495.297 5  22716496.840 6 119375979.478 7  93020268.91245  89144407.214 6
G27  20394987.086 8  20394993.293    20394992.785 9  20394989.844 7 107176391.953 8  83514102.72749  80034333.520 7
G32  24323565.203 6  24323572.004    24323571.809 5                 127821203.314 6  99600970.63245
> 2021 01 15 00 01 00.0000000  0 10
G01  23745566.523 6  23745573.586    23745573.469 3  23745569.301 5 124783803.714 6  97234155.37543  93182728.292 5
G08  20817452.336 8  20817459.215    20817458.195 7  20817455.051 7 109396462.195 8  85244026.79647  81692181.313 7
G10  21059021.625 8  21059027.727    21059027.387 9  21059023.297 6 110665912.986 8  86233218.38349  82640193.269 6
G16  23507620.922 7                  23507624.652 4                 123533236.316 7  96259786.68644
G20  22798070.023 6                  22798072.805 4                 119804669.756 6  93354320.60744
G21  22226309.703 7                  22226312.066 6                 116800066.091 7  91013044.43646
G22  25243997.070 6                  25243999.117 3                 132658100.338 6 103369954.12143
G23  22732651.141 7  22732655.637    22732655.156 5  22732655.945 5 119460898.338 7  93086439.45245  89207820.652 5
G27  20401087.688 8  20401093.875    20401093.230 9  20401089.887 7 107208450.775 8  83539083.61649  80058273.531 7
G32  24306651.469 6  24306658.738    24306658.445 6                 127732323.720 6  99531713.81346
> 2021 01 15 00 01 30.0000000  0 10
G01  23727039.914 6  23727047.816    23727047.223 3  23727043.270 5 124686447.151 6  97158293.15943  93110026.995 5
G08  20808712.078 8  20808718.977    20808717.879 7  20808714.520 7 109350531.482 8  85208236.63247  81657882.393 7
G10  21064425.359 8  21064431.320    21064430.887 9  21064426.809 6 110694308.799 8  86255344.99249  82661397.923 6
G16  23528450.203 7                  23528453.063 4                 123642690.943 7  96345076.00644
G20  22814710.695 6                  22814713.680 4                 119892118.973 6  93422462.84644
G21  22215653.094 7                  22215655.422 5                 116744064.419 7  90969406.79545
G22  25222656.844 5                  25222660.344 3                 132545960.516 5 103282572.65243
G23  22748874.367 7  22748878.777    22748878.180 5  22748879.227 5 119546152.474 7  93152871.23345  89271484.454 5
G27  20407274.516 8  20407280.332    20407279.918 9  20407276.699 7 107240961.475 8  83564416.62449  80082550.989 7
G32  24289764.836 6  24289771.508    24289770.625 5                 127643582.927 6  99462565.15345
> 2021 01 15 00 02 00.0000000  0 10
G01  23708537.563 6  23708545.344    23708545.297 3  23708540.625 5 124589220.742 6  97082532.32643  93037422.871 5
G08  20800044.625 8  20800051.344    20800050.363 7  20800047.164 7 109304983.591 8  85172744.76047  81623869.341 7
G10  21069929.375 8  21069935.473    21069935.246 9  21069931.090 6 110723233.711 8  86277883.88749  82682997.674 6
G16  23549308.320 7                  23549311.387 4                 123752301.521 7  96430486.82744
G20  22831405.477 6                  22831408.223 4                 119979850.527 6  93490825.09644
G21  22205036.641 7                  22205039.340 5                 116688275.331 7  90925934.78145
G22  25201329.656 6                  25201329.172 2                 132433878.361 6 103195235.61242
G23  22765160.594 7  22765165.328    22765164.691 5  22765166.309 5 119631738.891 7  93219561.94645  89335396.402 5
G27  20413546.680 8  20413552.789    20413552.254 9  20413549.184 7 107273923.440 8  83590101.26849  80107165.423 7
G32  24272905.008 6  24272911.234    24272910.277 5                 127554983.386 6  99393526.55645
> 2021 01 15 00 02 30.0000000  0  9
G01  23690061.734 6  23690070.234    23690069.824 4  23690064.781 5 124492126.701 6  97006874.66344  92964917.55715
G08  20791450.742 8  20791457.668    20791456.570 7  20791453.305 7 109259822.096 8  85137553.98847  81590144.881 7
G10  21075534.211 8  21075540.355    21075540.258 9  21075535.883 6 110752687.888 8  86300835.20049  82704992.696 6
G16  23570195.813 7                  23570198.703 4                 123862066.268 7  96516017.80444
G20  22848153.672 6                  22848157.254 4                 120067863.486 6  93559406.60644
G21  22194460.578 7                  22194463.762 6                 116632700.184 7  90882629.48246
G23  22781510.305 7  22781514.625    22781513.773 5  22781516.203 6 119717656.502 7  93286510.73845  89399555.632 6
G27  20419905.438 8  20419911.512    20419910.941 9  20419907.891 7 107307338.050 8  83616138.62049  80132117.895 7
G32  24256073.148 6  24256079.473    24256078.773 6                 127466529.693 6  99324601.59346
> 2021 01 15 00 03 00.0000000  0 10
G01  23671611.000 6  23671617.879    23671617.242 3  23671613.137 5 124395163.507 6  96931318.95243  92892510.054 5
G08  20782930.305 8  20782936.820    20782935.797 7  20782932.301 7 109215045.643 8  85102663.25447  81556707.898 7
G10  21081239.148 8  21081245.398    21081245.090 9  21081241.000 6 110782667.583 8  86324195.99449  82727380.125 6
G16  23591111.719 7                  23591115.098 4                 123971979.762 7  96601664.65844
G20  22864955.234 7                  22864957.898 4                 120156153.498 7  93628204.02544
G21  22183925.453 7                  22183928.824 6                 116577336.987 7  90839489.35946
G22  25158707.680 6                  25158708.801 4                 132209896.83216 103020706.25744
G23  22797922.336 7  22797926.805    22797925.934 5  22797927.188 5 119803900.386 7  93353713.76345  89463958.516 5
G27  20426349.258 8  20426355.719    20426355.156 9  20426352.293 7 107341202.748 8  83642526.68449  80157406.454 7
G32  24239268.422 6  24239275.688    24239274.984 6                 127378222.481 6  99255790.77946
> 2021 01 15 00 03 30.0000000  0 10
G01  23653183.906 6  23653191.988    23653191.277 3  23653187.023 5 124298334.086 6  96855867.47143  92820202.334 5
G08  20774483.461 8  20774490.156    20774489.141 7  20774485.605 6 109170658.279 8  85068075.69647  81523561.493 6
G10  21087044.383 8  21087050.602    21087050.363 9  21087046.453 6 110813173.572 8  86347966.89749  82750160.565 6
G16  23612055.445 7                  23612058.508 4                 124082041.599 7  96687427.12644
G20  22881808.500 6                  22881811.309 4                 120244720.206 6  93697217.04944
G21  22173430.898 7                  22173433.934 6                 116522187.703 7  90796515.89646
G22  25137410.727 4                                                 132097998.715 4
G23  22814395.938 7  22814400.199    22814399.797 5  22814400.523 5 119890470.143 7  93421170.71545  89528604.760 5
G27  20432879.648 8  20432886.020    20432885.457 9  20432882.477 7 107375519.526 8  83669267.02549  80183032.622 7
G32  24222492.602 6  24222500.063    24222499.488 5                 127290066.906 6  99187098.12045
> 2021 01 15 00 04 00.0000000  0 10
G01  23634783.883 6  23634791.121    23634791.020 3  23634787.559 5 124201638.300 6  96780520.12843  92747994.496 5
G08  20766110.969 8  20766117.891    20766116.789 7  20766113.531 7 109126661.070 8  85033792.15547  81490706.442 7
G10  21092949.461 8  21092955.449    21092955.148 9  21092950.863 6 110844203.491 8  86372146.05249  82773332.260 6
G16  23633026.891 6                  23633030.574 4                 124192248.556 6  96773302.67744
G20  22898713.539 6                  22898716.789 4                 120333560.093 6  93766442.92244
G21  22162976.625 7                  22162979.824 6                 116467251.268 7  90753708.29446
G22  25116132.758 6                  25116134.867 4                 131986165.90216 102846373.36744
G23  22830930.898 7  22830934.938    22830934.305 5  22830936.133 5 119977362.256 7  93488878.83345  89593491.730 5
G27  20439495.898 8  20439502.043    20439501.625 9  20439498.531 7 107410287.253 8  83696358.74749  80208995.510 7
G32  24205746.414 6  24205753.242    24205752.441 5                 127202064.929 6  99118525.19245
> 2021 01 15 00 04 30.0000000  0 10
G01  23616408.789 6  23616416.051    23616415.621 3  23616411.363 5 124105076.856 6  96705277.48443  92675886.940 5
G08  20757813.117 8  20757819.859    20757818.820 7  20757815.703 6 109083055.144 8  84999813.51547  81458143.584 6
G10  21098953.680 8  21098959.543    21098959.547 9  21098954.965 6 110875755.854 8  86396732.30949  82796894.098 6
G16  23654026.492 6                  23654029.410 4                 124302597.622 6  96859288.95744
G20  22915671.078 6                  22915673.918 4                 120422670.290 6  93835879.43144
G21  22152563.813 7                  22152566.207 6                 116412527.899 7  90711066.72246
G22  25094864.078 6                  25094866.453 3                 131874400.070 6 102759283.13843
G23  22847526.656 7  22847530.969    22847530.203 5  22847532.250 5 120064574.053 7  93556836.08245  89658617.414 5
G27  20446197.719 8  20446204.039    20446203.375 9  20446200.453 7 107445505.614 8  83723801.62249  80235294.942 7
G32  24189030.469 6  24189037.441    24189035.766 6                 127114219.629 6  99050074.28846
> 2021 01 15 00 05 00.0000000  0 10
G01  23598059.133 6  23598066.418    23598066.355 3  23598063.047 5 124008650.707 6  96630140.22543  92603880.390 5
G08  20749589.969 8  20749596.449    20749595.668 7  20749592.672 6 109039842.374 8  84966141.22847  81425874.295 6
G10  21105056.938 8  21105063.102    21105063.012 9  21105058.684 6 110907829.351 8  86421724.64349  82820845.084 6
G16  23675051.453 6                  23675054.766 4                 124413086.313 6  96945384.02744
G20  22932680.258 6                  22932682.711 4                 120512049.734 6  93905525.74744
G21  22142190.383 7                  22142193.484 6                 116358017.631 7  90668591.20646
G22  25073608.781 6                  25073609.492 2                 131762703.03616 102672246.39242
G23  22864183.055 7  22864187.539    22864186.813 5  22864187.934 5 120152103.144 7  93625040.56645  89723980.058 5
G27  20452985.414 8  20452991.438    20452990.922 9  20452987.941 7 107481174.535 8  83751595.58049  80261930.823 7
G32  24172345.109 6  24172351.059    24172350.391 6                 127026534.040 6  98981747.84746
> 2021 01 15 00 05 30.0000000  0 10
G01  23579736.117 6  23579743.617    23579742.965 3  23579739.844 5 123912360.615 6  96555108.98643  92531975.488 5
G08  20741441.930 8  20741448.617    20741447.637 7  20741444.633 6 108997024.404 8  84932776.57147  81393899.843 6
G10  21111259.422 8  21111265.188    21111264.969 9  21111260.930 6 110940422.580 8  86447121.96449  82845184.178 6
G16  23696102.117 6                  23696106.027 4                 124523711.277 6  97031585.30544
G20  22949738.883 6                  22949741.523 4                 120601695.471 6  93975379.55044
G21  22131857.750 7                  22131860.945 6                 116303720.545 7  90626281.79046
G22  25052367.719 6                  25052369.117 4                 131651077.349 6 102585265.37444
G23  22880898.594 7  22880903.586    22880903.328 5  22880904.199 5 120239946.932 7  93693490.26045  89789577.670 5
G27  20459858.641 8  20459864.797    20459864.109 9  20459861.168 7 107517293.825 8  83779740.48049  80288903.010 7
G32  24155688.969 6  24155696.445    24155695.637 6                 126939011.183 6  98913548.23946
> 2021 01 15 00 06 00.0000000  0 10
G01  23561438.297 6  23561446.355    23561446.473 4  23561442.328 5 123816207.121 6  96480184.19044  92460172.553 5
G08  20733369.313 8  20733376.004    20733375.078 7  20733372.180 6 108954602.393 8  84899720.46647  81362221.068 6
G10  21117560.164 8  21117566.141    21117565.797 9  21117561.480 6 110973533.771 8  86472922.89349  82869910.069 6
G16  23717178.891 6                  23717182.617 4                 124634469.905 6  97117890.70944
G20  22966847.508 6                  22966850.820 4                 120691604.945 6  94045438.85744
G21  22121566.539 7                  22121568.945 6                 116249636.499 7  90584138.38346
G22  25031138.094 5                  25031140.289 3                 131539524.004 5 102498340.77643
G23  22897674.633 7  22897679.098    22897677.957 5  22897679.641 5 120328102.594 7  93762182.97445  89855408.193 5
G27  20466817.297 8  20466823.770    20466823.086 9  20466820.000 7 107553862.966 8  83808235.91349  80316211.133 7
G32  24139065.578 6  24139073.102    24139071.883 6                 126851653.779 6  98845477.55646
> 2021 01 15 00 06 30.0000000  0 10
G01  23543167.297 6  23543174.770    23543174.523 3  23543170.898 5 123720192.018 6  96405367.26543  92388473.041 5
G08  20725372.555 8  20725379.371    20725378.180 7  20725375.355 7 108912579.027 8  84866974.97847  81330839.980 7
G10  21123959.266 8  21123965.203    21123965.000 9  21123960.996 6 111007162.470 8  86499127.06149  82895022.390 6
G16  23738281.625 6                  23738284.691 4                 124745360.472 6  97204298.92644
G20  22984007.078 6                  22984010.008 4                 120781776.776 6  94115702.62744
G21  22111315.148 7                  22111317.664 6                 116195766.594 7  90542161.82446
G22  25009925.945 6                  25009926.762 3                 131428046.33216 102411475.11043
G23  22914509.500 7  22914513.484    22914513.066 5  22914514.672 5 120416568.555 7  93831117.48545  89921470.398 5
G27  20473862.055 8  20473868.285    20473867.852 9  20473864.398 7 107590882.686 8  83837082.43749  80343855.725 7
G32  24122474.844 6  24122481.379    24122480.203 6                 126764465.907 6  98777538.96146
> 2021 01 15 00 07 00.0000000  0 10
G01  23524922.906 6  23524929.688    23524929.758 3  23524925.762 5 123624314.922 6  96330657.84443  92316876.480 5
G08  20717451.813 8  20717458.699    20717457.367 7  20717454.254 7 108870954.931 8  84834540.61947  81299757.050 7
G10  21130456.414 8  21130462.668    21130462.402 9  21130458.199 6 111041306.019 8  86525732.42749  82920519.214 6
G16  23759407.000 6                  23759410.332 4                 124856379.264 6  97290807.06544
G20  23001214.875 6                  23001218.109 4                 120872207.501 6  94186168.13844
G21  22101104.648 7                  22101106.754 6                 116142109.238 7  90500350.90946
G22  24988726.117 5                  24988727.461 3                 131316645.218 5 102324668.87843
G23  22931401.469 6  22931405.977    22931405.746 5  22931406.902 5 120505341.125 6  93900290.92045  89987761.605 5
G27  20480991.984 8  20480998.379    20480997.801 9  20480994.871 7 107628351.586 8  83866278.96649  80371835.729 7
G32  24105915.766 6  24105922.398    24105920.711 6                 126677449.362 6  98709733.83746
> 2021 01 15 00 07 30.0000000  0 10
G01  23506704.172 6  23506711.918    23506711.727 3  23506707.867 5 123528577.062 6  96256056.89843  92245383.907 5
G08  20709607.000 8  20709613.957    20709612.961 7  20709609.410 7 108829731.790 8  84802418.69347  81268973.549 7
G10  21137051.477 8  21137057.645    21137057.535 9  21137053.129 6 111075963.297 8  86552738.09149  82946399.621 6
G16  23780557.398 6                  23780560.879 4                 124967524.097 6  97377413.42844
G20  23018472.773 6                  23018476.012 4                 120962895.146 6  94256833.81544
G21  22090934.469 7                  22090937.047 6                 116088665.086 7  90458706.11146
G22  24967543.273 6                  24967544.824 4                 131205322.26316 102237923.88844
G23  22948352.430 7  22948356.809    22948356.426 5  22948357.773 5 120594418.116 7  93969701.55445  90054280.159 5
G27  20488207.914 8  20488213.973    20488213.426 9  20488210.391 7 107666269.751 8  83895825.58149  80400151.228 7
G32  24089391.008 6  24089397.863    24089396.430 6                 126590607.503 6  98642064.88246
> 2021 01 15 00 08 00.0000000  0 10
G01  23488512.680 6  23488520.473    23488520.289 4  23488516.238 5 123432979.463 6  96181565.31344  92173996.170 5
G08  20701839.406 8  20701846.387    20701845.152 7  20701841.852 6 108788911.972 8  84770611.03447  81238491.206 6
G10  21143744.453 8  21143750.359    21143750.195 9  21143745.852 6 111111133.061 8  86580143.10049  82972662.746 6
G16  23801731.336 6                  23801734.184 4                 125078791.680 6  97464115.44144
G20  23035778.820 6                  23035781.547 4                 121053837.378 6  94327697.87544
G21  22080805.063 7                  22080807.668 6                 116035434.952 7  90417228.07346
G22  24946373.055 5                  24946374.613 3                 131094080.293 5 102151241.76043
G23  22965361.242 7  22965364.977    22965364.656 5  22965366.359 5 120683797.228 7  94039347.59945  90121024.305 5
G27  20495508.609 8  20495514.988    20495514.398 9  20495511.531 7 107704637.243 8  83925722.31749  80428802.269 7
G32  24072898.945 6  24072905.762    24072905.188 6                 126503943.701 6  98574534.64046
> 2021 01 15 00 08 30.0000000  0 10
G01  23470347.813 6  23470355.492    23470355.148 4  23470351.066 5 123337522.389 6  96107183.18544  92102713.25015
G08  20694148.719 8  20694155.422    20694154.199 7  20694151.031 6 108748495.998 8  84739118.07147  81208310.447 6
G10  21150534.133 8  21150540.051    21150540.047 9  21150535.902 6 111146813.221 8  86607945.82049  82999307.036 6
G16  23822927.695 6                  23822930.328 4                 125190179.508 6  97550911.14244
G20  23053132.352 6                  23053135.180 4                 121145031.630 6  94398758.30844
G21  22070716.648 7                  22070718.719 6                 115982418.085 7  90375916.23946
G22  24925219.773 5                  24925222.727 3                 130982920.363 5 102064623.61543
G23  22982425.930 7  22982430.727    22982429.480 4  22982431.828 5 120773475.355 7  94109226.67044  90187991.687 5
G27  20502895.242 8  20502901.352    20502901.016 9  20502897.895 7 107743453.141 8  83955968.46649  80457788.169 7
G32  24056441.297 6  24056448.379    24056447.695 6                 126417460.323 6  98507145.00946
> 2021 01 15 00 09 00.0000000  0 10
G01  23452209.867 6  23452217.188    23452217.414 4  23452212.867 5 123242207.073 6  96032911.51344  92031536.293 5
G08  20686534.984 8  20686541.957    20686540.672 7  20686537.309 7 108708486.167 8  84707941.57647  81178432.983 7
G10  21157420.898 8  21157426.625    21157426.496 9  21157422.191 6 111183002.668 8  86636145.39249  83026331.635 6
G16  23844146.625 6                  23844149.438 4                 125301685.316 6  97637798.78744
G20  23070533.516 6                  23070535.941 4                 121236475.895 6  94470013.58244
G21  22060667.680 7                  22060670.504 6                 115929614.669 7  90334770.70646
G22  24904085.352 6                  24904085.102 4                 130871844.90916 101978071.25244
G23  22999547.828 7  22999552.551    22999552.332 5  22999553.703 5 120863450.404 7  94179337.09345  90255180.872 5
G27  20510366.922 8  20510373.340    20510372.777 9  20510369.605 7 107782717.613 8  83986564.15749  80487109.026 7
G32  24040019.563 6  24040026.602    24040025.266 6                 126331160.912 6  98439898.73046
> 2021 01 15 00 09 30.0000000  0 10
G01  23434099.047 6  23434106.762    23434106.277 3  23434102.184 5 123147034.517 6  95958751.08143  91960465.876 5
G08  20678998.891 8  20679005.703    20679004.637 7  20679001.352 6 108668884.233 8  84677082.92647  81148860.113 6
G10  21164403.898 8  21164409.797    21164409.660 9  21164405.387 6 111219700.072 8  86664740.77649  83053735.542 6
G16  23865386.773 6                  23865390.250 4                 125413306.261 6  97724776.13644
G20  23087981.859 6                  23087984.465 4                 121328168.036 6  94541462.00844
G21  22050660.039 7                  22050663.211 6                 115877024.589 7  90293791.42846
G22  24882964.078 6                  24882964.637 3                 130760856.27016 101891586.75443
G23  23016725.367 7  23016730.023    23016729.711 4  23016730.410 5 120953720.013 7  94249677.02444  90322589.975 5
G27  20517924.398 8  20517930.266    20517929.875 9  20517926.801 7 107822430.572 8  84017509.31349  80516764.817 7
G32  24023632.039 6  24023639.875    24023638.707 6                 126245048.584 6  98372798.23246
> 2021 01 15 00 10 00.0000000  0 10
G01  23416016.266 6  23416023.582    23416023.035 4  23416019.398 5 123052004.895 6  95884702.05244  91889502.218 5
G08  20671540.969 8  20671547.734    20671546.438 7  20671543.336 7 108629690.932 8  84646542.69247  81119592.394 7
G10  21171483.430 8  21171489.590    21171489.355 9  21171484.938 6 111256903.229 8  86693730.24649  83081517.117 6
G16  23886648.867 6                  23886652.305 4                 125525039.187 6  97811840.75844
G20  23105476.930 6                  23105479.789 4                 121420105.232 6  94613101.35344
G21  22040693.609 7                  22040696.371 6                 115824647.790 7  90252978.33246
G22  24861858.047 5                  24861861.762 3
G23  23033958.789 6  23033963.473    23033962.289 4  23033963.906 5 121044280.963 6  94320243.99944  90390216.71015
G27  20525566.609 8  20525572.414    20525572.148 9  20525569.262 7 107862591.047 8  84048803.18449  80546754.757 7
G32  24007282.156 6  24007289.094    24007288.211 6                 126159125.854 6  98305845.44246
> 2021 01 15 00 10 30.0000000  0 10
G01  23397959.805 6  23397966.863    23397966.914 4  23397962.813 5 122957119.296 6  95810765.19344  91818646.009 5
G08  20664160.539 8  20664167.461    20664166.293 7  20664163.219 7 108590908.279 8  84616322.44247  81090631.314 7
G10  21178658.664 8  21178665.117    21178664.836 9  21178660.578 6 111294610.825 8  86723112.78049  83109675.369 6
G16  23907932.367 6                  23907935.027 4                 125636881.636 6  97898990.71744
G20  23123018.250 6                  23123021.313 4                 121512285.255 6  94684929.93744
G21  22030767.016 7                  22030770.375 6                 115772484.838 7  90212331.86746
G22  24840772.281 5                  24840774.012 3                 130539145.32415 101718824.92343
G23  23051246.742 7  23051251.129    23051250.203 4  23051252.820 5 121135131.059 7  94391036.27944  90458059.248 5
G27  20533293.984 8  20533300.078    20533299.555 9  20533296.664 7 107903198.938 8  84080445.68749  80577078.819 7
G32  23990967.961 6  23990975.234    23990974.555 6                 126073395.904 6  98239042.89646
> 2021 01 15 00 11 00.0000000  0 10
G01  23379931.094 6  23379938.406    23379938.480 4  23379935.258 5 122862378.368 6  95736941.13644  91747897.984 5
G08  20656858.930 8  20656865.766    20656864.449 7  20656861.648 7 108552537.798 8  84586423.37247  81061978.037 7
G10  21185930.203 8  21185936.313    21185936.141 9  21185931.953 6 111332821.174 8  86752887.08449  83138209.079 6
G16  23929235.086 6                  23929238.715 4                 125748830.879 6  97986223.86644
G20  23140605.250 6                  23140608.387 4                 121604706.046 6  94756946.13644
G21  22020881.602 7                  22020884.320 6                 115720535.481 7  90171851.84746
G22  24819705.305 6                  24819706.586 4                 130428426.96816 101632550.89744
G23  23068590.117 7  23068594.078    23068593.293 5  23068595.266 5 121226267.609 7  94462051.77845  90526115.789 5
G27  20541106.453 8  20541112.605    20541111.961 9  20541109.137 7 107944253.886 8  84112436.55149  80607736.732 7
G32  23974691.227 6  23974698.770    23974697.793 6                 125987861.716 6  98172392.89546
> 2021 01 15 00 11 30.0000000  0 10
G01  23361930.023 6  23361937.504    23361937.387 4  23361932.883 5 122767783.005 6  95663230.47844  91677258.602 5
G08  20649635.773 8  20649642.867    20649641.484 7  20649638.523 7 108514580.970 8  84556846.61947  81033633.639 7
G10  21193296.570 8  21193302.578    21193302.551 9  21193298.129 6 111371532.731 8  86783051.92749  83167117.060 6
G16  23950558.914 6                  23950561.816 4                 125860883.905 6  98073537.92444
G20  23158237.570 6                  23158240.840 4                 121697365.047 6  94829147.93344
G21  22011036.516 7                  22011039.234 6                 115668799.708 7  90131538.24346
G22  24798653.836 6                  24798654.402 3                 130317802.915 6 101546350.32443
G23  23085986.891 6  23085990.934    23085990.031 5  23085991.613 5 121317688.174 6  94533288.57445  90594384.334 5
G27  20549003.820 8  20549010.242    20549009.449 9  20549006.535 7 107985755.565 8  84144775.50749  80638728.243 7
G32  23958452.750 6  23958459.895    23958458.039 6                 125902526.338 6  98105897.81046
> 2021 01 15 00 12 00.0000000  0 10
G01  23343957.570 6  23343963.965    23343963.488 4  23343960.422 5 122673334.131 6  95589633.94844  91606728.594 5
G08  20642492.320 8  20642498.750    20642497.711 7  20642494.719 7 108477039.597 8  84527593.60247  81005599.516 7
G10  21200758.391 8  21200764.074    21200764.188 9  21200759.961 6 111410743.942 8  86813606.12349  83196398.141 6
G16  23971900.719 6                  23971903.715 4                 125973037.987 6  98160930.68944
G20  23175915.289 6                  23175917.707 4                 121790259.959 6  94901533.58044
G21  22001232.352 7                  22001234.996 6                 115617277.389 7  90091390.97446
G22  24777621.094 6                  24777622.105 3                 130207274.994 6 101460224.75443
G23  23103437.008 6  23103441.383    23103440.668 4  23103441.605 5 121409390.258 6  94604744.72344  90662863.176 5
G27  20556986.320 8  20556992.598    20556992.145 9  20556989.035 7 108027703.633 8  84177462.31049  80670053.089 7
G32  23942252.852 7  23942259.309    23942257.949 6                 125817392.887 7  98039560.04546
> 2021 01 15 00 12 30.0000000  0 10
G01  23326011.906 6  23326019.516    23326019.605 4  23326014.578 5 122579032.531 6  95516152.18744  91536308.527 5
G08  20635427.430 8  20635434.547    20635433.191 7  20635430.234 7 108439915.290 8  84498665.57047  80977876.826 7
G10  21208314.719 8  21208320.641    21208320.641 9  21208316.359 6 111450453.207 8  86844548.40349  83226051.160 6
G16  23993260.391 6                  23993264.613 3                 126085291.363 6  98248400.86243
G20  23193637.188 6                  23193640.000 4                 121883388.874 6  94974101.55544
G21  21991468.281 7                  21991471.535 6                 115565968.454 7  90051409.97946
G22  24756606.398 6                  24756607.922 3                 130096844.657 6 101374175.14543
G23  23120940.438 6  23120944.727    23120943.758 4  23120945.164 5 121501371.392 6  94676418.31544  90731550.382 5
G27  20565053.445 8  20565059.914    20565059.465 9  20565056.215 7 108070097.793 8  84210496.70349  80701711.048 7
G32  23926091.570 7  23926098.316    23926097.180 6  23926094.227 5 125732464.422 7  97973382.03146  93891189.16815
> 2021 01 15 00 13 00.0000000  0 10
G01  23308094.555 6  23308103.102    23308102.309 4  23308098.906 5 122484878.724 6  95442785.57944  91465998.945 5
G08  20628442.586 8  20628449.438    20628448.383 7  20628445.227 7 108403209.455 8  84470063.63047  80950466.612 7
G10  21215965.820 8  21215971.516    21215971.629 9  21215967.141 6 111490658.645 8  86875877.32449  83256074.703 6
G16  24014640.375 6                  24014643.879 3                 126197640.729 6  98335945.80843
G20  23211402.305 6                  23211405.457 4                 121976749.125 6  95046849.79644
G21  21981745.117 7                  21981748.379 6                 115514873.580 7  90011595.79046
G22  24735612.289 6                  24735611.402 3                 129986514.102 6 101288203.24243
G23  23138496.469 7  23138500.594    23138500.199 4  23138501.293 5 121593628.757 7  94748307.17244  90800443.818 5
G27  20573205.680 8  20573212.102    20573211.648 9  20573208.602 7 108112937.397 8  84243878.19749  80733701.651 7
G32  23909968.703 6  23909976.273    23909975.367 6  23909972.559 5 125647743.654 6  97907365.85846  93827923.671 5
> 2021 01 15 00 13 30.0000000  0 10
G01  23290207.078 6  23290213.848    23290213.824 4  23290210.695 5 122390873.853 6  95369535.06444  91395800.501 5
G08  20621537.508 8  20621544.371    20621543.328 7  20621540.313 7 108366923.708 8  84441789.01747  80923370.126 7
G10  21223710.500 8  21223716.777    21223716.777 9  21223712.273 6 111531358.868 8  86907591.78449  83286467.733 6
G16  24036037.227 6                  24036040.969 3                 126310083.491 6  98423563.53043
G20  23229212.508 6                  23229214.957 4                 122070338.372 6  95119776.46744
G21  21972063.047 7                  21972066.133 6                 115463992.532 7  89971948.21946
G22  24714636.008 6                  24714636.102 3                 129876285.466 6 101202310.83043
G23  23156104.453 6  23156108.863    23156108.621 4  23156109.438 5 121686160.108 6  94820409.52544  90869541.956 5
G27  20581442.586 8  20581448.914    20581448.586 9  20581445.367 7 108156222.307 8  84277606.68949  80766024.765 7
G32  23893887.336 7  23893894.918    23893893.699 6  23893890.684 5 125563233.900 7  97841514.13946  93764815.820 5
> 2021 01 15 00 14 00.0000000  0 10
G01  23272346.836 6  23272354.074    23272353.234 4  23272349.535 5 122297018.524 6  95296401.07044  91325713.724 5
G08  20614713.094 8  20614719.777    20614718.598 7  20614715.340 7 108331059.663 8  84413843.00447  80896588.522 7
G10  21231549.289 8  21231555.340    21231555.137 9  21231551.066 6 111572552.031 8  86939690.34349  83317228.863 6
G16  24057452.461 6                  24057455.539 3                 126422617.003 6  98511251.96643
G20  23247064.984 6                  23247067.727 4                 122164154.466 6  95192879.91144
G21  21962421.586 7                  21962424.070 6                 115413325.179 7  89932467.17646
G22  24693678.367 6                  24693680.699 3                 129766160.312 6 101116499.03443
G23  23173764.336 7  23173768.949    23173768.184 4  23173769.086 5 121778962.746 7  94892723.24944  90938842.59815
G27  20589764.148 8  20589770.395    20589769.969 9  20589766.828 7 108199951.965 8  84311681.73449  80798680.009 7
G32  23877846.617 7  23877853.164    23877852.523 6  23877848.871 5 125478938.027 7  97775829.05246  93701867.574 5
> 2021 01 15 00 14 30.0000000  0 10
G01  23254515.711 6  23254522.344    23254522.199 4  23254518.355 5 122203313.604 6  95223384.24244  91255739.300 5
G08  20607968.805 8  20607975.738    20607974.449 7  20607971.203 7 108295618.736 8  84386226.69547  80870122.906 7
G10  21239481.469 8  21239487.910    21239487.527 9  21239483.391 6 111614236.489 8  86972171.74349  83348356.845 6
G16  24078883.273 6                  24078886.328 3                 126535238.059 6  98599008.65543
G20  23264960.125 6                  23264963.586 4                 122258195.297 6  95266158.46644
G21  21952820.344 7                  21952822.945 6                 115362871.615 7  89893152.70546
G22  24672742.781 6                  24672743.605 3                 129656140.700 6 101030769.49243
G23  23191475.148 6  23191479.801    23191478.914 4  23191480.609 5 121872034.211 6  94965246.46444  91008343.973 5
G27  20598170.359 8  20598176.488    20598175.766 9  20598172.773 7 108244125.973 8  84346103.02649  80831667.107 7
G32  23861846.664 6  23861853.539    23861852.703 6  23861849.609 5 125394859.074 6  97710312.96646  93639081.370 5
> 2021 01 15 00 15 00.0000000  0 11
G01  23236713.492 6  23236719.910    23236719.219 4  23236716.328 5 122109759.874 6  95150485.24944  91185877.76615
G08  20601305.313 8  20601312.270    20601311.129 7  20601307.887 7 108260602.318 8  84358941.17547  80843974.271 7
G10  21247506.883 8  21247513.109    21247512.984 9  21247508.785 6 111656410.634 8  87005034.71449  83379850.573 6
G14  25202895.063 5  25202899.246    25202898.438 2                 132442096.95215 103201653.99042
G16  24100330.930 6                  24100334.973 4                 126647944.895 6  98686832.15444
G20  23282897.586 6                  23282900.742 4                 122352458.264 6  95339610.12244
G21  21943260.242 7                  21943262.680 6                 115312631.578 7  89854004.61846
G22  24651827.289 6                  24651828.504 3                 129546228.346 6 100945123.56243
G23  23209236.664 6  23209241.141    23209240.629 4  23209241.852 5 121965371.967 6  95037977.15744  91078044.270 5
G27  20606660.430 8  20606667.168    20606666.293 9  20606663.301 7 108288743.965 8  84380870.28749  80864985.711 7
G32  23845889.055 6  23845895.996    23845895.223 6  23845892.719 5 125311000.092 6  97644968.31446  93576459.45115
> 2021 01 15 00 15 30.0000000  0 11
G01  23218939.023 6  23218946.094    23218945.664 4  23218941.629 5 122016358.213 6  95077704.75844  91116129.822 5
G08  20594723.039 8  20594730.027    20594728.852 7  20594725.570 7 108226012.222 8  84331987.85247  80818144.007 7
G10  21255625.633 8  21255631.453    21255631.180 9  21255627.316 6 111699072.738 8  87038277.91649  83411708.621 6
G14  25185348.133 5  25185352.660    25185351.465 2                 132349888.510 5 103129803.13842
G16  24121794.008 6                  24121797.363 3                 126760734.264 6  98774719.95343
G20  23300877.211 6                  23300880.285 4                 122446941.309 6  95413233.28044
G21  21933740.430 7                  21933743.352 6                 115262605.557 7  89815023.31246
G22  24630931.945 6                  24630933.926 3                 129436425.569 6 100859562.98443
G23  23227048.391 7  23227052.754    23227052.117 4  23227053.379 5 122058973.607 7  95110913.48944  91147941.536 5
G27  20615235.469 8  20615241.906    20615241.273 9  20615238.195 7 108333805.496 8  84415983.15649  80898635.572 7
G32  23829973.461 7  23829980.609    23829979.984 6  23829976.277 5 125227364.142 7  97579797.47446  93514004.05015
> 2021 01 15 00 16 00.0000000  0 11
G01  23201194.492 6  23201201.566    23201201.004 4  23201197.105 5 121923109.341 6  95005043.30644  91046495.923 5
G08  20588222.367 8  20588229.000    20588227.961 7  20588224.668 7 108191849.597 8  84305367.60947  80792632.974 7
G10  21263836.586 8  21263842.281    21263842.004 9  21263837.871 6 111742220.994 8  87071899.93649  83443929.729 6
G14  25167857.617 6  25167861.621    25167860.547 3                 132257969.437 6 103058177.99343
G16  24143272.352 6                  24143275.430 3                 126873603.717 6  98862670.18943
G20  23318898.227 6                  23318901.012 4                 122541641.893 6  95487025.93744
G21  21924261.578 7                  21924264.359 6                 115212793.713 7  89776208.88646
G22  24610058.539 6                  24610060.191 3                 129326734.283 6 100774089.30143
G23  23244909.672 6  23244914.211    23244913.961 4  23244914.828 5 122152836.500 6  95184053.40844  91218033.960 5
G27  20623894.930 8  20623901.234    20623900.418 9  20623897.688 7 108379310.048 8  84451441.23649  80932616.199 7
G32  23814101.828 7  23814108.121    23814107.453 6  23814104.395 5 125143954.120 7  97514802.66946  93451717.327 5
> 2021 01 15 00 16 30.0000000  0 11
G01  23183478.258 6  23183485.598    23183485.008 4  23183481.594 5 121830013.477 6  94932501.07944  90976976.292 5
G08  20581802.938 8  20581809.891    20581808.586 7  20581805.387 7 108158115.623 8  84279081.39647  80767441.993 7
G10  21272139.219 8  21272145.156    21272144.984 9  21272140.500 6 111785853.221 8  87105899.07249  83476512.225 6
G14  25150420.688 5  25150425.457    25150423.434 3                 132166342.221 5 102986780.07243
G16  24164765.523 6                  24164768.887 3                 126986550.027 6  98950680.29343
G20  23336960.422 6                  23336963.484 4                 122636557.572 6  95560986.18744
G21  21914823.305 7                  21914826.191 6                 115163195.509 7  89737560.93946
G22  24589207.438 6                  24589208.102 3                 129217156.168 6 100688703.79343
G23  23262820.789 6  23262824.762    23262824.563 4  23262825.566 5 122246957.643 6  95257394.52944  91288319.234 5
G27  20632638.156 8  20632644.617    20632643.961 9  20632641.027 7 108425256.615 8  84487243.74549  80966926.943 7
G32  23798272.266 7  23798278.727    23798278.184 6  23798274.949 5 125060772.550 7  97449985.86046  93389601.224 5
> 2021 01 15 00 17 00.0000000  0 11
G01  23165792.609 6  23165799.777    23165799.441 4  23165795.465 5 121737071.939 6  94860079.10244  90907571.932 5
G08  20575465.484 8  20575472.406    20575471.383 7  20575467.762 6 108124812.699 8  84253131.06247  80742572.915 6
G10  21280534.000 8  21280540.039    21280540.055 9  21280535.578 6 111829968.011 8  87140274.23849  83509455.069 6
G14  25133040.914 5  25133045.008    25133044.414 3                 132075009.889 5 102915612.08643
G16  24186271.625 6                  24186276.105 3                 127099571.042 6  99038748.58743
G20  23355062.352 6                  23355065.684 4                 122731686.339 6  95635112.49544
G21  21905425.734 7                  21905428.621 6                 115113810.995 7  89699079.52146
G22  24568376.266 6                  24568378.457 3                 129107693.251 6 100603408.04043
G23  23280779.820 7  23280784.105    23280783.660 4  23280785.246 5 122341334.847 7  95330935.21244  91358795.720 5
G27  20641466.047 8  20641472.000    20641471.551 9  20641468.441 7 108471645.088 8  84523390.59649  81001567.672 7
G32  23782486.859 7  23782494.758    23782492.270 6  23782489.789 5 124977822.824 7  97385349.70846  93327658.262 5
> 2021 01 15 00 17 30.0000000  0 11
G01  23148135.664 6  23148143.023    23148143.008 4  23148139.035 5 121644285.377 6  94787777.92844  90838283.310 5
G08  20569210.508 8  20569217.383    20569216.297 7  20569212.777 7 108091941.599 8  84227517.20747  80718026.319 7
G10  21289020.172 8  21289026.246    21289026.316 9  21289021.836 6 111874563.524 8  87175023.99549  83542756.947 6
G14  25115717.539 6  25115721.980    25115720.984 3                 131983974.876 6 102844675.62043
G16  24207794.313 6                  24207796.551 3                 127212663.182 6  99126872.30543
G20  23373205.656 6                  23373208.098 4                 122827025.718 6  95709402.90444
G21  21896069.141 8                  21896071.625 6                 115064640.141 8  89660764.57946
G22  24547568.703 6                  24547569.871 3                 128998347.176 6 100518203.36343
G23  23298787.594 7  23298792.070    23298791.371 4  23298792.934 5 122435965.555 7  95404673.43344  91429461.531 5
G27  20650377.250 8  20650383.477    20650382.984 9  20650379.941 7 108518474.921 8  84559881.36249  81036537.998 7
G32  23766746.703 6  23766754.176    23766753.094 6  23766749.465 5 124895107.800 6  97320896.44546  93265890.577 5
> 2021 01 15 00 18 00.0000000  0 11
G01  23130508.414 6  23130516.059    23130515.762 4  23130511.785 5 121551654.871 6  94715598.34344  90769111.198 5
G08  20563037.938 8  20563044.563    20563043.520 7  20563040.152 7 108059504.070 8  84202241.21247  80693803.480 7
G10  21297597.781 8  21297603.816    21297603.996 9  21297599.434 6 111919638.300 8  87210147.20149  83576416.675 6
G14  25098450.430 5  25098455.488    25098454.801 3                 131893240.154 5 102773973.32143
G16  24229327.164 6                  24229330.238 3                 127325824.938 6  99215050.33543
G20  23391386.898 6                  23391389.914 4                 122922573.830 6  95783855.97344
G21  21886752.820 7                  21886755.684 6                 115015683.596 7  89622616.63546
G22  24526783.602 6                  24526784.684 3                 128889119.940 6 100433091.20143
G23  23316843.422 6  23316847.320    23316846.414 4  23316848.434 5 122530847.604 6  95478607.49344  91500314.972 5
G27  20659372.414 8  20659378.816    20659378.262 9  20659375.348 7 108565745.901 8  84596715.88949  81071837.751 7
G32  23751052.531 6  23751059.453    23751058.820 6  23751055.055 5 124812630.887 6  97256628.73446  93204300.661 5
> 2021 01 15 00 18 30.0000000  0 11
G01  23112910.945 6  23112918.633    23112918.258 4  23112913.535 5 121459180.815 6  94643540.66844  90700055.944 5
G08  20556947.859 8  20556954.547    20556953.484 7  20556950.102 7 108027501.030 8  84177303.77147  80669905.112 7
G10  21306266.234 8  21306271.797    21306271.980 9  21306267.582 6 111965190.225 8  87245642.21049  83610432.729 6
G14  25081242.180 5  25081246.363    25081245.758 3                 131802808.071 5 102703506.69943
G16  24250873.484 6                  24250877.133 3                 127439053.430 6  99303280.30943
G20  23409608.648 6                  23409611.543 4                 123018328.267 6  95858469.84044
G21  21877477.391 8                  21877480.137 6                 114966941.006 8  89584635.39546
G22  24506020.891 6                  24506022.473 3                 128780013.345 6 100348073.13943
G23  23334946.031 6  23334950.098    23334949.281 4  23334951.070 5 122625978.032 6  95552735.11344  91571353.936 5
G27  20668451.438 8  20668457.680    20668457.391 9  20668454.316 7 108613457.100 8  84633893.43849  81107466.219 7
G32  23735403.742 7  23735410.238    23735409.469 6  23735406.223 5 124730394.610 7  97192548.52746  93142890.451 5
> 2021 01 15 00 19 00.0000000  0 11
G01  23095343.797 6  23095351.602    23095351.027 4  23095346.332 5 121366864.148 6  94571605.62944  90631118.129 5
G08  20550941.375 8  20550947.754    20550946.746 7  20550943.539 7 107995934.642 8  84152706.58447  80646332.807 7
G10  21315024.586 8  21315030.367    21315030.297 9  21315026.613 6 112011217.506 8  87281507.62749  83644803.772 6
G14  25064092.195 6  25064096.023    25064095.172 3                 131712681.218 6 102633277.97143
G16  24272433.508 6                  24272435.961 3                 127552345.811 6  99391560.08343
G20  23427869.031 6                  23427871.871 4                 123114286.236 6  95933242.28044
G21  21868242.484 8                  21868245.125 6                 114918412.046 8  89546820.63346
G22  24485282.156 6                  24485283.453 3                 128671029.247 6 100263150.46143
G23  23353095.422 6  23353099.938    23353099.160 4  23353100.645 5 122721354.417 6  95627054.38144  91642576.550 5
G27  20677614.492 8  20677620.793    20677620.156 9  20677617.359 7 108661608.069 8  84671413.67049  81143423.129 7
G32  23719800.250 6  23719807.430    23719806.566 6  23719803.988 5 124648402.048 6  97128658.22946  93081662.257 5
> 2021 01 15 00 19 30.0000000  0 11
G01  23077806.211 6  23077814.477    23077813.988 4  23077809.789 5 121274705.566 6  94499793.76644  90562298.467 5
G08  20545017.508 8  20545024.160    20545023.230 7  20545020.008 7 107964806.054 8  84128450.52947  80623087.398 7
G10  21323873.563 8  21323879.426    21323879.027 9  21323875.129 6 112057718.392 8  87317742.09349  83679528.458 6
G14  25047000.742 6  25047004.313    25047003.563 3                 131622862.337 6 102563289.20243
G16  24294003.156 6                  24294006.727 3                 127665698.914 6  99479887.16043
G20  23446167.289 6                  23446170.367 4                 123210446.030 6  96008172.01244
G21  21859048.625 8                  21859051.355 6                 114870097.245 8  89509172.74546
G22  24464567.000 6                  24464568.164 3                 128562169.696 6 100178324.88043
G23  23371291.656 6  23371295.770    23371295.328 4  23371296.105 5 122816974.397 6  95701563.44144  91713981.080 5
G27  20686861.125 8  20686866.871    20686866.434 9  20686863.613 7 108710198.301 8  84709276.18849  81179708.029 7
G32  23704244.461 6  23704251.551    23704250.676 6  23704247.645 5 124566656.215 6  97064960.18246  93020618.33215
> 2021 01 15 00 20 00.0000000  0 11
G01  23060299.461 6  23060307.027    23060307.156 4  23060303.574 5 121182705.889 6  94428105.72744  90493597.449 5
G08  20539177.422 8  20539184.043    20539183.156 7  20539179.637 7 107934116.421 8  84104536.52447  80600169.813 7
G10  21332812.047 8  21332818.180    21332817.969 9  21332813.645 6 112104691.002 8  87354344.13349  83714605.398 6
G14  25029967.266 6  25029971.277    25029971.133 2                 131533354.020 6 102493542.51842
G16  24315584.102 6                  24315587.883 3                 127779110.644 6  99568259.94443
G20  23464504.320 6                  23464506.867 3                 123306805.338 6  96083257.16943
G21  21849895.141 8                  21849897.977 6                 114821996.513 8  89471691.65946
G22  24443875.625 6                  24443877.000 4                 128453436.490 6 100093597.71044
G23  23389533.000 7  23389537.469    23389536.965 4  23389537.520 5 122912835.282 7  95776260.21244  91785565.560 5
G27  20696190.867 8  20696197.160    20696196.316 9  20696193.188 7 108759227.150 8  84747480.47349  81216320.469 7
G32  23688736.930 6  23688743.441    23688742.625 6  23688739.363 5 124485160.027 6  97001456.67146  92959760.743 5
> 2021 01 15 00 20 30.0000000  0 11
G01  23042823.344 6  23042830.141    23042829.848 4  23042826.066 5 121090865.601 6  94356541.86344  90425015.418 5
G08  20533421.008 8  20533427.977    20533426.973 7  20533423.621 7 107903867.462 8  84080965.89947  80577581.299 7
G10  21341840.195 8  21341846.016    21341846.039 9  21341841.379 6 112152133.211 8  87391312.08449  83750033.017 6
G14  25012994.289 5  25012998.340    25012998.254 3                 131444158.627 5 102424039.53843
G16  24337176.711 6                  24337179.949 3                 127892577.997 6  99656676.04243
G20  23482878.328 6                  23482881.453 3                 123403361.488 6  96158495.70143
G21  21840782.430 8                  21840785.406 6                 114774109.231 8  89434376.90446
G22  24423208.781 6                  24423209.801 4                 128344831.172 6 100008970.23444
G23  23407819.984 6  23407824.586    23407823.957 4  23407824.715 5 123008934.319 6  95851142.59244  91857327.808 5
G27  20705603.867 8  20705610.359    20705609.531 9  20705606.465 7 108808693.730 8  84786025.85749  81253259.788 7
G32  23673277.102 7  23673283.582    23673282.906 6  23673279.422 5 124403916.218 7  96938149.81246  92899091.711 5
> 2021 01 15 00 21 00.0000000  0 11
G01  23025377.063 6  23025383.926    23025383.863 4  23025379.773 5 120999185.925 6  94285103.17444  90356553.367 5
G08  20527749.008 8  20527755.887    20527754.813 7  20527751.875 7 107874060.497 8  84057739.68147  80555322.845 7
G10  21350957.055 8  21350963.359    21350963.016 9  21350958.367 6 112200043.579 8  87428644.84149  83785810.250 6
G14  24996081.492 6  24996084.395    24996083.059 3                 131355279.02316 102354782.65043
G16  24358778.945 6                  24358782.078 3                 128006098.397 6  99745133.49843
G20  23501289.633 6                  23501292.219 3                 123500112.841 6  96233886.36143
G21  21831710.641 8                  21831713.496 6                 114726436.265 8  89397229.14346
G22  24402565.641 6                  24402568.383 4                 128236356.096 6  99924444.17944
G23  23426152.133 7  23426156.484    23426156.223 4  23426157.398 5 123105269.472 7  95926208.93644  91929266.352 5
G27  20715100.492 8  20715106.828    20715106.102 9  20715103.195 7 108858597.921 8  84824912.22749  81290525.882 7
G32  23657864.484 6  23657872.195    23657871.172 6  23657868.145 5 124322928.132 6  96875042.23146  92838613.594 5
> 2021 01 15 00 21 30.0000000  0 11
G01  23007961.023 6  23007968.672    23007968.477 4  23007965.609 5 120907667.553 6  94213790.18544  90288211.688 5
G08  20522161.383 8  20522168.102    20522167.445 7  20522163.738 7 107844697.307 8  84034859.26347  80533395.781 7
G10  21360162.859 8  21360168.867    21360168.445 9  21360164.574 6 112248420.245 8  87466340.95049  83821935.703 6
G14  24979228.234 6  24979232.332    24979232.043 3                 131266717.92616 102285774.05043
G16  24380389.906 6                  24380394.043 3                 128119669.359 6  99833630.29443
G20  23519737.078 6                  23519740.000 3                 123597056.914 6  96309427.19343
G21  21822679.477 8                  21822682.414 6                 114678977.227 8  89360248.08546
G22  24381949.609 6                  24381950.688 4                 128128013.178 6  99840021.15944
G23  23444528.242 6  23444532.824    23444532.164 4  23444533.711 5 123201838.175 6  96001457.26044  92001379.358 5
G27  20724679.961 8  20724686.445    20724685.805 9  20724682.844 7 108908939.048 8  84864139.08449  81328118.283 7
G32  23642502.609 6  23642509.508    23642508.238 6  23642506.184 5 124242198.696 6  96812136.18946  92778328.694 5
> 2021 01 15 00 22 00.0000000  0 11
G01  22990576.844 6  22990584.195    22990583.848 4  22990580.988 5 120816311.363 6  94142603.53344  90219991.239 5
G08  20516658.313 8  20516665.293    20516664.273 7  20516660.988 7 107815778.978 8  84012325.49647  80511800.901 7
G10  21369456.805 8  21369462.836    21369462.605 9  21369458.617 6 112297261.352 8  87504398.96349  83858407.951 6
G14  24962436.680 5  24962441.578    24962439.727 2                 131178478.06315 102217015.68242
G16  24402011.336 6                  24402013.871 3                 128233288.176 6  99922164.47143
G20  23538221.891 6                  23538224.199 3                 123694191.253 6  96385116.28443
G21  21813689.039 8                  21813691.961 6                 114631732.325 8  89323433.88346
G22  24361357.641 6                  24361359.434 3                 128019804.439 6  99755702.66043
G23  23462948.828 6  23462952.977    23462952.582 4  23462953.984 5 123298637.997 6  96076885.70044  92073664.930 5
G27  20734342.602 8  20734348.984    20734348.434 9  20734345.664 7 108959716.526 8  84903705.94749  81366036.564 7
G32  23627189.820 7  23627196.750    23627195.461 6  23627192.957 5 124161730.908 7  96749434.01946  92718239.07415
> 2021 01 15 00 22 30.0000000  0 11
G01  22973223.656 6  22973230.832    22973230.809 4  22973226.715 5 120725118.049 6  94071543.85544  90151892.359 5
G08  20511240.516 8  20511247.418    20511246.207 7  20511243.039 7 107787307.076 8  83990139.59647  80490539.432 7
G10  21378839.055 8  21378845.141    21378844.676 9  21378840.730 6 112346564.979 8  87542817.37349  83895225.606 6
G14  24945705.203 5  24945709.031    24945710.605 2                 131090561.992 5 102148509.55642
G16  24423641.633 6                  24423644.355 3                 128346952.747 6 100010734.29543
G20  23556741.422 6                  23556743.742 3                 123791514.214 6  96460952.36943
G21  21804739.781 8                  21804742.426 6                 114584701.758 8  89286786.69046
G22  24340791.742 6                  24340792.973 4                 127911731.321 6  99671489.84344
G23  23481413.180 6  23481417.090    23481416.336 4  23481417.879 5 123395666.382 6  96152492.24244  92146121.143 5
G27  20744088.078 8  20744094.563    20744094.027 9  20744090.895 7 109010929.710 8  84943612.31649  81404280.145 7
G32  23611928.203 7  23611934.934    23611933.992 6  23611930.293 5 124081527.686 7  96686937.99746  92658347.06515
> 2021 01 15 00 23 00.0000000  0 11
G01  22955901.625 6  22955908.484    22955908.434 4  22955904.332 5 120634088.211 6  94000611.50144  90083915.518 5
G08  20505907.586 8  20505914.430    20505913.324 7  20505910.242 7 107759282.926 8  83968302.58947  80469612.308 7
G10  21388308.969 8  21388314.918    21388314.758 9  21388310.813 6 112396329.021 8  87581594.55649  83932387.052 6
G14  24929039.164 6  24929043.617    24929042.395 3  24929044.063 5 131002971.94016 102080257.58443  97826909.52215
G16  24445279.594 6                  24445282.930 3                 128460660.130 6 100099337.42143
G20  23575296.391 6                  23575298.906 3                 123889022.970 6  96536933.23843
G21  21795830.195 8                  21795833.547 6                 114537885.129 8  89250306.21046
G22  24320253.563 6                  24320254.125 4                 127803795.911 6  99587384.35344
G23  23499919.344 6  23499924.242    23499923.387 4  23499924.918 5 123492920.631 6  96228274.74244  92218746.107 5
G27  20753916.258 8  20753922.633    20753922.262 9  20753919.184 6 109062577.680 8  84983857.49049  81442848.433 6
G32  23596716.977 6  23596723.605    23596723.109 6  23596719.266 5 124001591.774 6  96624650.28446  92598654.645 5
> 2021 01 15 00 23 30.0000000  0 11
G01  22938610.117 6  22938617.785    22938617.461 4  22938612.547 5 120543222.848 6  93929807.34144  90016061.569 5
G08  20500660.289 8  20500667.355    20500666.035 7  20500662.750 7 107731707.727 8  83946815.41647  80449020.435 7
G10  21397865.891 8  21397872.188    21397872.020 9  21397867.457 6 112446551.851 8  87620729.22349  83969891.134 6
G14  24912434.375 6  24912438.098    24912435.734 3                 130915710.81216 102012261.85143
G16  24466924.000 6                  24466927.711 3                 128574407.509 6 100187971.74643
G20  23593886.547 6                  23593888.840 3                 123986715.448 6  96613057.21243
G21  21786962.500 8                  21786965.184 6                 114491282.608 8  89213992.56946
G22  24299740.328 6                  24299741.234 4                 127695999.998 6  99503387.56244
G23  23518468.617 6  23518473.785    23518472.746 4  23518474.059 5 123590398.549 6  96304231.58044  92291538.048 5
G27  20763827.391 8  20763833.828    20763833.027 9  20763830.074 6 109114660.094 8  85024441.17849  81481741.148 6
G32  23581556.695 7  23581563.934    23581563.168 6  23581559.578 5 123921926.376 7  96562573.35746  92539164.275 5
> 2021 01 15 00 24 00.0000000  0 11
G01  22921350.461 6  22921357.629    22921357.723 4  22921353.219 5 120452522.556 6  93859131.79744  89948330.838 5
G08  20495498.719 8  20495505.156    20495504.531 7  20495500.930 7 107704582.660 8  83925678.99247  80428764.694 7
G10  21407509.930 8  21407516.188    21407516.133 9  21407511.086 6 112497231.300 8  87660219.70749  84007736.158 6
G14  24895892.695 6  24895896.559    24895895.938 3                 130828781.133 6 101944524.55643
G16  24488576.875 6                  24488580.105 3                 128688192.000 6 100276635.01243
G20  23612511.570 6                  23612514.457 3                 124084589.641 6  96689322.81243
G21  21778135.297 8                  21778137.516 6                 114444893.784 8  89177845.42546
G22  24279253.539 6                  24279255.031 4                 127588345.341 6  99419500.82844
G23  23537060.211 6  23537065.070    23537064.195 4  23537065.852 5 123688097.424 6  96380360.55644  92364495.013 5
G27  20773820.836 8  20773827.180    20773826.477 9  20773823.723 7 109167176.055 8  85065362.69749  81520957.595 7
G32  23566448.633 6  23566455.988    23566455.039 6  23566452.457 5 123842534.154 6  96500709.31346  92479877.897 5
> 2021 01 15 00 24 30.0000000  0 11
G01  22904121.508 6  22904129.793    22904129.586 4  22904125.383 5 120361988.189 6  93788585.57844  89880724.015 5
G08  20490422.805 8  20490429.723    20490428.691 7  20490425.461 7 107677909.997 8  83904895.10447  80408846.780 7
G10  21417240.344 8  21417246.355    21417246.633 9  21417241.852 6 112548365.610 8  87700064.61649  84045920.894 6
G14  24879412.773 6  24879418.051    24879416.438 3                 130742185.522 6 101877047.36743
G16  24510237.000 6                  24510239.082 3                 128802010.920 6 100365324.99743
G20  23631170.273 6                  23631173.309 3                 124182643.384 6  96765728.31243
G21  21769348.297 8                  21769350.785 6                 114398719.218 8  89141865.25146
G22  24258795.031 6                  24258797.059 4                 127480834.015 6  99335725.76544
G23  23555693.156 6  23555697.965    23555697.246 4  23555698.801 5 123786014.891 6  96456659.87944  92437615.193 5
G27  20783896.750 8  20783903.133    20783902.469 9  20783899.422 6 109220124.979 8  85106621.59649  81560497.357 6
G32  23551394.203 7  23551400.469    23551399.320 6  23551396.594 5 123763418.287 7  96439060.57946  92420797.884 5
> 2021 01 15 00 25 00.0000000  0 11
G01  22886925.344 6  22886933.637    22886932.887 4  22886928.777 5 120271620.389 6  93718169.14544  89813241.590 5
G08  20485433.250 8  20485440.211    20485439.195 7  20485435.934 7 107651690.162 8  83884464.06147  80389267.050 7
G10  21427057.094 8  21427063.102    21427062.801 9  21427058.797 6 112599952.644 8  87740262.31149  84084443.675 6
G14  24862994.938 5  24863002.125    24863000.918 2                                 101809837.45042
G16  24531901.148 6                  24531904.063 3                 128915862.031 6 100454040.14943
G20  23649863.117 6                  23649866.137 3                 124280873.999 6  96842271.67743
G21  21760602.828 8                  21760604.852 6                 114352758.883 8  89106052.00046
G22  24238364.453 6                  24238365.500 4                 127373467.749 6  99252063.77344
G23  23574366.633 6  23574372.000    23574371.844 4  23574373.395 5 123884148.352 6  96533127.50444  92510896.634 5
G27  20794054.891 8  20794061.305    20794060.695 9  20794057.500 7 109273505.975 8  85148217.16449  81600359.796 7
G32  23536390.914 7  23536398.281    23536397.199 6  23536394.246 5 123684581.452 7  96377629.27446  92361926.189 5
> 2021 01 15 00 25 30.0000000  0 11
G01  22869760.867 6  22869768.508    22869768.211 4  22869763.926 5 120181420.349 6  93647883.40044  89745884.515 5
G08  20480530.445 8  20480537.172    20480536.227 7  20480533.059 7 107625924.884 8  83864387.21047  80370026.725 7
G10  21436959.547 8  21436965.605    21436965.410 9  21436961.305 6 112651990.899 8  87780811.60749  84123303.414 6
G14  24846648.672 6  24846652.980    24846651.992 3                 130570006.89716 101742882.13543
G16  24553572.438 6                  24553574.945 3                 129029742.467 6 100542778.18643
G20  23668589.969 6                  23668592.023 3                 124379279.663 6  96918951.40143
G21  21751897.047 8                  21751899.863 6                 114307013.013 8  89070405.86746
G22  24217960.406 6                  24217962.203 4                 127266248.533 6  99168516.33944
G23  23593082.609 6  23593087.039    23593086.461 4  23593088.211 5 123982495.747 6  96609761.82544  92584337.852 5
G27  20804295.516 8  20804301.648    20804300.953 9  20804297.742 7 109327318.854 8  85190149.26749  81640544.726 7
G32  23521442.672 6  23521450.043    23521449.520 6  23521444.973 5 123606027.031 6  96316418.04646  92303265.425 5
> 2021 01 15 00 26 00.0000000  0 11
G01  22852628.547 6  22852636.176    22852635.789 4  22852631.570 5 120091388.540 6  93577728.77444  89678652.916 5
G08  20475714.336 8  20475720.926    20475719.934 7  20475716.738 7 107600615.370 8  83844665.51847  80351126.773 7
G10  21446947.539 8  21446953.539    21446953.469 9  21446949.707 6 112704478.104 8  87821710.73849  84162498.405 6
G14  24830364.656 6  24830368.734    24830367.461 3                 130484429.006 6 101676198.04743
G16  24575248.070 6                  24575251.051 3                 129143650.064 6 100631537.33943
G20  23687348.273 6                  23687350.762 3                 124477858.105 6  96995765.77343
G21  21743232.641 8                  21743235.605 6                 114261481.236 8  89034926.57046
G22  24197586.578 6                  24197587.762 4                 127159177.924 6  99085084.69144
G23  23611837.531 6  23611842.020    23611840.957 4  23611842.785 5 124081054.238 6  96686560.65644  92657936.772 5
G27  20814617.258 8  20814623.566    20814623.109 9  20814620.082 7 109381562.501 8  85232417.03749  81681051.315 7
G32  23506548.664 7  23506555.539    23506554.887 6  23506551.410 5 123527757.534 7  96255428.85946  92244817.460 5
> 2021 01 15 00 26 30.0000000  0 11
G01  22835528.336 7  22835535.840    22835535.832 5  22835531.926 5 120001525.735 7  93507705.82545  89611547.604 5
G08  20470984.719 8  20470991.762    20470990.641 7  20470987.297 7 107575763.041 8  83825300.06447  80332568.219 7
G10  21457020.820 8  21457026.863    21457026.516 9  21457022.422 6 112757412.363 8  87862958.20549  84202027.193 6
G14  24814144.680 6  24814148.109    24814146.883 3                 130399195.643 6 101609782.44043
G16  24596928.563 6                  24596931.969 3                 129257582.164 6 100720315.60043
G20  23706139.539 6                  23706142.355 3                 124576606.708 6  97072712.75643
G21  21734609.125 8                  21734611.711 6                 114216163.735 8  88999614.23846
G22  24177239.484 6                  24177241.723 4                 127052258.007 6  99001770.48244
G23  23630632.133 6  23630636.945    23630636.285 4  23630637.465 5 124179821.492 6  96763522.17744  92731691.551 5
G27  20825021.281 8  20825027.602    20825027.152 9  20825024.070 7 109436236.254 8  85275019.94449  81721879.109 7
G32  23491709.953 7  23491716.469    23491715.641 6  23491712.762 5 123449776.107 7  96194664.12246  92186584.537 5
> 2021 01 15 00 27 00.0000000  0 11
G01  22818460.180 7  22818467.504    22818467.152 4  22818462.742 5 119911832.716 7  93437815.17744  89544569.049 5
G08  20466342.969 8  20466349.652    20466348.582 7  20466345.430 7 107551369.037 8  83806291.74547  80314351.908 7
G10  21467178.109 8  21467184.684    21467184.613 9  21467180.074 6 112810791.594 8  87904552.41049  84241888.323 6
G14  24797991.234 6  24797995.742    24797994.250 3                 130314309.117 6 101543637.15543
G16  24618612.602 6                  24618615.746 3                 129371535.087 6 100809110.14243
G20  23724962.859 5                  23724965.957 3                 124675523.991 5  97149791.14743
G21  21726026.172 8                  21726029.090 6                 114171060.470 8  88964468.84846
G22  24156923.578 6                  24156924.113 4                 126945490.715 6  98918575.21044
G23  23649466.781 6  23649471.059    23649470.176 4  23649471.367 5 124278794.953 6  96840644.33444  92805600.276 5
G27  20835507.039 8  20835513.516    20835512.805 9  20835510.004 7 109491339.216 8  85317957.31349  81763027.434 7
G32  23476925.992 7  23476931.941    23476931.145 6  23476928.746 5 123372085.464 7  96134125.96546  92128568.918 5
> 2021 01 15 00 27 30.0000000  0 11
G01  22801424.414 6  22801431.703    22801431.605 4  22801427.836 5 119822310.002 6  93368057.23444  89477717.698 5
G08  20461788.383 8  20461795.359    20461794.203 7  20461790.852 7 107527434.873 8  83787641.75047  80296478.982 7
G10  21477420.609 8  21477426.527    21477426.426 9  21477422.125 6 112864613.678 8  87946491.69449  84282080.144 6
G14  24781903.586 5  24781908.523    24781906.180 3                 130229771.793 5 101477763.85943
G16  24640301.320 6                  24640304.590 3                 129485507.35516 100897919.63043
G20  23743817.633 5                  23743820.773 2                 124774607.349 5  97226998.92842
G21  21717483.742 8                  21717487.066 6                 114126171.264 8  88929490.25246
G22  24136634.961 6                  24136636.734 4                 126838877.295 6  98835499.82244
G23  23668339.445 6  23668343.879    23668342.992 4  23668344.586 5 124377971.978 6  96917925.15544  92879661.027 5
G27  20846074.125 8  20846080.805    20846080.105 9  20846077.152 7 109546870.621 8  85361228.53149  81804495.660 7
G32  23462196.984 7  23462204.434    23462202.941 6  23462199.984 5 123294688.337 7  96073816.52846  92070772.312 5
> 2021 01 15 00 28 00.0000000  0 11
G01  22784421.555 6  22784429.063    22784428.727 4  22784424.602 5 119732958.993 6  93298433.08844  89410994.586 5
G08  20457321.781 8  20457328.426    20457327.488 7  20457323.895 7 107503961.811 8  83769351.04547  80278950.422 7
G10  21487746.633 8  21487752.570    21487752.461 9  21487747.801 6 112918877.170 8  87988774.94149  84322601.601 6
G14  24765882.930 5  24765887.324    24765887.645 2                 130145586.945 5 101412165.24642
G16  24661992.922 5                  24661995.824 3                 129599496.030 5 100986742.01843
G20  23762704.242 5                  23762706.945 3                 124873855.266 5  97304334.98643
G21  21708982.523 8                  21708985.668 6                 114081496.622 8  88894678.85446
G22  24116377.328 6                  24116378.488 4                 126732420.308 6  98752546.36044
G23  23687250.734 6  23687255.070    23687254.262 4  23687255.285 5 124477350.759 6  96995363.14544  92953872.463 5
G27  20856723.078 8  20856729.418    20856728.801 9  20856725.672 7 109602830.232 8  85404833.40849  81846283.672 7
G32  23447525.414 7  23447532.586    23447531.898 6  23447528.305 5 123217588.223 7  96013738.52846  92013197.599 5
> 2021 01 15 00 28 30.0000000  0 11
G01  22767451.773 6  22767458.715    22767458.602 5  22767454.895 5 119643780.220 6  93228943.15545  89344400.068 5
G08  20452943.000 8  20452949.703    20452948.680 7  20452945.352 7 107480951.089 8  83751420.61347  80261767.075 7
G10  21498155.898 8  21498162.051    21498161.676 9  21498157.898 6 112973579.904 8  88031400.45049  84363451.028 6
G14  24749929.648 5  24749936.902    24749936.336 3                 130061756.899 5 101346843.13943
G16  24683686.375 5                  24683690.047 3                 129713498.665 5 101075575.18643
G20  23781620.867 6                  23781623.707 2                 124973264.999 6  97381797.10442
G21  21700521.813 8                  21700524.961 6                 114037036.281 8  88860034.44446
G22  24096148.844 6                  24096150.000 4                 126626121.533 6  98669716.13644
G23  23706199.453 6  23706204.066    23706203.449 4  23706204.625 5 124576928.626 6  97072956.28944  93028232.552 5
G27  20867453.305 8  20867459.512    20867458.887 9  20867455.793 6 109659217.009 8  85448771.14749  81888390.669 6
G32  23432911.164 7  23432918.199    23432917.297 6  23432913.668 5 123140787.832 7  95953894.08346  91955846.677 5
> 2021 01 15 00 29 00.0000000  0 11
G01  22750513.633 6  22750521.750    22750521.500 4  22750517.582 5 119554774.382 6  93159587.95844  89277934.675 5
G08  20448652.352 8  20448659.074    20448658.117 7  20448654.781 7 107458404.025 8  83733851.47747  80244929.987 7
G10  21508648.625 8  21508654.945    21508654.512 9  21508650.574 6 113028719.574 8  88074366.43349  84404626.762 6
G14  24734047.570 6  24734052.102    24734050.824 3                 129978283.820 6 101281799.10443
G16  24705383.625 6                  24705386.070 3                 129827512.761 6 101164417.35743
G20  23800568.859 6                  23800571.594 3                 125072834.020 6  97459383.32543
G21  21692102.352 8                  21692105.266 6                 113992790.148 8  88825556.94846
G22  24075951.859 6                  24075952.113 4                 126519982.492 6  98587010.40844
G23  23725186.023 6  23725190.219    23725190.020 4  23725190.836 5 124676702.834 6  97150702.43344  93102739.332 5
G27  20878264.664 8  20878270.527    20878270.199 9  20878267.070 7 109716029.945 8  85493040.94549  81930815.911 7
G32  23418353.891 7  23418360.816    23418360.117 6  23418357.184 5 123064289.713 7  95894285.19146  91898721.471 5
> 2021 01 15 00 29 30.0000000  0 11
G01  22733610.508 6  22733617.035    22733617.328 4  22733613.621 5 119465942.065 6  93090368.00944  89211598.891 5
G08  20444450.156 8  20444457.113    20444456.098 7  20444452.695 7 107436321.746 8  83716644.50247  80228439.973 7
G10  21519224.234 8  21519230.188    21519230.285 9  21519225.641 6 113084294.379 8  88117671.48049  84446127.427 6
G14  24718232.102 6  24718235.789    24718234.898 3                 129895170.529 6 101217035.45943
G16  24727079.766 5                  24727083.547 3                 129941535.187 5 101253265.98643
G20  23819545.461 6                  23819548.035 3                 125172560.161 6  97537092.04343
G21  21683723.898 8                  21683726.199 6                 113948758.436 8  88791246.53346
G22  24055784.711 6                  24055785.727 4                 126414005.120 6  98504430.63444
G23  23744208.359 6  23744213.781    23744213.293 3  23744214.227 5 124776671.209 6  97228599.85443  93177390.997 5
G27  20889156.617 8  20889162.938    20889162.324 9  20889159.570 6 109773268.377 8  85537642.30549  81973558.857 6
G32  23403854.852 7  23403861.996    23403860.773 6  23403857.684 5 122988096.998 7  95834914.25046  91841824.353 5
> 2021 01 15 00 30 00.0000000  0 11
G01  22716738.781 6  22716745.926    22716745.938 4  22716742.352 5 119377284.068 6  93021283.86744  89145393.293 5
G08  20440336.594 8  20440343.645    20440342.445 7  20440339.262 7 107414705.275 8  83699800.50447  80212297.804 7
G10  21529882.539 8  21529888.500    21529888.180 9  21529883.828 6 113140302.090 8  88161313.84949  84487951.381 6
G14  24702486.172 6  24702488.008    24702488.418 3                 129812419.263 6 101152554.00243
G16  24748780.102 6                  24748782.141 3                 130055563.620 6 101342119.31443
G20  23838552.492 6                  23838554.910 3                 125272441.926 6  97614921.94243
G21  21675385.148 8                  21675387.926 6                 113904940.717 8  88757102.86646
G22  24035648.578 6                  24035650.582 4                 126308191.140 6  98421978.20444
G23  23763268.773 6  23763273.645    23763272.688 3  23763274.770 5 124876831.121 6  97306646.50643  93252185.760 5
G27  20900129.539 8  20900135.816    20900135.266 9  20900132.414 7 109830931.294 8  85582574.43849  82016618.810 7
G32  23389414.844 7  23389421.391    23389420.215 6  23389417.457 5 122912212.345 7  95775783.36446  91785157.237 5
> 2021 01 15 00 30 30.0000000  0 12
G01  22699901.492 6  22699908.746    22699908.059 4  22699905.102 5 119288801.176 6  92952336.17344  89079318.435 5
G08  20436312.391 8  20436319.016    20436317.852 7  20436314.781 7 107393556.450 8  83683320.90047  80196504.860 7
G10  21540622.359 8  21540627.965    21540627.941 9  21540623.789 6 113196740.688 8  88205291.98649  84530097.082 6
G14  24686808.180 6  24686811.594    24686811.352 3                 129730032.699 6 101088356.72243
G16  24770478.227 5                  24770481.637 3                 130169595.725 5 101430975.54543
G20  23857587.898 6                  23857591.281 3                 125372476.901 6  97692871.33543
G21  21667087.742 8                  21667090.516 6                 113861337.405 8  88723126.26046
G22  24015544.742 6                  24015545.859 4                 126202542.499 6  98339654.58844
G23  23782364.836 6  23782369.277    23782368.125 3  23782369.816 5 124977180.142 6  97384840.55643  93327121.694 5
G27  20911183.016 8  20911189.199    20911188.918 9  20911185.859 6 109889017.938 8  85627836.74549  82059995.182 6
G28  25493890.484 5                  25493891.441 2                 133971293.00015 104393226.25442
G32  23375033.320 7  23375040.273    23375039.457 6  23375035.938 5 122836638.672 7  95716894.78546  91728722.380 5
> 2021 01 15 00 31 00.0000000  0 12
G01  22683096.961 6  22683104.676    22683104.523 5  22683100.414 5 119200494.308 6  92883525.65345  89013374.990 5
G08  20432376.602 8  20432383.773    20432382.668 7  20432379.398 7 107372876.060 8  83667206.30947  80181061.706 7
G10  21551444.031 8  21551449.762    21551449.520 9  21551445.281 6 113253608.330 8  88249604.44549  84572563.209 6
G14  24671199.844 6  24671203.031    24671201.965 3                 129648013.449 6 101024445.55243
G16  24792179.352 6                  24792181.203 3                 130283628.205 6 101519831.95743
G20  23876652.711 6                  23876656.664 3                 125472663.074 6  97770938.43343
G21  21658831.430 8                  21658833.953 6                 113817948.738 8  88689316.91846
G22  23995472.156 6                  23995473.164 4                 126097060.851 6  98257461.10444
G23  23801496.297 6  23801500.496    23801499.539 3  23801500.465 5 125077716.020 6  97463180.22643  93402197.157 5
G27  20922317.039 8  20922323.332    20922322.879 9  20922319.844 7 109947527.590 8  85673428.66149  82103687.458 7
G28  25477787.555 6                  25477789.754 3                 133886672.029 6 104327288.01043
G32  23360711.602 7  23360718.465    23360718.355 6  23360714.473 5 122761378.964 7  95658250.88146  91672521.945 5
> 2021 01 15 00 31 30.0000000  0 12
G01  22666326.891 6  22666333.848    22666333.508 5  22666329.488 5 119112364.492 6  92814853.09145  88947563.792 5
G08  20428530.859 8  20428537.867    20428536.594 7  20428533.418 7 107352665.587 8  83651457.88547  80165969.467 7
G10  21562346.258 8  21562352.621    21562352.273 8  21562348.270 6 113310903.198 8  88294249.79648  84615348.326 6
G14  24655663.078 6  24655665.559    24655665.520 3                 129566364.151 6 100960822.77243
G16  24813877.961 5                  24813880.762 3                 130397659.069 5 101608687.19443
G20  23895746.789 6                  23895749.523 3                 125572998.431 6  97849121.83243
G21  21650615.469 8                  21650618.160 6                 113774774.723 8  88655674.83346
G22  23975431.500 6                  23975432.980 4                 125991748.429 6  98175399.48344
G23  23820663.609 6  23820667.172    23820666.625 4  23820667.859 5 125178436.595 6  97541663.79744  93477410.592 5
G27  20933531.641 8  20933537.914    20933537.262 9  20933533.883 7 110006459.650 8  85719349.73449  82147695.145 7
G28  25461730.391 5                  25461733.578 2                 133802296.376 5 104261540.69342
G32  23346450.930 7  23346457.711    23346457.090 6  23346453.727 5 122686436.352 7  95599854.05946  91616558.341 5
> 2021 01 15 00 32 00.0000000  0 12
G01  22649589.719 7  22649596.977    22649596.730 5  22649592.723 5 119024411.993 7  92746318.69145  88881884.998 5
G08  20424774.563 8  20424781.473    20424780.320 7  20424777.148 7 107332925.707 8  83636076.15447  80151228.652 7
G10  21573330.016 8  21573336.391    21573335.863 8  21573331.910 6 113368622.715 8  88339226.04248  84658450.563 6
G14  24640195.727 6  24640198.891    24640198.910 3                 129485087.054 6 100897489.90843
G16  24835577.148 6                  24835578.816 3                 130511685.957 6 101697539.35743
G20  23914867.398 6                  23914870.336 3                 125673480.100 6  97927419.24843
G21  21642440.516 8                  21642443.250 6                 113731814.773 8  88622199.55446
G22  23955424.273 6                  23955424.816 4                 125886606.253 6  98093470.54444
G23  23839863.695 6  23839868.434    23839868.160 4  23839869.164 5 125279338.976 6  97620289.02944  93552759.813 5
G27  20944825.898 8  20944832.313    20944831.816 9  20944828.383 6 110065812.781 8  85765598.92049  82192017.263 6
G28  25445722.102 6                  25445724.344 2                 133718167.790 6 104195985.89242
G32  23332250.766 7  23332257.281    23332255.965 6  23332253.059 5 122611813.142 7  95541706.11846  91560833.196 5
> 2021 01 15 00 32 30.0000000  0 12
G01  22632886.820 6  22632893.828    22632893.387 5  22632889.207 5 118936637.936 6  92677923.33945  88816339.466 5
G08  20421107.992 8  20421114.922    20421113.805 7  20421110.637 7 107313658.193 8  83621062.51247  80136840.564 7
G10  21584394.453 8  21584400.422    21584400.160 9  21584395.953 6 113426765.190 8  88384531.87249  84701868.633 6
G14  24624800.563 6  24624804.484    24624803.477 3                 129404184.988 6 100834449.35743
G16  24857272.320 5                  24857276.762 2                 130625705.637 5 101786385.84542
G20  23934016.641 5                  23934019.063 3
G21  21634306.227 8                  21634308.801 6                 113689069.427 8  88588891.50246
G22  23935448.500 6                  23935449.660 4                 125781636.582 6  98011676.00344
G23  23859098.984 6  23859103.641    23859103.035 4  23859104.949 5 125380421.149 6  97699054.33444  93628243.179 5
G27  20956200.695 8  20956206.910    20956206.391 9  20956202.906 6 110125586.443 8  85812175.77649  82236653.419 6
G28  25429760.320 6                  25429761.508 2                 133634288.691 6 104130625.59042
G32  23318111.688 7  23318118.313    23318117.020 6  23318114.371 5 122537512.563 7  95483809.56846  91505349.027 5
> 2021 01 15 00 33 00.0000000  0 12
G01  22616218.172 6  22616225.516    22616224.250 5  22616220.934 5 118849043.079 6  92609667.60945  88750927.728 5
G08  20417531.898 8  20417538.445    20417537.395 7  20417534.508 7 107294864.319 8  83606417.93147  80122806.201 7
G10  21595538.250 8  21595544.516    21595544.504 8  21595540.258 6 113485328.580 8  88430165.68448  84745601.071 6
G14  24609477.875 6  24609481.504    24609479.652 3                 129323660.390 6 100771702.90443
G16  24878969.133 6                  24878972.918 3                 130739716.504 6 101875225.46143
G20  23953191.445 5                  23953194.512 2                 125874875.97915  98084351.04742
G21  21626212.742 8                  21626215.477 6                 113646538.724 8  88555750.70046
G22  23915506.391 6                  23915508.203 4                 125676841.441 6  97930017.46044
G23  23878368.422 6  23878372.059    23878371.590 4  23878373.063 5 125481680.681 6  97777957.88044  93703859.079 5
G27  20967654.992 8  20967661.383    20967660.957 9  20967657.465 6 110185779.756 8  85859079.64249  82281602.947 6
G28  25413845.773 5                  25413850.457 2                 133550661.510 5 104065461.59842
G32  23304034.867 7  23304041.484    23304040.285 6  23304037.281 5 122463537.468 7  95426166.64246  91450107.914 5
> 2021 01 15 00 33 30.0000000  0 12
G01  22599583.367 7  22599591.246    22599590.156 5  22599586.457 5 118761627.979 7  92541551.96945  88685650.252 5
G08  20414045.477 8  20414052.387    20414051.332 7  20414048.234 7 107276544.709 8  83592142.90847  80109125.956 7
G10  21606762.586 8  21606768.262    21606768.367 8  21606764.148 6 113544310.538 8  88476125.65748  84789646.021 6
G14  24594226.719 6  24594230.020    24594228.211 3                 129243515.406 6 100709252.22843
G16  24900663.375 6                  24900665.586 2                 130853715.187 6 101964055.65242
G20  23972394.516 6                  23972397.676 3                 125975785.67416  98162981.94043
G21  21618160.180 8                  21618163.313 6                 113604222.232 8  88522776.81546
G22  23895599.203 6                  23895599.859 4                 125572222.717 6  97848496.39944
G23  23897670.234 6  23897675.031    23897674.090 4  23897675.238 5 125583114.965 6  97856997.56944  93779605.438 5
G27  20979189.016 8  20979195.320    20979195.043 9  20979191.879 7 110246391.530 8  85906309.58349  82326864.993 7
G28  25397981.938 5                  25397983.930 2                 133467288.309 5 104000495.36742
G32  23290020.023 7  23290027.012    23290026.039 7  23290023.195 5 122389890.383 7  95368779.31647  91395111.710 5
> 2021 01 15 00 34 00.0000000  0 12
G01  22582983.547 6  22582990.465    22582990.234 5  22582986.531 5 118674393.486 6  92473577.06945  88620507.581 5
G08  20410649.891 8  20410656.695    20410655.676 7  20410652.430 7 107258700.245 8  83578238.13447  80095800.540 7
G10  21618065.500 8  21618071.449    21618071.422 8  21618067.238 6 113603709.088 8  88522410.23948  84834002.097 6
G14  24579048.656 6  24579051.508    24579051.043 3                 129163752.727 6 100647099.52843
G16  24922353.344 6                  24922355.676 2                 130967699.207 6 102052874.36442
G20  23991623.648 5                  23991625.438 2
G21  21610148.813 8                  21610151.621 6                 113562120.271 8  88489970.10346
G22  23875724.203 6                  23875725.109 4                 125467781.584 6  97767113.69144
G23  23917005.398 6  23917010.012    23917009.313 4  23917011.227 5 125684721.738 6  97936171.64944  93855480.62115
G27  20990802.539 8  20990808.828    20990808.512 9  20990805.555 6 110307421.055 8  85953865.03949  82372438.956 6
G28  25382166.344 6                  25382168.125 3                 133384171.386 6 103935728.96143
G32  23276068.523 7  23276075.539    23276074.879 7  23276070.453 5 122316574.300 7  95311649.91547  91340362.708 5
> 2021 01 15 00 34 30.0000000  0 12
G01  22566417.797 6  22566424.711    22566424.355 5  22566421.141 5 118587340.699 6  92405743.75345  88555500.681 5
G08  20407345.367 8  20407352.047    20407350.930 7  20407347.762 7 107241333.104 8  83564705.30147  80082831.584 7
G10  21629447.797 8  21629453.703    21629453.348 8  21629449.648 6 113663522.463 8  88569018.06948  84878667.920 6
G14  24563942.367 6  24563946.781    24563945.691 3                 129084375.155 6 100585246.80943
G16  24944041.469 6                  24944044.070 3                 131081666.497 6 102141680.06243
G20  24010878.383 5                  24010880.543 3                 126178018.048 5  98320565.61343
G21  21602177.516 8                  21602180.652 6                 113520233.282 8  88457330.90446
G22  23855883.727 6                  23855884.852 4                 125363520.165 6  97685871.02544
G23  23936372.875 6  23936377.734    23936377.328 4  23936379.129 5 125786498.856 6  98015478.49344  93931482.977 5
G27  21002495.305 8  21002501.762    21002501.336 9  21002498.363 6 110368867.658 8  86001745.49749  82418324.397 6
G28  25366397.508 6                  25366400.457 2                 133301313.283 6 103871168.23442
G32  23262180.508 7  23262186.766    23262186.504 7  23262183.145 5 122243592.302 7  95254780.83847  91285863.179 5
> 2021 01 15 00 35 00.0000000  0 12
G01  22549886.766 6  22549894.004    22549893.625 5  22549889.945 6 118500470.029 6  92338052.34845  88490629.780 6
G08  20404131.266 8  20404138.012    20404137.133 7  20404133.570 7 107224444.065 8  83551545.00647  80070219.633 7
G10  21640908.703 8  21640914.477    21640914.051 8  21640910.164 6 113723748.213 8  88615947.23148  84923641.707 6
G14  24548910.102 6  24548915.625    24548914.191 3                 129005384.745 6 100523695.81643
G16  24965722.906 5                  24965727.914 3                 131195613.964 5 102230470.21843
G20  24030158.813 6                  24030160.898 3                 126279336.667 6  98399515.16743
G21  21594247.523 8                  21594250.559 6                 113478561.057 8  88424859.05446
G22  23836078.008 6                  23836079.059 4                 125259440.386 6  97604769.91544
G23  23955772.508 6  23955776.648    23955776.148 3  23955777.535 5 125888443.700 6  98094916.03343  94007610.616 5
G27  21014267.508 8  21014273.848    21014273.250 9  21014269.840 6 110430730.083 8  86049949.97449  82464520.345 6
G28  25350678.445 5                  25350682.914 2                 133218716.162 5 103806806.86342
G32  23248356.711 7  23248362.945    23248361.980 7  23248358.980 5 122170946.860 7  95198174.00747  91231614.922 5
> 2021 01 15 00 35 30.0000000  0 12
G01  22533390.453 7  22533397.918    22533397.453 5  22533393.246 6 118413782.444 7  92270503.59645  88425895.564 6
G08  20401008.500 8  20401015.285    20401014.695 7  20401011.082 7 107208034.585 8  83538758.39347  80057965.788 7
G10  21652447.133 8  21652452.973    21652452.656 8  21652448.734 6 113784384.413 8  88663196.22348  84968922.001 6
G14  24533954.258 6  24533957.699    24533958.332 3                 128926784.106 6 100462448.53543
G16  24987403.258 6                  24987405.898 2                 131309539.839 6 102319243.66342
G20  24049464.141 5                  24049467.008 2                 126380787.057 5  98478567.40942
G21  21586358.617 8                  21586361.543 6                 113437103.776 8  88392554.68546
G22  23816307.320 6                  23816308.461 4                 125155544.102 6  97523811.75344
G23  23975203.445 6  23975207.418    23975207.387 3  23975208.043 4 125990554.053 6  98174482.54943  94083861.87914
G27  21026118.445 8  21026125.195    21026124.398 9  21026121.094 6 110493007.522 8  86098477.82749  82511026.191 6
G28  25335011.742 6                  25335014.945 2                 133136382.560 6 103742650.77242
G32  23234597.117 7  23234603.598    23234602.922 7  23234599.867 5 122098640.904 7  95141831.70247  91177620.279 5
> 2021 01 15 00 36 00.0000000  0 12
G01  22516929.602 6  22516936.820    22516936.359 5  22516931.891 6 118327278.521 6  92203097.97645  88361298.528 6
G08  20397977.500 8  20397983.914    20397983.238 7  20397979.703 7 107192104.703 8  83526345.50047  80046070.131 7
G10  21664063.328 8  21664069.199    21664068.949 8  21664064.941 6 113845428.814 8  88710763.28448  85014507.066 6
G14  24519071.977 6  24519074.863    24519075.043 3                 128848575.591 6 100401506.81543
G16  25009077.414 6                  25009080.602 3                 131423440.897 6 102407997.80443
G20  24068793.836 6                  24068796.938 2                 126482367.364 6  98557720.90342
G21  21578510.516 8                  21578513.086 6                 113395861.194 8  88360417.62646
G22  23796571.195 6                  23796572.621 4                 125051832.798 6  97442997.75344
G23  23994665.359 6  23994670.605    23994670.195 3  23994670.824 5 126092827.394 6  98254176.06643  94160234.87615
G27  21038048.398 8  21038054.875    21038054.250 9  21038050.848 6 110555698.897 8  86147328.23649  82557841.142 6
G28  25319394.977 6                  25319397.578 2                 133054314.156 6 103678701.22742
G32  23220902.820 7  23220909.773    23220908.457 7  23220905.574 5 122026677.106 7  95085756.01547  91123881.043 5
> 2021 01 15 00 36 30.0000000  0 12
G01  22500503.352 7  22500510.453    22500510.570 5  22500506.254 5 118240959.223 7  92135836.20145  88296839.351 5
G08  20395037.305 8  20395044.219    20395043.371 8  20395040.059 7 107176656.445 8  83514307.89048  80034534.083 7
G10  21675757.141 8  21675762.910    21675762.926 8  21675758.500 6 113906879.418 8  88758646.88748  85060395.527 6
G14  24504264.000 6  24504267.371    24504268.078 3                 128770761.720 6 100340872.65343
G16  25030746.758 5                  25030751.281 3                 131537314.912 5 102496730.74343
G20  24088148.188 5                  24088151.141 2                 126584076.288 5  98636974.63842
G21  21570702.781 8                  21570705.922 6                 113354833.050 8  88328447.64246
G22  23776871.602 6                  23776872.480 4                 124948308.283 6  97362329.33744
G23  24014158.469 6  24014162.508    24014162.398 3  24014163.258 5 126195261.493 6  98333994.83143  94236727.822 5
G27  21050056.789 8  21050063.262    21050062.688 9  21050059.363 6 110618803.378 8  86196500.54449  82604964.632 6
G28  25303828.922 6                  25303832.242 2                 132972513.546 6 103614960.59842
G32  23207273.852 7  23207281.234    23207280.250 7  23207276.414 5 121955058.407 7  95029949.24347  91070399.591 5
> 2021 01 15 00 37 00.0000000  0 12
G01  22484112.758 7  22484119.730    22484119.621 5  22484115.578 5 118154825.272 7  92068718.86145  88232518.523 5
G08  20392189.680 8  20392196.320    20392195.473 8  20392192.164 7 107161690.427 8  83502646.06348  80023358.161 7
G10  21687527.617 8  21687533.449    21687533.426 8  21687529.176 6 113968734.120 8  88806845.35748  85106585.739 6
G14  24489531.703 6  24489536.641    24489536.977 3                 128693344.994 6 100280547.90943
G16  25052412.063 6                  25052414.633 3                 131651159.123 6 102585440.44443
G20  24107527.258 5                  24107528.805 2                 126685910.920 5  98716326.26242
G21  21562936.516 8                  21562939.691 6                 113314019.551 8  88296644.93346
G22  23757207.836 6                  23757208.387 4                 124844972.506 6  97281807.95644
G23  24033680.242 5  24033684.332    24033684.305 3  24033686.176 4 126297854.073 5  98413937.08043  94313339.18614
G27  21062143.633 8  21062149.906    21062149.488 9  21062146.332 6 110682319.953 8  86245993.97749  82652395.857 6
G28  25288314.000 6                  25288316.391 2                 132890982.771 6 103551430.10042
G32  23193711.789 7  23193718.516    23193718.199 7  23193713.895 5 121883787.562 7  94974413.53247  91017177.831 5
> 2021 01 15 00 37 30.0000000  0 12
G01  22467757.000 7  22467764.438    22467764.215 5  22467760.211 5 118068877.846 7  92001746.85245  88168337.028 5
G08  20389433.859 8  20389440.699    20389439.527 9  20389436.301 7 107147208.733 8  83491361.62649  80012543.898 7
G10  21699374.828 8  21699380.766    21699380.586 8  21699376.445 6 114030991.180 8  88855357.35848  85153076.391 6
G14  24474875.961 6  24474880.211    24474880.551 3                 128616328.169 6 100220534.79643
G16  25074069.211 6                  25074071.289 2                 131764971.330 6 102674125.43742
G20  24126929.031 5                  24126931.250 2                 126787869.638 5  98795774.56842
G21  21555211.000 8                  21555214.004 6                 113273421.304 8  88265009.93646
G22  23737580.461 6                  23737580.816 4                 124741827.501 6  97201435.22944
G23  24053233.180 6  24053237.793    24053237.129 3  24053238.125 4 126400603.090 6  98494001.28543  94390067.34514
G27  21074309.031 8  21074314.961    21074314.477 9  21074311.656 6 110746248.080 8  86295808.08549  82700134.353 6
G28  25272851.375 6                  25272853.602 2                 132809724.899 6 103488112.33242
G32  23180216.344 7  23180222.859    23180221.926 7  23180219.016 5 121812867.705 7  94919151.32447  90964218.214 5
> 2021 01 15 00 38 00.0000000  0 12
G01  22451437.867 7  22451444.871    22451444.277 5  22451440.305 5 117983117.417 7  91934920.57945  88104295.198 5
G08  20386769.992 8  20386777.109    20386776.074 9  20386772.359 7 107133211.583 8  83480454.76649  80002091.483 7
G10  21711297.852 8  21711303.746    21711303.973 8  21711299.742 6 114093648.119 8  88904180.94848  85199865.663 6
G14  24460296.000 6  24460301.043    24460300.375 3                 128539713.368 6 100160834.92243
G16  25095719.523 5                  25095723.914 3                 131878749.512 5 102762783.67343
G20  24146353.109 5                  24146357.488 2                 126889950.212 5  98875317.94842
G21  21547526.516 8                  21547529.059 6                 113233037.852 8  88233542.30746
G22  23717988.375 6                  23717988.832 4                 124638874.586 6  97121212.18944
G23  24072815.188 5  24072819.586    24072819.141 3  24072819.609 4 126503505.968 5  98574185.35743  94466910.41214
G27  21086551.594 8  21086558.348    21086557.613 9  21086554.355 6 110810586.380 8  86345941.81249  82748179.195 6
G28  25257440.242 5                  25257442.254 2                 132728741.750 5 103425008.48142
G32  23166787.914 7  23166794.508    23166793.262 7  23166790.746 5 121742301.265 7  94864164.48347  90911522.463 5
> 2021 01 15 00 38 30.0000000  0 12
G01  22435153.273 7  22435160.953    22435160.691 5  22435157.039 5 117897544.652 7  91868240.50945  88040393.490 5
G08  20384199.102 8  20384206.047    20384204.816 9  20384201.512 7 107119699.677 8  83469926.01349  79992001.435 7
G10  21723296.945 8  21723302.602    21723302.691 8  21723298.336 6 114156702.746 8  88953314.42448  85246951.922 6
G14  24445794.648 6  24445798.656    24445796.930 3                 128463502.807 6 100101450.03443
G16  25117364.500 6                  25117367.910 3                 131992490.091 6 102851412.67843
G20  24165802.914 5                  24165805.160 2                 126992150.772 5  98954954.73842
G21  21539882.430 8                  21539885.289 6                 113192869.493 8  88202242.28746
G22  23698433.891 6                  23698435.574 4                 124536115.744 6  97041140.35944
G23  24092425.414 5  24092430.227    24092429.598 3  24092431.234 5 126606560.226 5  98654487.36743  94543866.53715
G27  21098872.852 8  21098879.254    21098878.332 9  21098875.629 6 110875333.754 8  86396394.29449  82796529.466 6
G28  25242082.125 5                  25242085.215 2                 132648035.438 5 103362120.44442
G32  23153426.609 7  23153434.047    23153433.355 7  23153429.883 5 121672090.928 7  94809455.14147  90859092.734 5
> 2021 01 15 00 39 00.0000000  0 12
G01  22418905.336 7  22418912.980    22418912.777 5  22418908.762 5 117812160.070 7  91801707.09445  87976632.280 5
G08  20381720.242 8  20381727.199    20381726.086 9  20381722.895 7 107106673.996 8  83459776.12349  79982274.465 7
G10  21735370.953 8  21735377.023    21735376.793 8  21735372.051 6 114220152.664 8  89002755.92348  85294333.365 6
G14  24431369.867 6  24431374.023    24431373.301 4  24431374.531 5 128387698.751 6 100042381.92844  95873959.16215
G16  25138999.914 5                  25139003.664 2                 132106190.594 5 102940010.55142
G20  24185272.672 5                  24185275.484 2                 127094468.57615  99034682.84342
G21  21532279.734 8                  21532282.477 6                 113152916.043 8  88171109.73746
G22  23678916.742 6                  23678918.055 4                 124433552.168 6  96961220.72344
G23  24112064.227 6  24112068.516    24112068.477 3  24112069.813 5 126709763.354 6  98734905.36643  94620933.760 5
G27  21111271.461 8  21111277.824    21111277.109 9  21111274.059 6 110940488.944 8  86447164.57249  82845184.307 6
G28  25226777.727 5                  25226779.410 2                 132567607.705 5 103299449.41542
G32  23140134.727 7  23140142.000    23140140.648 7  23140137.465 5 121602239.142 7  94755025.19647  90806930.700 5
> 2021 01 15 00 39 30.0000000  0 12
G01  22402693.594 7  22402700.684    22402700.723 5  22402696.117 5 117726964.756 7  91735321.19045  87913012.496 5
G08  20379334.547 8  20379341.301    20379340.285 9  20379336.949 7 107094136.318 8  83450006.50349  79972911.907 7
G10  21747519.977 8  21747525.836    21747525.719 8  21747521.426 6 114283996.051 8  89052504.02048  85342008.631 6
G14  24417021.422 5  24417026.730    24417024.910 3  24417026.676 5 128312303.989 5  99983632.73943  95817657.871 5
G16  25160628.992 5                  25160631.824 2                 132219848.88615 103028575.41242
G20  24204764.867 5                  24204768.250 2                 127196902.169 5  99114501.25442
G21  21524717.289 8                  21524720.324 6                 113113177.225 8  88140144.42846
G22  23659437.008 6                  23659438.293 4                 124331186.080 6  96881454.94944
G23  24131731.938 6  24131735.324    24131734.473 3  24131736.141 5 126813113.387 6  98815437.88243  94698110.72415
G27  21123747.711 8  21123754.219    21123753.340 9  21123750.172 6 111006051.281 8  86498252.08949  82894143.185 6
G28  25211526.313 6                  25211529.832 2                 132487461.513 6 103236997.88042
G32  23126911.578 7  23126918.387    23126917.395 7  23126913.551 5 121532749.045 7  94700877.07647  90755038.787 5
> 2021 01 15 00 40 00.0000000  0 12
G01  22386517.266 7  22386524.770    22386524.359 5  22386520.340 6 117641959.252 7  91669083.15745  87849534.330 6
G08  20377041.578 8  20377048.559    20377047.266 9  20377043.918 7 107082087.072 8  83440617.47549  79963914.096 7
G10  21759743.266 8  21759749.027    21759748.832 8  21759744.875 6 114348230.509 8  89102556.84248  85389975.909 6
G14  24402753.508 6  24402757.773    24402757.121 3  24402758.141 5 128237320.474 6  99925204.03243  95761663.656 5
G16  25182249.219 5                  25182252.781 2                 132333462.465 5 103117105.52142
G20  24224279.570 5                                                 127299449.19415
G21  21517196.484 8                  21517199.070 6                 113073653.471 8  88109346.69646
G22  23639995.031 6                  23639996.691 4                 124229018.965 6  96801844.21044
G23  24151424.852 5  24151430.500    24151429.422 3  24151430.777 5 126916607.694 5  98896082.81143  94775395.415 5
G27  21136300.852 8  21136307.395    21136306.766 9  21136303.652 6 111072019.410 8  86549655.81949  82943405.069 6
G28  25196329.477 6                  25196332.145 2                 132407598.569 6 103174766.98642
G32  23113756.984 7  23113764.172    23113763.008 7  23113760.215 5 121463623.052 7  94647012.66847  90703418.679 5
> 2021 01 15 00 40 30.0000000  0 12
G01  22370377.961 7  22370384.668    22370384.039 5  22370380.539 5 117557144.497 7  91602993.75645  87786198.649 5
G08  20374841.656 8  20374848.836    20374847.605 9  20374844.313 7 107070527.353 8  83431609.89549  79955281.828 7
G10  21772040.969 8  21772046.648    21772046.574 8  21772042.277 6 114412854.012 8  89152912.82648  85438233.715 6
G14  24388563.570 6  24388567.820    24388566.992 3  24388567.598 5 128162750.722 6  99867097.74643  95705978.49515
G16  25203859.281 5                  25203863.797 2                 132447029.107 5 103205598.87942
G20  24243814.703 4
G21  21509716.578 8                  21509719.121 7                 113034344.794 8  88078716.56247
G22  23620591.961 6                  23620593.000 4                 124127052.697 6  96722389.99144
G23  24171147.383 6  24171151.969    24171151.594 3  24171152.684 5 127020244.139 6  98976838.43943  94852786.261 5
G27  21148931.367 8  21148937.730    21148937.293 9  21148934.105 6 111138392.426 8  86601375.03449  82992969.343 6
G28  25181184.086 5                  25181189.172 2                 132328021.413 5 103112758.82342
G32  23100672.570 7  23100679.406    23100678.355 7  23100675.344 5 121394863.988 7  94593434.18647  90652072.652 5
> 2021 01 15 00 41 00.0000000  0 12
G01  22354275.031 7  22354281.070    22354281.219 5  22354277.488 6 117472521.566 7  91537053.81645  87723006.230 6
G08  20372735.570 8  20372742.242    20372741.336 9  20372737.980 7 107059458.543 8  83422984.85049  79947016.157 7
G10  21784411.844 8  21784417.879    21784417.781 8  21784413.906 6 114477864.711 8  89203570.50948  85486780.665 6
G14  24374453.000 6  24374456.930    24374455.523 3  24374458.066 5 128088597.511 6  99809315.98643  95650604.27815
G16  25225462.883 5                  25225464.102 2                 132560546.213 5 103294053.79742
G20  24263370.688 4
G21  21502277.273 8                  21502279.719 6                 112995251.332 8  88048254.12646
G22  23601226.609 6                  23601228.125 4                 124025288.865 6  96643093.52244
G23  24190895.250 6  24190899.152    24190899.086 3  24190901.086 5 127124020.753 6  99057703.33443  94930281.773 5
G27  21161638.430 8  21161644.906    21161644.348 9  21161641.160 6 111205169.571 8  86653409.16249  83042835.342 6
G28  25166098.852 6                  25166099.348 3                 132248732.336 6 103050975.01243
G32  23087658.680 7  23087665.355    23087664.160 7  23087661.406 5 121326474.922 7  94540144.03247  90601002.912 5
> 2021 01 15 00 41 30.0000000  0 12
G01  22338207.922 7  22338214.816    22338214.230 5  22338210.566 6 117388090.588 7  91471263.45745  87659957.161 6
G08  20370722.648 8  20370729.453    20370728.504 9  20370725.191 7 107048880.833 8  83414742.48049  79939117.213 7
G10  21796856.148 8  21796862.176    21796861.770 8  21796857.980 6 114543259.825 8  89254527.74448  85535614.688 6
G14  24360421.516 6  24360425.754    24360425.383 3  24360426.645 5 128014862.548 6  99751860.17743  95595542.43215
G16  25247053.375 5                  25247056.637 3                 132674010.570 5 103382467.73543
G20  24282947.695 5                                                 127607751.54515
G21  21494878.570 8                  21494881.195 6                 112956372.531 8  88017958.96846
G22  23581900.641 6                  23581902.172 4                 123923729.280 6  96563956.19044
G23  24210670.016 6  24210674.160    24210672.699 3  24210674.625 5 127227934.629 6  99138675.18443  95007879.724 5
G27  21174422.406 8  21174428.566    21174428.039 9  21174425.434 6 111272349.177 8  86705756.89149  83093001.921 6
G28  25151064.000 6                  25151067.500 2                 132169733.285 6 102989417.40242
G32  23074715.727 7  23074722.098    23074721.051 7  23074718.078 5 121258457.868 7  94487143.73947  90550210.947 5
> 2021 01 15 00 42 00.0000000  0 12
G01  22322177.539 7  22322185.039    22322184.301 5  22322181.082 6 117303852.956 7  91405623.75745  87597052.487 6
G08  20368803.367 8  20368810.496    20368809.383 9  20368806.109 7 107038796.409 8  83406884.47849  79931586.636 7
G10  21809373.320 8  21809379.027    21809379.277 8  21809374.316 6 114609037.828 8  89305783.32348  85584734.586 6
G14  24346469.414 6  24346474.348    24346474.293 3  24346476.527 5 127941548.754 6  99694732.49443  95540795.148 5
G16  25268633.688 5                  25268638.105 2
G20  24302542.984 4                                                 127710732.50714
G21  21487521.297 8                  21487523.895 6                 112917708.842 8  87987831.41446
G22  23562614.656 6                  23562615.180 4                 123822375.870 6  96484979.52544
G23  24230468.773 6  24230473.598    24230473.180 3  24230474.289 4 127331984.121 6  99219752.70843  95085579.05114
G27  21187282.805 8  21187289.090    21187288.566 9  21187285.914 6 111339930.747 8  86758417.84949  83143468.685 6
G28  25136087.531 6                  25136090.273 2                 132091027.033 6 102928087.82842
G32  23061844.016 7  23061850.324    23061849.543 7  23061845.902 5 121190816.168 7  94434435.92747  90499699.333 5
> 2021 01 15 00 42 30.0000000  0 12
G01  22306184.500 7  22306191.898    22306191.164 5  22306188.047 6 117219809.135 7  91340135.09845  87534292.503 6
G08  20366978.672 8  20366985.512    20366984.223 9  20366980.895 7 107029205.096 8  83399410.72549  79924424.289 7
G10  21821962.742 8  21821968.891    21821968.535 8  21821964.543 6 114675196.172 8  89357335.27948  85634138.571 6
G14  24332599.156 6  24332603.680    24332604.176 3  24332605.121 5 127868658.123 6  99637934.61843  95486363.800 5
G16  25290205.234 6                  25290207.336 2                 132900772.980 6 103559165.54242
G20  24322160.297 5
G21  21480204.500 8                  21480207.594 7                 112879260.564 8  87957871.72447
G22  23543366.188 6                  23543367.582 4                 123721230.108 6  96406164.63944
G23  24250294.477 6  24250298.828    24250298.766 3  24250299.203 4 127436166.591 6  99300933.84343  95163377.71014
G27  21200219.305 8  21200225.758    21200225.117 9  21200222.430 6 111407912.838 8  86811390.89549  83194234.515 6
G28  25121167.172 6                  25121168.730 2                 132012615.475 6 102866987.84942
G32  23049043.719 7  23049050.883    23049049.781 7  23049046.395 5 121123552.155 7  94382022.41047  90449469.69715
> 2021 01 15 00 43 00.0000000  0 12
G01  22290228.656 7  22290236.090    22290235.809 5  22290231.980 6 117135959.839 7  91274797.99945  87471677.778 6
G08  20365247.125 8  20365254.168    20365253.156 9  20365250.250 7 107020108.237 8  83392322.25049  79917631.172 7
G10  21834624.641 8  21834630.164    21834630.082 8  21834626.395 6 114741732.666 8  89409181.90748  85683824.918 6
G14  24318809.133 6  24318814.277    24318814.211 3  24318815.453 5 127796192.991 6  99581468.25943  95432250.29915
G16  25311763.297 5                  25311765.285 2                 133014066.045 5 103647446.04042
G20  24341795.406 5                                                 127917004.121 5
G21  21472928.742 8                  21472931.855 6                 112841027.635 8  87928079.84046
G22  23524158.289 6                  23524160.102 4                 123620293.885 6  96327513.05544
G23  24270143.617 6  24270148.879    24270149.020 3                 127540479.801 6  99382216.84443
G27  21213231.805 8  21213238.332    21213237.660 9  21213234.742 6 111476294.331 8  86864675.15449  83245298.595 6
G28  25106302.023 6                  25106303.891 2                 131934500.700 6 102806119.18442
G32  23036315.977 7  23036322.785    23036321.664 7  23036319.078 5 121056668.458 7  94329905.25647  90399524.094 5
> 2021 01 15 00 43 30.0000000  0 12
G01  22274310.047 7  22274317.152    22274316.832 5  22274312.691 6 117052306.356 7  91209613.47545  87409209.291 6
G08  20363611.125 8  20363617.746    20363616.477 9  20363613.129 7 107011507.249 8  83385620.18249  79911208.371 7
G10  21847357.523 8  21847363.465    21847363.484 8  21847359.246 6 114808645.592 8  89461321.84848  85733792.377 6
G14  24305101.367 6  24305105.320    24305105.125 3  24305106.063 5 127724156.144 6  99525335.63243  95378456.40115
G16  25333311.125 5                  25333314.289 2                 133127297.87315 103735678.60142
G20  24361449.773 4                                                 128020290.51614
G21  21465694.836 8                  21465697.410 6                 112803010.279 8  87898455.92846
G22  23504991.289 6                  23504992.684 4                 123519569.072 6  96249026.20444
G23  24290019.102 6  24290024.008    24290022.996 3                 127644921.917 6  99463600.28443
G27  21226320.180 8  21226326.930    21226326.301 9  21226323.457 6 111545074.582 8  86918270.15349  83296660.473 6
G28  25091493.742 5                  25091496.184 2                 131856685.331 5 102745483.84642
G32  23023660.969 7  23023668.199    23023667.199 7  23023664.375 5 120990168.197 7  94278086.87547  90349864.821 5
> 2021 01 15 00 44 00.0000000  0 12
G01  22258428.148 7  22258436.027    22258435.105 5  22258431.406 5 116968848.917 7  91144581.70945  87346887.167 5
G08  20362068.148 8  20362075.129    20362074.203 9  20362070.906 7 107003402.195 8  83379304.54149  79905155.885 7
G10  21860161.773 8  21860167.438    21860167.590 8  21860163.379 6 114875932.311 8  89513753.05448  85784038.939 6
G14  24291474.563 6  24291479.047    24291478.863 3  24291480.578 5 127652549.286 6  99469538.02743  95324983.73315
G16  25354846.539 6                  25354849.297 3                 133240465.09116 103823860.82543
G20  24381124.938 4                                                 128123674.557 4
G21  21458501.266 8                  21458504.191 6                 112765208.297 8  87868999.83546
G22  23485864.258 6                  23485866.012 4                 123419057.067 6  96170705.15944
G23  24309918.125 6  24309922.215    24309921.656 2                 127749490.204 6  99545082.11342
G27  21239484.500 8  21239490.883    21239490.262 9  21239487.105 6 111614251.918 8  86972174.55249  83348318.844 6
G28  25076743.172 5                  25076745.879 2                 131779171.287 5 102685083.25042
G32  23011080.258 7  23011087.086    23011086.277 7  23011083.359 5 120924053.506 7  94226568.95047  90300493.522 5
> 2021 01 15 00 44 30.0000000  0 12
G01  22242584.641 7  22242591.836    22242591.652 5  22242587.742 6 116885588.540 7  91079703.50045  87284712.200 6
G08  20360620.656 8  20360627.445    20360626.547 9  20360623.074 7 106995794.327 8  83373376.33849  79899474.662 7
G10  21873036.398 8  21873042.590    21873042.438 8  21873038.020 6 114943590.782 8  89566473.94048  85834563.116 6
G14  24277931.469 6  24277934.563    24277933.992 3  24277936.563 5 127581374.974 6  99414077.52643  95271834.048 5
G16  25376366.625 5                  25376371.398 2                 133353565.06715 103911990.64642
G20  24400815.086 5                                                 128227154.08115
G21  21451348.430 8                  21451351.582 6                 112727621.438 8  87839711.37246
G22  23466778.367 6                  23466779.879 4                 123318759.539 6  96092551.25144
G23  24329839.547 6  24329844.160    24329843.820 3                 127854182.591 6  99626660.61143
G27  21252723.664 8  21252730.453    21252729.434 9  21252726.609 6 111683825.418 8  87026387.65949  83400273.078 6
G28  25062051.008 6                  25062052.441 2                 131701960.718 6 102624919.12842
G32  22998573.281 7  22998579.809    22998578.762 7  22998575.703 5 120858327.256 7  94175353.69347  90251412.190 5
> 2021 01 15 00 45 00.0000000  0 12
G01  22226778.594 7  22226785.441    22226785.301 5  22226781.793 6 116802526.255 7  91014979.65445  87222685.218 6
G08  20359267.797 8  20359274.633    20359273.707 9  20359270.473 7 106988685.042 8  83367836.61749  79894165.774 7
G10  21885981.781 8  21885987.785    21885987.820 8  21885983.246 6 115011619.114 8  89619483.03248  85885363.488 6
G14  24264470.063 6  24264474.297    24264472.004 3  24264474.703 5 127510635.703 6  99358955.96643  95219009.244 5
G16  25397877.680 5                  25397879.379 2                 133466594.90815 104000065.66342
G20  24420525.648 5                                                 128330727.605 5
G21  21444237.547 8                  21444240.184 6                 112690250.577 8  87810591.22646
G22  23447733.289 6                  23447734.789 4                 123218678.618 6  96014566.12844
G23  24349785.445 6  24349790.898    24349789.875 3                 127958997.159 6  99708334.28843
G27  21266037.883 8  21266044.734    21266043.996 9  21266041.344 6 111753794.198 8  87080908.78149  83452522.475 6
G28  25047415.836 5                  25047419.094 2                 131625056.318 5 102564993.58942
G32  22986140.250 7  22986146.977    22986146.055 7  22986142.586 5 120792992.272 7  94124443.32347  90202623.075 5
> 2021 01 15 00 45 30.0000000  0 12
G01  22211010.156 7  22211017.070    22211016.863 5  22211013.363 6 116719662.181 7  90950410.24945  87160806.209 6
G08  20358009.789 8  20358016.555    20358015.637 9  20358012.332 7 106982073.722 8  83362684.94349  79889228.769 7
G10  21898997.156 8  21899003.523    21899002.750 8  21898998.730 6 115080014.396 8  89672778.05248  85936437.885 6
G14  24251092.125 6  24251095.844    24251094.953 3  24251096.180 5 127440333.071 6  99304174.72943  95166510.588 5
G16  25419373.516 6                  25419375.613 3                 133579553.810 6 104088085.57743
G20  24440252.000 5                                                 128434392.422 5
G21  21437166.594 8                  21437169.332 6                 112653094.596 8  87781638.50346
G22  23428731.047 7                  23428731.918 5                 123118815.110 7  95936750.40045
G23  24369753.945 6  24369758.715    24369758.707 3                 128063930.989 6  99790100.89943
G27  21279427.805 8  21279434.348    21279433.523 9  21279430.758 6 111824156.433 8  87135736.47849  83505065.686 6
G28  25032840.188 6                  25032842.762 3                 131548459.551 6 102505307.77643
G32  22973781.672 7  22973788.852    22973788.223 7  22973784.684 5 120728050.516 7  94073839.36847  90154127.621 5
> 2021 01 15 00 46 00.0000000  0 12
G01  22195279.461 7  22195286.578    22195285.969 5  22195282.090 6 116636997.751 7  90885996.41445  87099076.260 6
G08  20356846.430 8  20356853.789    20356852.730 9  20356849.656 7 106975962.984 8  83357923.32449  79884665.543 7
G10  21912082.125 8  21912087.770    21912087.438 8  21912083.449 6 115148775.139 8  89726357.86148  85987785.190 6
G14  24237797.336 6  24237801.711    24237800.453 3  24237801.887 4 127370470.068 6  99249736.01243  95114340.09214
G16  25440852.219 5                  25440857.414 2                 133692438.95415 104176047.98042
G20  24459996.742 5
G21  21430136.805 8                  21430140.082 6                 112616154.486 8  87752854.00546
G22  23409769.125 6                  23409769.910 5                 123019171.715 6  95859106.21245
G23  24389744.891 6  24389748.652    24389748.832 2                 128168982.511 6  99871959.22442
G27  21292892.336 8  21292898.559    21292898.008 9  21292895.355 6 111894911.581 8  87190870.35749  83557902.320 6
G28  25018324.078 6                  25018326.789 2                 131472173.193 6 102445863.89242
G32  22961499.297 7  22961506.535    22961505.605 7  22961502.133 5 120663505.265 7  94023544.38247  90105928.237 5
> 2021 01 15 00 46 30.0000000  0 12
G01  22179587.352 7  22179594.398    22179594.008 5  22179590.441 6 116554533.663 7  90821738.67845  87037495.923 6
G08  20355779.234 8  20355786.301    20355785.125 9  20355782.066 7 106970352.791 8  83353551.74549  79880476.093 7
G10  21925235.680 8  21925241.613    21925241.641 8  21925237.398 6 115217899.056 8  89780220.64848  86039403.728 6
G14  24224587.273 6  24224591.211    24224590.891 3  24224590.512 5 127301048.826 6  99195641.54043  95062499.55315
G16  25462323.219 6                                                 133805257.06816
G20  24479757.398 4                                                 128641990.708 4
G21  21423148.828 8                  21423151.836 6                 112579430.429 8  87724237.85746
G22  23390849.734 6                  23390851.148 4                 122919749.688 6  95781634.51144
G23  24409757.234 6  24409761.313    24409760.688 2                 128274149.440 6  99953907.48442
G27  21306431.078 8  21306437.387    21306436.930 9  21306434.004 6 111966058.368 8  87246309.40749  83611031.413 6
G28  25003866.539 6                  25003869.117 2                 131396199.176 6 102386663.32642
G32  22949292.969 7  22949299.414    22949298.750 7  22949295.695 5 120599359.004 7  93973560.29847  90058026.842 5
> 2021 01 15 00 47 00.0000000  0 12
G01  22163932.984 7  22163940.063    22163939.340 5  22163935.875 6 116472270.198 7  90757637.28945  86976065.468 6
G08  20354807.086 8  20354814.082    20354812.949 9  20354809.582 7 106965243.709 8  83349570.62749  79876660.866 7
G10  21938458.008 8  21938464.504    21938464.113 8  21938459.926 6 115287383.417 8  89834364.30648  86091291.389 6
G14  24211460.391 6  24211464.250    24211463.504 3  24211465.922 5 127232071.080 6  99141892.58943  95010990.12915
G16  25483772.273 6                  25483776.313 3                 133917986.380 6 104351798.36243
G20  24499534.266 5                                                 128745919.66715
G21  21416201.203 8                  21416204.277 6                 112542921.807 8  87695789.56946
G22  23371971.891 6                  23371973.941 4                 122820550.445 6  95704336.41244
G23  24429790.906 5  24429796.000    24429795.078 2                 128379429.083 5 100035943.58742
G27  21320043.930 8  21320050.254    21320049.801 9  21320047.117 6 112037595.141 8  87302052.32849  83664451.711 6
G28  24989469.195 6                  24989470.691 2                 131320539.718 6 102327707.90342
G32  22937162.711 7  22937169.609    22937168.570 7  22937165.559 5 120535613.822 7  93923888.72447  90010424.927 5
> 2021 01 15 00 47 30.0000000  0 11
G01  22148317.117 7  22148323.973    22148323.797 5  22148320.305 6 116390208.794 7  90693693.36345  86914785.875 6
G08  20353930.672 8  20353937.426    20353936.297 9  20353933.277 7 106960637.217 8  83345981.15349  79873220.959 7
G10  21951749.102 8  21951755.098    21951754.742 8  21951750.414 6 115357226.704 8  89888787.64848  86143447.077 6
G14  24198420.508 5  24198423.516    24198423.969 3  24198425.188 5 127163539.626 5  99088491.52643  94959814.08115
G20  24519327.398 5
G21  21409295.188 8                  21409298.047 7                 112506629.336 8  87667509.72247
G22  23353138.203 6                  23353139.520 4                 122721576.265 6  95627213.69344
G23  24449846.289 6  24449851.391    24449851.059 3                 128484819.944 6 100118066.28643
G27  21333731.242 8  21333737.578    21333736.895 9  21333734.039 6 112109521.328 8  87358098.69849  83718162.808 6
G28  24975132.422 6                  24975134.418 3                 131245197.161 6 102268999.42443
G32  22925109.875 7  22925115.973    22925115.199 7  22925112.184 5 120472272.962 7  93874532.21847  89963124.948 5
> 2021 01 15 00 48 00.0000000  0 12
G01  22132740.156 7  22132746.742    22132746.641 5  22132742.715 6 116308349.804 7  90629907.12545  86853657.393 6
G08  20353149.719 8  20353156.504    20353155.461 9  20353152.270 7 106956533.539 8  83342783.48249  79870156.528 7
G10  21965107.617 8  21965113.352    21965113.078 8  21965109.133 6 115427426.204 8  89943488.56848  86195868.780 6
G14  24185462.992 6  24185468.680    24185468.199 3  24185469.164 5 127095456.316 6  99035439.49243  94908972.621 5
G16  25526630.305 6                  25526631.359 2                 134143203.46816 104527287.90242
G20  24539136.742 5
G21  21402430.109 8                  21402433.105 7                 112470552.416 8  87639397.83247
G22  23334347.203 6                  23334348.121 5                 122622828.053 6  95550267.02445
G23  24469922.055 6  24469926.664    24469926.824 3                 128590319.289 6 100200273.54343
G27  21347491.867 8  21347498.547    21347497.898 9  21347494.828 6 112181835.270 8  87414447.21149  83772163.460 6
G28  24960855.063 6                  24960856.871 2                 131170173.369 6 102210539.31242
G32  22913132.938 7  22913140.141    22913139.090 7  22913136.258 5 120409338.497 7  93825492.39147  89916128.472 5
> 2021 01 15 00 48 30.0000000  0 12
G01  22117201.250 7  22117208.016    22117208.074 5  22117204.094 6 116226694.296 7  90566279.47145  86792680.887 6
G08  20352464.594 8  20352471.527    20352470.496 9  20352467.336 7 106952933.967 8  83339978.59649  79867468.518 7
G10  21978533.305 8  21978539.363    21978539.254 8  21978535.230 6 115497980.048 8  89998465.58648  86248555.095 6
G14  24172594.531 6  24172598.461    24172598.691 3  24172599.633 5 127027823.648 6  98982738.72443  94858467.707 5
G16  25548032.594 5                  25548036.109 2                 134255681.631 5 104614933.56742
G20  24558961.656 5                                                 129058204.62815
G21  21395605.797 8                  21395608.797 7                 112434691.546 8  87611454.29347
G22  23315599.469 6                  23315600.773 4                 122524307.729 6  95473497.95144
G23  24490018.438 6  24490022.695    24490021.605 2                 128695925.220 6 100282563.91442
G27  21361326.484 8  21361332.820    21361332.398 9  21361329.148 6 112254535.992 8  87471097.11349  83826452.974 6
G28  24946638.945 5                  24946641.699 2                 131095470.991 5 102152329.64942
G32  22901234.766 7  22901241.707    22901241.066 7  22901237.551 5 120346813.259 7  93776771.43247  89869437.539 5
> 2021 01 15 00 49 00.0000000  0 12
G01  22101701.547 7  22101708.602    22101708.328 5  22101704.566 6 116145243.238 7  90502811.13845  86731857.060 6
G08  20351875.766 8  20351882.629    20351881.605 9  20351878.551 7 106949839.262 8  83337567.13849  79865157.516 7
G10  21992026.586 8  21992032.141    21992032.070 8  21992027.805 6 115568886.232 8  90053717.15848  86301504.521 6
G14  24159809.555 6  24159814.215    24159814.266 3  24159815.449 5 126960643.939 6  98930390.88143  94808301.009 5
G16  25569421.016 5
G20  24578799.023 5                                                 129162459.27215
G21  21388823.055 8                  21388825.816 6                 112399047.152 8  87583679.43346
G22  23296895.992 7                  23296896.656 5                 122426017.612 7  95396908.26645
G23  24510134.359 6  24510138.887    24510138.426 3                 128801635.838 6 100364935.85243
G27  21375234.242 8  21375240.965    21375240.191 9  21375237.371 6 112327622.513 8  87528047.64449  83881030.553 6
G28  24932485.789 6                  24932488.426 2                 131021092.228 6 102094372.13342
G32  22889415.117 7  22889422.156    22889421.184 7  22889418.004 5 120284700.006 7  93728371.51447  89823054.255 5
> 2021 01 15 00 49 30.0000000  0 12
G01  22086240.781 7  22086247.727    22086247.746 5  22086244.047 6 116063995.912 7  90439501.52045  86671185.376 6
G08  20351382.875 8  20351389.484    20351388.691 9  20351385.359 7 106947248.580 8  83335548.41249  79863222.912 7
G10  22005585.703 8  22005591.539    22005591.332 8  22005587.184 6 115640140.990 8  90109240.34348  86354714.233 6
G14  24147113.086 6  24147116.625    24147116.094 3  24147118.105 5 126893917.905 6  98878396.53543  94758473.077 5
G16  25590789.883 6                  25590793.086 3                 134480370.001 6 104790018.10343
G20  24598651.984 5                                                 129266789.46115
G21  21382081.297 8                  21382083.691 6                 112363617.629 8  87556072.01846
G22  23278235.445 7                  23278236.930 5                 122327957.767 7  95320498.00445
G23  24530269.898 6  24530274.168    24530273.344 2                 128907447.451 6 100447386.43942
G27  21389215.063 8  21389221.668    21389220.906 9  21389218.059 6 112401092.052 8  87585296.62249  83935894.137 6
G28  24918392.953 6                  24918396.434 3                 130947037.729 6 102036667.29043
G32  22877674.086 7  22877680.895    22877679.336 7  22877677.113 5 120222999.717 7  93680293.36647  89776979.394 5
> 2021 01 15 00 50 00.0000000  0 12
G01  22070819.195 7  22070826.543    22070826.258 5  22070822.074 6 115982955.119 7  90376352.85445  86610667.872 6
G08  20350986.289 8  20350993.227    20350992.176 9  20350988.848 7 106945164.860 8  83333924.73449  79861666.893 7
G10  22019211.414 8  22019217.387    22019216.957 8  22019212.488 6 115711744.100 8  90165034.98248  86408184.083 6
G14  24134501.719 6  24134506.086    24134504.836 3  24134506.773 4 126827649.606 6  98826758.90243  94708987.059 4
G16  25612142.281 5                  25612144.559 2
G20  24618519.680 5                                                 129371194.97815
G21  21375380.391 8                  21375383.004 7                 112328404.997 8  87528633.59947
G22  23259619.570 7                  23259620.625 5                 122230131.428 7  95244269.68845
G23  24550424.672 6  24550429.262    24550428.246 3                 129013359.861 6 100529915.61843
G27  21403269.055 8  21403275.172    21403274.699 9  21403271.980 6 112474945.335 8  87642844.62249  83991044.310 6
G28  24904364.352 6                  24904365.988 2                 130873311.649 6 101979218.36542
G32  22866012.289 7  22866019.289    22866018.039 7  22866015.000 5 120161716.882 7  93632540.50047  89731216.216 5
> 2021 01 15 00 50 30.0000000  0 12
G01  22055436.688 7  22055444.418    22055443.461 5  22055439.906 6 115902121.327 7  90313365.50345  86550304.998 6
G08  20350686.031 8  20350693.289    20350692.063 9  20350689.008 7 106943588.521 8  83332696.41549  79860489.754 7
G10  22032902.586 8  22032908.617    22032908.621 8  22032904.051 6 115783693.125 8  90221099.15348  86461912.267 6
G14  24121979.180 6  24121984.375    24121982.832 3  24121984.773 5 126761841.041 6  98775479.49943  94659844.23015
G16  25633476.125 5                  25633478.211 2                 134704686.32815 104964810.12542
G20  24638400.656 5                                                 129475673.81315
G21  21368721.102 8                  21368723.695 7                 112293409.065 8  87501364.04047
G22  23241048.594 7                  23241049.871 5                 122132540.323 7  95168224.68645
G23  24570597.125 5  24570601.805    24570601.359 2                 129119370.684 5 100612521.45642
G27  21417395.570 8  21417402.156    21417401.227 9  21417398.320 6 112549180.842 8  87700690.46749  84046479.890 6
G28  24890397.516 6                  24890400.328 2                 130799915.874 6 101922026.93742
G32  22854430.086 7  22854437.191    22854436.813 7  22854433.117 5 120100853.762 7  93585114.71247  89685766.577 5
> 2021 01 15 00 51 00.0000000  0 11
G01  22040093.977 7  22040101.473    22040100.797 5  22040097.309 6 115821494.609 7  90250539.47145  86490096.710 6
G08  20350482.727 8  20350489.809    20350488.719 9  20350485.637 7 106942519.561 8  83331863.45149  79859691.495 7
G10  22046659.516 8  22046665.488    22046665.184 8  22046661.125 6 115855985.017 8  90277430.49548  86515896.466 6
G14  24109544.391 6  24109547.652    24109546.496 3  24109549.145 5 126696493.506 6  98724559.34343  94611045.747 5
G20  24658296.813 5                  24658297.293 2                 129580223.17215 100971602.15842
G21  21362102.719 8                  21362105.203 7                 112258629.253 8  87474262.88647
G22  23222522.984 7                  23222523.648 5                 122035185.226 7  95092363.57045
G23  24590788.406 5  24590793.094    24590792.309 2                 129225477.022 5 100695201.72842
G27  21431594.516 8  21431600.809    21431600.324 9  21431596.938 6 112623796.503 8  87758832.53849  84102199.370 6
G28  24876494.203 6                  24876496.414 3                 130726851.772 6 101865093.83143
G32  22842928.352 7  22842935.617    22842934.715 7  22842931.996 5 120040412.066 7  93538017.31547  89640631.513 5
> 2021 01 15 00 51 30.0000000  0 11
G01  22024790.992 7  22024798.016    22024797.781 5  22024794.375 6 115741075.597 7  90187875.30945  86430043.583 6
G08  20350376.156 8  20350382.988    20350382.000 9  20350378.582 7 106941958.137 8  83331425.96849  79859272.238 7
G10  22060481.203 7  22060486.766    22060486.652 8  22060482.848 6 115928617.495 7  90334027.22948  86570135.012 6
G14  24097196.773 6  24097201.430    24097200.641 3  24097202.539 5 126631609.044 6  98673999.97843  94562593.015 5
G20  24678205.352 5                  24678206.391 2
G21  21355525.430 8                  21355527.895 7                 112224065.412 8  87447330.02947
G22  23204041.969 7                  23204042.477 5                 121938067.563 7  95016687.46245
G23  24610997.523 5  24611001.176    24611001.129 2                 129331676.620 5 100777954.64142
G27  21445865.430 8  21445872.031    21445871.434 9  21445868.063 6 112698790.983 8  87817269.78349  84158201.761 6
G28  24862654.203 6                  24862654.930 2                 130654121.345 6 101808420.78942
G32  22831507.633 7  22831514.563    22831513.855 7  22831510.430 5 119980394.103 7  93491250.08147  89595812.922 5
> 2021 01 15 00 52 00.0000000  0 11
G01  22009528.555 7  22009534.926    22009534.723 5  22009530.168 6 115660865.953 7  90125374.30945  86370146.795 6
G08  20350366.156 8  20350373.043    20350372.109 9  20350368.730 7 106941906.227 8  83331385.50149  79859233.457 7
G10  22074366.820 8  22074373.223    22074372.824 8  22074368.402 6 116001589.122 8  90390888.24048  86624626.825 6
G14  24084938.547 6  24084943.168    24084941.867 3  24084943.625 5 126567190.525 6  98623803.74943  94514488.332 5
G20  24698124.164 4
G21  21348989.430 8                  21348992.098 7                 112189718.713 8  87420566.36547
G22  23185606.320 7                  23185607.434 5                 121841189.714 7  94941198.21345
G23  24631224.945 5  24631228.941    24631227.672 2                 129437968.069 5 100860779.16642
G27  21460208.414 8  21460214.996    21460214.406 9  21460210.992 6 112774163.736 8  87876001.79049  84214486.591 6
G28  24848878.422 6                  24848878.926 2                 130581727.394 6 101752009.79042
G32  22820168.406 7  22820174.762    22820173.742 7  22820170.254 5 119920803.220 7  93444815.63747  89551313.264 5
> 2021 01 15 00 52 30.0000000  0 11
G01  21994304.289 7  21994311.207    21994311.191 5  21994307.137 6 115580865.935 7  90063036.63045  86310406.490 6
G08  20350453.320 8  20350460.215    20350459.145 9  20350455.871 7 106942363.765 8  83331742.02549  79859575.133 7
G10  22088317.117 8  22088322.750    22088322.637 8  22088318.461 6 116074897.165 8  90448011.38448  86679369.798 6
G14  24072768.609 6  24072773.320    24072773.063 3  24072775.191 5 126503239.579 6  98573971.84343  94466732.710 5
G20  24718059.672 4
G21  21342494.422 8                  21342497.156 6                 112155588.482 8  87393971.39146
G22  23167216.914 7                  23167218.242 5                 121744552.735 7  94865896.67845
G23  24651469.359 5  24651472.504    24651472.246 2                 129544348.846 5 100943673.23942
G27  21474623.016 8  21474629.480    21474628.727 9  21474625.965 6 112849912.972 8  87935027.16049  84271052.579 6
G28  24835165.813 6                  24835168.164 3                 130509671.611 6 101695862.48443
G32  22808909.750 7  22808916.699    22808915.313 7  22808912.242 5 119861641.298 7  93398715.44447  89507133.896 5
> 2021 01 15 00 53 00.0000000  0 11
G01  21979120.594 7  21979127.641    21979127.484 5  21979123.832 6 115501076.403 7  90000862.98145  86250823.431 6
G08  20350637.336 8  20350644.449    20350643.191 9  20350640.152 7 106943331.548 8  83332496.12649  79860297.809 7
G10  22102330.852 7  22102336.848    22102336.566 8  22102332.910 6 116148539.524 7  90505395.04648  86734362.509 6
G14  24060689.328 6  24060693.109    24060692.641 3  24060694.223 5 126439758.373 6  98524505.98443  94419327.974 5
G20  24738007.172 4
G21  21336041.297 8                  21336043.598 7                 112121674.820 8  87367545.15747
G22  23148873.914 7                  23148875.426 5                 121648158.443 7  94790784.24545
G23  24671728.664 5  24671731.512    24671732.102 2                                 101026644.41042
G27  21489108.906 8  21489115.348    21489114.695 9  21489111.789 6 112926037.483 8  87994344.95549  84327898.795 6
G28  24821519.023 6                  24821522.531 3                 130437956.342 6 101639980.42343
G32  22797733.367 7  22797740.828    22797739.668 7  22797736.016 5 119802910.889 7  93352951.49947  89463276.749 5
> 2021 01 15 00 53 30.0000000  0 10
G01  21963977.805 7  21963984.664    21963984.191 5  21963980.906 6 115421498.324 7  89938854.09245  86191398.251 6
G08  20350918.711 8  20350925.652    20350924.582 9  20350921.375 7 106944810.341 8  83333648.42749  79861402.082 7
G10  22116407.789 8  22116413.707    22116413.684 8  22116409.629 6 116222514.054 8  90563037.52348  86789603.187 6
G14  24048698.563 6  24048702.801    24048702.215 3  24048704.113 5 126376749.148 6  98475407.83343  94372275.505 5
G21  21329628.422 8                  21329631.422 7                 112087977.747 8  87341287.69747
G22  23130576.953 7                  23130578.594 5                 121552008.541 7  94715862.25645
G23  24692004.656 5  24692008.121                                   129757370.34015 101109673.13815
G27  21503666.422 8  21503672.777    21503671.992 9  21503669.043 6 113002536.049 8  88053954.22849  84385024.343 6
G28  24807937.398 6                  24807940.738 3                 130366583.855 6 101584365.49043
G32  22786640.039 7  22786647.430    22786645.961 7  22786642.902 5 119744614.474 7  93307525.73047  89419743.763 5
> 2021 01 15 00 54 00.0000000  0 10
G01  21948874.539 7  21948882.281    21948881.414 5  21948877.414 6 115342132.307 7  89877010.45045  86132131.422 6
G08  20351297.750 8  20351304.555    20351303.465 9  20351300.219 7 106946800.695 8  83335199.35349  79862888.379 7
G10  22130547.523 8  22130552.914    22130552.934 8  22130549.156 6 116296818.391 8  90620937.01048  86845090.200 6
G14  24036799.523 6  24036802.352    24036802.883 3  24036803.770 5 126314213.707 6  98426678.90843  94325576.99115
G21  21323257.406 8                  21323260.227 7                 112054497.750 8  87315199.39247
G22  23112326.758 7                  23112328.219 5                 121456104.457 7  94641131.80945
G23  24712296.609 5  24712301.691                                   129864006.74215 101192766.46315
G27  21518294.320 8  21518300.781    21518300.168 9  21518297.016 6 113079407.162 8  88113853.78449  84442428.076 6
G28  24794420.883 6                  24794423.535 2                 130295555.876 6 101529019.01142
G32  22775629.758 7  22775636.648    22775635.766 7  22775632.516 5 119686754.349 7  93262439.93047  89376536.501 5
> 2021 01 15 00 54 30.0000000  0 10
G01  21933812.297 7  21933819.359    21933819.344 5  21933815.383 6 115262978.838 7  89815332.45445  86073023.348 6
G08  20351773.531 8  20351780.508    20351779.594 9  20351776.242 7 106949302.528 8  83337148.82049  79864756.630 7
G10  22144749.125 8  22144755.301    22144754.957 8  22144750.996 6 116371450.033 8  90679091.53348  86900821.590 6
G14  24024988.609 6  24024993.469    24024992.316 3  24024994.344 5 126252153.861 6  98378320.54943  94279233.523 5
G21  21316927.781 8                  21316930.500 7                 112021234.420 8  87289279.91847
G22  23094124.039 7                  23094125.227 5                 121360447.672 7  94566594.05745
G23  24732605.258 5  24732609.898                                                   101275922.681 5
G27  21532992.922 8  21532999.328    21532998.895 9  21532995.691 6 113156649.235 8  88174042.41249  84500108.818 6
G28  24780971.109 6                  24780973.840 3                 130224874.366 6 101473942.43243
G32  22764703.203 7  22764709.480    22764709.383 7  22764705.996 5 119629332.606 7  93217695.72147  89333656.669 5
> 2021 01 15 00 55 00.0000000  0 10
G01  21918790.453 7  21918797.992    21918797.230 5  21918793.609 6 115184039.088 7  89753820.96845  86014074.895 6
G08  20352347.125 8  20352354.332    20352353.195 9  20352349.922 7 106952316.898 8  83339497.67249  79867007.610 7
G10  22159012.953 8  22159019.246    22159018.949 8  22159014.586 6 116446407.117 8  90737499.64748  86956796.046 6
G14  24013270.023 6  24013275.125    24013275.066 3  24013276.621 5 126190571.914 6  98330334.67843  94233247.111 5
G21  21310639.422 8                  21310642.020 7                 111988188.197 8  87263529.62347
G22  23075968.531 7                  23075969.809 5                 121265039.723 7  94492250.20645
G23  24752928.586 4  24752932.711                                                   101359140.382 5
G27  21547762.086 8  21547768.648    21547767.902 8  21547764.898 6 113234261.234 8  88234519.29148  84558065.845 6
G28  24767587.594 6                  24767589.883 3                 130154541.663 6 101419137.72543
G32  22753860.383 7  22753866.625    22753865.910 7  22753862.859 5 119572352.022 7  93173295.26747  89291106.204 5
> 2021 01 15 00 55 30.0000000  0 11
G01  21903809.523 7  21903816.742    21903816.383 5  21903812.410 6 115105313.585 7  89692476.42545  85955286.317 6
G08  20353018.422 8  20353025.555    20353024.340 9  20353021.031 7 106955844.183 8  83342246.20349  79869641.616 7
G10  22173338.125 8  22173344.398    22173344.176 8  22173339.926 6 116521687.102 8  90796159.36348  87013011.611 6
G14  24001642.797 6  24001647.148    24001645.504 3  24001646.609 5 126129469.698 6  98282722.53443  94187618.804 5
G20  24837902.352 5
G21  21304391.828 8                  21304394.637 7                 111955358.728 8  87237948.22447
G22  23057860.609 7                  23057861.945 5                 121169882.053 7  94418101.37845
G23  24773265.875 5  24773269.211                                   130184392.68015 101442417.729 5
G27  21562601.141 8  21562607.855    21562607.082 8  21562604.242 6 113312241.524 8  88295283.14448  84616297.878 6
G28  24754270.555 6                  24754273.445 3                 130084559.566 6 101364606.20943
G32  22743100.938 7  22743107.758    22743106.406 7  22743104.191 5 119515814.602 7  93129240.14947  89248886.779 5
> 2021 01 15 00 56 00.0000000  0 11
G01  21888869.211 7  21888876.738    21888876.234 5  21888871.898 6 115026802.571 7  89631299.02745  85896658.004 6
G08  20353787.172 8  20353794.281    20353793.133 9  20353789.930 7 106959884.479 8  83345394.47649  79872658.721 7
G10  22187724.711 7  22187730.289    22187730.148 8  22187726.559 6 116597287.201 7  90855068.53448  87069466.239 6
G14  23990107.477 6  23990112.008    23990111.035 3  23990112.211 5 126068848.659 6  98235485.34943  94142349.800 5
G20  24857913.531 4                                                 130629072.07414
G21  21298185.852 8                  21298188.902 7                 111922745.612 8  87212535.40647
G22  23039800.828 7                  23039802.027 5                 121074975.868 7  94344148.51545
G23  24793617.211 5  24793618.109                                   130291339.31815 101525752.897 5
G27  21577510.141 8  21577516.605    21577516.031 8  21577512.664 6 113390588.196 8  88356332.49248  84674803.516 6
G28  24741019.688 6                  24741021.965 2                 130014929.614 6 101310349.07742
G32  22732427.141 7  22732434.059    22732432.582 7  22732429.441 5 119459722.136 7  93085531.74447  89206999.480 5
> 2021 01 15 00 56 30.0000000  0 10
G01  21873970.555 7  21873977.617    21873976.852 5  21873973.238 6 114948508.595 7  89570290.75845  85838191.720 6
G08  20354654.008 8  20354661.254    20354660.195 9  20354656.805 7 106964440.235 8  83348944.40949  79876060.742 7
G10  22202171.688 7  22202177.445    22202177.316 8  22202173.285 6 116673207.019 7  90914226.83148  87126159.592 6
G14  23978663.234 6  23978667.598    23978666.004 3  23978667.855 5 126008712.514 6  98188625.99243  94097442.983 5
G21  21292021.344 8                  21292024.242 7                 111890350.736 8  87187292.64047
G22  23021789.055 7                  23021790.250 5                 120980324.485 7  94270394.20845
G23  24813983.797 4  24813985.844                                   130398359.74314 101609145.498 5
G27  21592488.586 8  21592495.266    21592494.660 8  21592491.430 6 113469301.656 8  88417667.65148  84733583.006 6
G28  24727837.070 6                  24727840.574 3                 129945655.590 6 101256369.36643
G32  22721838.453 7  22721845.168    22721844.445 7  22721841.031 5 119404078.787 7  93042173.29947  89165447.727 5
> 2021 01 15 00 57 00.0000000  0  9
G01  21859113.078 7  21859120.043    21859119.168 5  21859115.492 6 114870431.837 7  89509451.73145  85779887.663 6
G08  20355619.133 8  20355626.246    20355624.992 9  20355621.828 7 106969510.973 8  83352895.62949  79879847.309 7
G10  22216678.820 8  22216685.105    22216684.781 8  22216680.477 6 116749443.578 8  90973631.93748  87183089.494 6
G14  23967311.945 6  23967316.457    23967316.145 3  23967316.719 5 125949062.561 6  98142145.47943  94052899.11115
G21  21285898.289 8                  21285901.031 7                 111858173.611 8  87162219.57347
G22  23003826.070 7                  23003827.402 5                 120885928.429 7  94196838.83945
G27  21607536.688 8  21607543.203    21607542.594 8  21607539.398 6 113548379.772 8  88479286.95748  84792634.864 6
G28  24714723.438 6                  24714725.793 3                 129876738.985 6 101202668.04343
G32  22711336.242 7  22711342.414    22711341.434 7  22711338.145 5 119348886.228 7  92999166.10847  89124232.433 5
> 2021 01 15 00 57 30.0000000  0 11
G01  21844296.508 7  21844303.848    21844303.199 5  21844300.047 6 114792572.431 7  89448782.05945  85721745.897 6
G03  25179799.516 5  25179807.199    25179805.902 5                 132320747.93315 103107093.37945
G08  20356682.016 8  20356689.031    20356687.832 9  20356684.832 7 106975096.298 8  83357247.82649  79884018.168 7
G10  22231246.078 8  22231252.020    22231251.844 8  22231247.648 6 116825994.047 8  91033281.65748  87240253.802 6
G14  23956054.508 6  23956058.535    23956057.738 3  23956059.852 5 125889900.052 6  98096044.86743  94008719.337 5
G21  21279816.547 8                  21279819.402 7                 111826213.657 8  87137315.71947
G22  22985911.859 7                  22985913.426 5                 120791788.896 7  94123483.37045
G23  24854751.906 5  24854756.641                                   130612611.22115 101776094.43016
G27  21622654.102 8  21622660.633    21622659.695 8  21622656.805 6 113627820.569 8  88541188.87348  84851957.516 6
G28  24701676.836 6                  24701679.020 3                 129808181.172 6 101149246.36343
G32  22700919.156 7  22700925.688    22700925.008 7  22700921.738 5 119294146.057 7  92956511.42447  89083355.057 5
> 2021 01 15 00 58 00.0000000  0 12
G01  21829522.086 7  21829529.242    21829528.875 5  21829525.211 6 114714930.403 7  89388281.80545  85663766.519 6
G03  25158070.234 6  25158077.727    25158076.855 5                 132206560.676 6 103018116.24845
G08  20357842.867 8  20357849.895    20357848.730 9  20357845.730 7 106981196.649 8  83362001.33949  79888573.630 7
G10  22245872.813 8  22245878.277    22245878.395 8  22245873.902 6 116902855.475 8  91093173.66848  87297650.319 6
G14  23944889.102 6  23944893.383    23944892.988 3  23944894.504 5 125831226.294 6  98050325.03443  93964904.517 5
G20  24938051.039 4                                                 131050209.71514
G21  21273775.906 8                  21273778.672 7                 111794470.219 8  87112580.57447
G22  22968046.742 7                  22968048.066 5                 120697906.764 7  94050328.47645
G23  24875156.688 5  24875159.934    24875161.539 2                 130719836.56415 101859631.63942
G27  21637839.359 8  21637846.234    21637845.461 8  21637842.664 6 113707621.885 8  88603371.70348  84911549.426 6
G28  24688699.977 6                  24688701.531 3                 129739983.332 6 101096105.14943
G32  22690588.930 7  22690595.516    22690594.586 7  22690591.980 5 119239859.850 7  92914210.48847  89042816.652 5
> 2021 01 15 00 58 30.0000000  0 12
G01  21814788.859 7  21814796.164    21814795.621 5  21814791.543 6 114637507.984 7  89327952.65345  85605951.042 6
G03  25136352.805 5  25136360.820    25136359.992 4                                 102929190.37244
G08  20359102.070 8  20359108.996    20359107.867 9  20359104.691 7 106987813.369 8  83367157.21749  79893514.693 7
G10  22260557.664 8  22260563.848    22260563.648 8  22260559.160 6 116980026.980 8  91153307.31948  87355278.383 6
G14  23933817.594 6  23933822.148    23933821.641 4  23933822.922 5 125773044.540 6  98004988.57244  93921457.089 5
G20  24958106.211 4                                                 131155603.75914
G21  21267776.820 8                  21267779.625 7                 111762944.691 8  87088015.23247
G22  22950231.070 7                  22950232.305 5                 120604284.766 7  93977376.28745
G23  24895574.242 4  24895575.098                                                   101943249.63314
G27  21653093.914 8  21653100.461    21653099.926 8  21653096.703 6 113787783.657 8  88665835.41848  84971410.452 6
G28  24675790.703 6                  24675791.758 3                 129672149.154 6 101043247.27243
G32  22680345.258 7  22680352.238    22680351.398 7  22680349.082 5 119186031.267 7  92872266.15847  89002620.029 5
> 2021 01 15 00 59 00.0000000  0 10
G01  21800097.797 7  21800105.414    21800104.691 5  21800100.938 6 114560307.153 7  89267796.17345  85548301.104 6
G03  25114649.430 5  25114656.621    25114655.551 5                 131978382.49915 102840315.10945
G08  20360459.641 8  20360466.652    20360465.508 9  20360462.219 7 106994948.454 8  83372717.01449  79898842.830 7
G10  22275301.484 8  22275307.621    22275307.664 8  22275303.477 6 117057507.583 8  91213681.80448  87413137.275 6
G14  23922840.039 6  23922844.566    23922844.059 4  23922846.168 5 125715357.887 6  97960037.96044  93878379.377 5
G21  21261819.461 8                  21261822.117 7                 111731638.597 8  87063620.88247
G22  22932465.086 7                  22932466.582 5                 120510925.712 7  93904628.97145
G27  21668416.750 8  21668423.172    21668422.859 8  21668419.367 6 113868305.708 8  88728579.86848  85031540.550 6
G28  24662952.492 6                  24662954.242 3                 129604681.717 6 100990675.23143
G32  22670189.977 7  22670196.730    22670195.715 7  22670192.957 5 119132663.759 7  92830681.10547  88962767.659 5
> 2021 01 15 00 59 30.0000000  0 10
G01  21785449.063 7  21785456.277    21785455.887 5  21785452.027 6 114483326.636 7  89207811.37445  85490815.693 6
G03  25092958.289 5  25092964.918    25092963.973 4                 131864394.290 5 102751493.04544
G08  20361915.484 8  20361922.555    20361921.547 9  20361918.418 7 107002599.741 8  83378679.05249  79904556.451 7
G10  22290103.406 7  22290109.902    22290109.512 8  22290105.434 6 117135292.896 7  91274293.73548  87471223.694 6
G14  23911956.844 6  23911961.586    23911960.273 3  23911961.258 5 125658166.136 6  97915472.93443  93835671.23115
G21  21255903.656 8                  21255906.156 7                 111700549.929 8  87039395.94847
G22  22914749.789 7                  22914750.750 5                 120417828.910 7  93832086.01745
G27  21683807.227 7  21683813.879    21683813.434 8  21683810.352 6 113949184.419 7  88791602.22448  85091936.987 6
G28  24650183.039 6                  24650186.250 3                 129537580.790 6 100938388.82643
G32  22660122.625 7  22660128.918    22660127.891 7  22660124.914 5 119079757.468 7  92789455.44547  88923259.733 5
> 2021 01 15 01 00 00.0000000  0 11
G01  21770842.414 7  21770849.551    21770849.125 5  21770845.164 6 114406567.202 7  89147998.82645  85433495.349 6
G03  25071280.313 5  25071287.402    25071286.605 5                 131750474.871 5 102662724.68845
G08  20363470.203 8  20363477.129    20363476.012 9  20363472.559 7 107010767.877 8  83385043.83649  79910656.028 7
G10  22304963.227 8  22304969.086    22304969.262 8  22304965.039 6 117213380.675 8  91335141.34448  87529535.983 6
G14  23901168.008 6  23901172.879    23901172.105 3  23901173.285 5 125601471.096 6  97871294.99943  93793334.060 5
G21  21250028.648 8                  21250031.656 7                 111669678.396 8  87015340.20947
G22  22897084.227 7                  22897085.379 5                 120324995.811 7  93759748.54745
G23  24956895.008 5  24956898.738    24956896.973 2                 131149484.25415 102194314.71342
G27  21699265.727 8  21699272.250    21699271.625 8  21699268.953 6 114030418.348 8  88854901.37448  85152598.653 6
G28  24637483.453 6                  24637488.168 3                 129470848.398 6 100886389.54543
G32  22650142.531 7  22650149.262    22650148.238 7  22650145.051 5 119027314.592 7  92748590.87947  88884097.887 5
> 2021 01 15 01 00 30.0000000  0 10
G01  21756277.828 7  21756285.105    21756285.047 6  21756280.887 6 114330030.544 7  89088359.89646  85376341.392 6
G03  25049615.750 5  25049623.039    25049622.387 5                 131636627.106 5 102574012.17245
G08  20365123.203 8  20365130.129    20365129.051 9  20365125.586 7 107019454.193 8  83391812.39149  79917142.550 7
G10  22319880.688 8  22319886.078    22319885.984 8  22319881.730 6 117291769.626 8  91396223.64348  87588073.179 6
G14  23890474.469 6  23890478.668    23890477.414 3  23890480.129 5 125545275.548 6  97827506.24943  93751369.867 5
G21  21244195.758 8                  21244198.570 7                 111639025.294 8  86991454.68847
G22  22879469.289 7                  22879470.891 5                 120232429.016 7  93687618.58045
G27  21714791.727 8  21714798.086    21714797.387 8  21714794.590 6 114112006.979 8  88918476.92248  85213525.238 6
G28  24624856.117 6                  24624859.590 3                 129404487.499 6 100834679.75743
G32  22640252.055 7  22640258.262    22640257.445 7  22640254.793 5 118975338.244 7  92708089.83647  88845284.390 5
> 2021 01 15 01 01 00.0000000  0 10
G01  21741755.852 7  21741763.117    21741763.152 5  21741759.215 6 114253717.638 7  89028895.32445  85319354.461 6
G03  25027964.727 5  25027972.422    25027971.594 5                 131522852.704 5 102485356.75545
G08  20366875.039 8  20366881.574    20366880.762 9  20366877.539 7 107028659.363 8  83398985.24149  79924016.520 7
G10  22334853.930 8  22334860.137    22334859.891 8  22334855.375 6 117370457.604 8  91457538.95648  87646833.703 6
G14  23879876.242 6  23879880.980    23879879.879 4  23879881.406 5 125489581.471 6  97784108.26444  93709780.118 5
G21  21238404.289 8                  21238406.941 7                 111608590.911 8  86967739.58747
G22  22861905.070 7                  22861906.598 5                 120140130.051 7  93615697.32245
G27  21730384.797 8  21730391.055    21730390.559 8  21730387.227 6 114193948.909 8  88982327.76348  85274715.612 6
G28  24612299.594 6                  24612302.949 3                 129338500.262 6 100783261.11843
G32  22630450.266 7  22630457.020    22630456.094 7  22630453.102 5 118923830.683 7  92667954.08247  88806820.957 5
> 2021 01 15 01 01 30.0000000  0 10
G01  21727277.008 7  21727284.051    21727283.715 5  21727279.746 6 114177628.888 7  88969605.39245  85262534.962 6
G03  25006328.500 5  25006335.660    25006334.855 4                 131409153.155 5 102396759.73944
G08  20368725.148 8  20368732.191    20368731.090 9  20368727.934 7 107038383.447 8  83406562.44449  79931278.026 7
G10  22349884.352 8  22349890.621    22349890.258 8  22349886.207 6 117449442.090 8  91519085.30448  87705815.646 6
G14  23869373.313 6  23869378.422    23869378.156 4  23869379.332 5 125434390.397 6  97741102.24444  93668565.972 5
G21  21232654.320 8                  21232657.039 7                 111578375.060 8  86944194.77247
G22  22844392.922 7                  22844393.563 5                 120048100.029 7  93543985.63845
G27  21746044.453 8  21746051.242    21746050.730 8  21746047.152 6 114276242.402 8  89046452.55848  85336168.540 6
G28  24599814.391 6                  24599816.832 3                 129272888.364 6 100732134.90943
G32  22620737.844 7  22620745.574    22620744.301 7  22620740.855 5 118872793.869 7  92628185.16647  88768709.079 5
> 2021 01 15 01 02 00.0000000  0 11
G01  21712839.828 7  21712847.441    21712846.320 5  21712842.766 6 114101763.809 7  88910489.76245  85205882.537 6
G03  24984706.883 5  24984714.219    24984713.180 4                 131295529.054 5 102308221.42544
G08  20370674.211 8  20370681.422    20370680.000 9  20370676.914 7 107048625.308 8  83414543.10649  79938926.160 7
G10  22364970.023 8  22364976.602    22364976.262 8  22364972.012 6 117528719.483 8  91580859.87948  87765016.254 6
G14  23858967.766 6  23858971.543    23858971.242 4  23858972.656 5 125379702.739 6  97698488.48544  93627727.810 5
G21  21226945.836 8                  21226948.449 7                 111548375.982 8  86920818.87247
G22  22826931.289 7                  22826931.977 5                 119956339.315 7  93472483.78345
G23  25038802.133 5  25038808.574    25038807.504 2                 131579961.18115 102529724.95342
G27  21761770.875 8  21761777.277    21761776.898 8  21761773.891 6 114358884.613 8  89110849.07948  85397881.873 6
G28  24587400.180 6                  24587403.109 2                 129207652.354 6 100681301.60442
G32  22611115.750 7  22611122.953    22611122.281 7  22611118.477 5 118822228.544 7  92588783.64247  88730949.281 5
> 2021 01 15 01 02 30.0000000  0 11
G01  21698446.773 7  21698453.773    21698453.113 6  21698449.207 6 114026125.740 7  88851551.03046  85149399.558 6
G03  24963099.961 5  24963107.750    24963106.262 5                 131181984.39115 102219745.14845
G08  20372722.336 8  20372729.012    20372728.016 9  20372724.594 7 107059387.604 8  83422929.31249  79946962.912 7
G10  22380112.039 7  22380117.945    22380117.625 7  22380113.762 6 117608290.125 7  91642862.98347  87824435.905 6
G14  23848657.172 6  23848661.512    23848661.852 4  23848662.445 5 125325522.835 6  97656270.36144  93587268.780 5
G21  21221279.008 8                  21221281.656 7                 111518596.925 8  86897614.40547
G22  22809521.594 7                  22809522.516 5                 119864851.603 7  93401194.66745
G23  25059307.328 5  25059309.734    25059309.496 2                 131687697.854 5 102613675.50242
G27  21777563.438 7  21777570.133    21777569.781 8  21777566.578 6 114441876.571 7  89175518.13448  85459856.389 6
G28  24575059.000 6                  24575061.684 3                 129142796.738 6 100630764.74643
G32  22601584.453 7  22601591.012    22601590.449 7  22601586.863 5 118772139.411 7  92549753.16947  88693545.073 5
> 2021 01 15 01 03 00.0000000  0 10
G01  21684096.211 7  21684102.895    21684102.609 6  21684098.793 6 113950713.523 7  88792788.26646  85093085.236 6
G03  24941508.281 5  24941515.168    24941514.160 4  24941513.445 5 131068519.317 5 102131330.71444  97875822.82015
G08  20374868.938 8  20374875.809    20374874.770 9  20374871.461 7 107070668.824 8  83431719.86449  79955387.218 7
G10  22395308.703 7  22395315.059    22395314.543 7  22395310.531 6 117688149.820 7  91705091.31747  87884071.375 6
G14  23838443.133 6  23838447.910    23838447.359 4  23838448.059 5 125271850.470 6  97614447.75544  93547188.789 5
G21  21215653.469 8                  21215656.512 7                 111489036.146 8  86874580.03747
G22  22792164.188 7                  22792165.223 5                 119773636.445 7  93330117.92945
G27  21793422.359 7  21793429.227    21793428.492 8  21793425.461 6 114525214.814 7  89240457.00948  85522089.482 6
G28  24562788.281 5                  24562792.766 3                 129078321.378 5 100580524.17543
G32  22592143.773 7  22592150.023    22592149.211 7  22592146.023 5 118722526.655 7  92511093.88547  88656496.626 5
> 2021 01 15 01 03 30.0000000  0 10
G01  21669789.227 7  21669796.473    21669795.969 6  21669791.867 6 113875529.745 7  88734203.51946  85036941.541 6
G03  24919933.195 5  24919939.984    24919939.359 5  24919936.668 4 130955137.05615 102042980.98145  97791154.33114
G08  20377114.688 8  20377121.664    20377120.688 9  20377117.262 7 107082471.124 8  83440916.45449  79964200.626 7
G10  22410560.484 8  22410566.781    22410566.406 7  22410562.348 6 117768298.138 8  91767544.54347  87943922.404 6
G14  23828327.766 7  23828331.695    23828330.133 4  23828332.410 5 125218689.239 7  97573023.40444  93507490.518 5
G21  21210070.438 8                  21210073.109 7                 111459695.330 8  86851717.07547
G22  22774858.586 7                  22774859.957 5                 119682697.264 7  93259256.23345
G27  21809347.039 8  21809353.648    21809353.172 8  21809349.410 6 114608899.614 8  89305665.93748  85584581.369 6
G28  24550593.633 6                  24550596.129 3                 129014230.002 6 100530582.85343
G32  22582794.266 7  22582800.512    22582799.289 7  22582796.375 5 118673394.168 7  92472808.85547  88619806.801 5
> 2021 01 15 01 04 00.0000000  0 11
G01  21655525.180 7  21655532.629    21655532.398 6  21655528.402 6 113800572.968 7  88675795.65546  84980967.319 6
G03  24898368.930 4  24898379.121    24898378.676 4  24898377.156 5                 101954696.44344  97706547.353 5
G08  20379459.430 8  20379466.469    20379465.285 9  20379462.320 7 107094792.590 8  83450517.58949  79973401.702 7
G10  22425866.797 7  22425872.398    22425872.031 8  22425868.191 5 117848730.528 7  91830219.14248  88003985.516 5
G14  23818308.109 6  23818312.762    23818311.465 4  23818312.914 5 125166038.561 6  97531996.90044  93468173.376 5
G21  21204528.266 8                  21204531.141 7                 111430571.976 8  86829023.56047
G22  22757605.852 7                  22757607.277 5                 119592033.180 7  93188608.89845
G23  25120863.352 5                                                 132011189.81715
G27  21825337.227 8  21825343.785    21825343.063 8  21825339.504 6 114692927.151 8  89371141.93348  85647329.207 6
G28  24538469.703 6                  24538471.441 3                 128950522.435 6 100480940.56443
G32  22573535.063 7  22573542.223    22573541.293 7  22573538.414 5 118624741.754 7  92434897.88347  88583475.452 5
> 2021 01 15 01 04 30.0000000  0 10
G01  21641304.984 7  21641312.645    21641312.113 6  21641307.887 6 113725845.668 7  88617566.60946  84925164.501 6
G03  24876828.867 6  24876836.457    24876835.453 5  24876832.242 4 130728623.43516 101866476.88445  97622004.56314
G08  20381903.648 8  20381910.328    20381909.199 9  20381906.078 7 107107635.109 8  83460524.74349  79982991.886 7
G10  22441226.164 7  22441232.070    22441232.145 7  22441227.977 6 117929446.494 7  91893114.69647  88064260.457 6
G14  23808386.930 6  23808391.086    23808390.258 4  23808392.145 5 125113901.849 6  97491370.90444  93429240.131 5
G21  21199028.016 8                  21199030.824 7                 111401668.264 8  86806501.18547
G22  22740406.242 7                  22740407.551 5                 119501647.312 7  93118178.35545
G27  21841392.133 7  21841398.664    21841398.168 8  21841395.066 6 114777297.624 7  89436885.14648  85710333.101 6
G28  24526420.758 6                  24526421.988 2                 128887202.384 6 100431600.27442
G32  22564368.969 7  22564375.828    22564374.742 7  22564371.934 5 118576573.185 7  92397363.94947  88547505.443 5
> 2021 01 15 01 05 00.0000000  0 10
G01  21627128.750 7  21627136.266    21627135.809 6  21627131.785 6 113651348.716 7  88559517.05546  84869533.682 6
G03  24855299.688 5  24855307.223    24855306.574 4                 130615497.376 5 101778326.71244
G08  20384446.375 8  20384453.355    20384452.414 9  20384448.961 7 107120999.281 8  83470938.37149  79992971.622 7
G10  22456639.414 7  22456645.320    22456645.156 7  22456640.758 6 118010443.921 7  91956229.57247  88124745.516 6
G14  23798563.680 6  23798568.184    23798566.750 4  23798569.492 5 125062280.848 6  97451146.70644  93390691.950 5
G21  21193569.758 8                  21193572.488 7                 111372984.620 8  86784150.29547
G22  22723259.328 7                  22723260.715 5                 119411541.111 7  93047965.73745
G27  21857512.281 8  21857518.809    21857518.414 8  21857515.238 6 114862009.577 8  89502894.44748  85773592.021 6
G28  24514444.219 5                  24514446.375 2                 128824271.393 5 100382563.07342
G32  22555295.383 7  22555302.238    22555301.109 7  22555298.289 5 118528890.613 7  92360208.73847  88511898.356 5
> 2021 01 15 01 05 30.0000000  0 10
G01  21612996.188 7  21613003.375    21613003.262 6  21612999.250 6 113577082.249 7  88501647.09446  84814074.979 6
G03  24833789.898 5  24833799.039    24833797.902 5  24833796.039 4 130502459.889 5 101690245.52745  97453114.28014
G08  20387088.750 8  20387095.621    20387094.574 9  20387091.273 7 107134883.992 8  83481757.62249  80003340.079 7
G10  22472105.813 7  22472111.816    22472111.695 7  22472107.449 5 118091719.848 7  92019561.46747  88185438.590 5
G14  23788839.000 6  23788843.613    23788843.918 4  23788843.063 5 125011176.600 6  97411325.24044  93352529.722 5
G21  21188153.344 8                  21188155.980 7                 111344519.828 8  86761969.93047
G22  22706166.125 7                  22706167.539 5                 119321715.202 7  92977971.53645
G27  21873697.000 8  21873703.734    21873702.789 8  21873700.105 6 114947060.689 8  89569168.03248  85837104.174 6
G28  24502543.398 6                  24502545.957 3                 128761730.912 6 100333830.24143
G32  22546314.859 7  22546321.355    22546320.469 7  22546317.320 5 118481695.313 7  92323433.21047  88476655.154 5
> 2021 01 15 01 06 00.0000000  0 10
G01  21598908.055 7  21598914.848    21598914.496 6  21598910.941 6 113503046.406 7  88443956.84346  84758788.483 6
G03  24812298.813 6  24812305.754    24812304.852 5                 130389512.512 6 101602234.67545
G08  20389829.797 8  20389836.684    20389835.633 9  20389832.668 7 107149289.058 8  83492982.34149  80014097.095 7
G10  22487624.836 8  22487630.160    22487630.371 7  22487625.984 5 118173271.381 8  92083108.11747  88246337.455 5
G14  23779212.922 6  23779217.355    23779216.809 4  23779218.469 5 124960590.138 6  97371907.20244  93314754.104 5
G21  21182778.117 8                  21182781.035 7                 111316273.997 8  86739960.19947
G22  22689126.180 7                  22689127.859 5                 119232170.976 7  92908196.81745
G27  21889945.875 8  21889952.379    21889951.883 8  21889948.816 6 115032448.836 8  89635704.24848  85900868.061 6
G28  24490717.813 6                  24490720.430 3                 128699582.593 6 100285402.96843
G32  22537427.281 7  22537433.117    22537432.668 7  22537429.344 5 118434988.698 7  92287038.46147  88441776.883 5
> 2021 01 15 01 06 30.0000000  0 10
G01  21584864.117 7  21584871.117    21584870.609 6  21584866.688 6 113429243.707 7  88386448.24646  84703676.119 6
G03  24790819.633 5  24790829.383    24790827.605 4  24790828.168 5 130276658.289 5 101514296.20244  97284517.17515
G08  20392670.461 8  20392677.531    20392676.137 9  20392673.359 7 107164216.231 8  83504613.89649  80025244.006 7
G10  22503195.680 7  22503201.473    22503201.395 7  22503196.875 5 118255097.999 7  92146869.11047  88307441.750 5
G14  23769685.609 6  23769689.707    23769689.336 4  23769690.906 5 124910524.647 6  97332895.14244  93277367.500 5
G21  21177445.203 8                  21177447.770 7                 111288248.755 8  86718122.34647
G22  22672140.938 7                  22672141.824 5                 119142910.769 7  92838643.42045
G27  21906258.586 8  21906265.230    21906264.898 8  21906261.746 6 115118174.095 8  89702503.13548  85964883.652 6
G28  24478966.969 6                  24478970.063 3                 128637829.551 6 100237283.73543
G32  22528632.641 7  22528639.445    22528638.406 7  22528635.070 5 118388774.453 7  92251027.37247  88407266.242 5
> 2021 01 15 01 07 00.0000000  0 10
G01  21570864.180 7  21570870.695    21570870.789 6  21570866.785 6 113355674.060 7  88329121.28146  84648737.763 6
G03  24769365.086 6  24769372.852    24769372.074 6                 130163898.402 6 101426431.40746
G08  20395610.258 8  20395617.355    20395616.020 9  20395612.980 7 107179665.358 8  83516652.16749  80036780.683 7
G10  22518818.617 7  22518824.504    22518824.133 7  22518819.941 6 118337196.610 7  92210842.04747  88368749.136 6
G14  23760257.977 6  23760262.070    23760261.586 4  23760263.027 5 124860980.973 6  97294289.66944  93240370.657 5
G21  21172154.086 8                  21172156.535 7                 111260443.345 8  86696455.79547
G22  22655209.547 7                  22655210.582 5                 119053935.309 7  92769311.91845
G27  21922635.453 8  21922642.070    21922641.582 8  21922638.117 6 115204234.000 8  89769562.79248  86029149.164 6
G28  24467291.586 6                  24467294.242 3                 128576472.748 6 100189473.20943
G32  22519932.070 7  22519938.719    22519938.195 7  22519934.605 5 118343053.660 7  92215400.79347  88373124.101 5
> 2021 01 15 01 07 30.0000000  0 10
G01  21556908.531 7  21556915.672    21556915.137 6  21556910.809 6 113282337.671 7  88271976.05346  84593973.584 6
G03  24747925.578 5  24747930.738                    24747930.809 5                 101338641.71015  97116161.59715
G08  20398649.117 8  20398656.445    20398655.250 9  20398651.883 7 107195635.383 8  83529096.35049  80048706.356 7
G10  22534492.508 7  22534498.266    22534498.176 7  22534493.758 5 118419564.388 7  92275024.72547  88430257.575 5
G14  23750928.883 6  23750932.934    23750933.043 4  23750934.523 5 124811960.114 6  97256091.60044  93203764.169 5
G21  21166904.570 8                  21166907.180 7                 111232856.984 8  86674959.92247
G22  22638331.906 7                  22638333.496 5                 118965245.550 7  92700203.01345
G27  21939075.531 8  21939082.305    21939081.215 8  21939078.324 6 115290626.386 8  89836881.52848  86093662.929 6
G28  24455689.844 5                  24455693.184 3                 128515513.517 5 100141972.54943
G32  22511325.219 7  22511332.109    22511331.473 7  22511328.398 5 118297827.685 7  92180159.77647  88339351.475 5
> 2021 01 15 01 08 00.0000000  0 10
G01  21542997.414 7  21543004.813    21543004.113 6  21543000.223 6 113209235.277 7  88215013.15346  84539384.139 6
G03  24726503.836 5  24726512.465    24726511.328 5  24726508.887 4 129938667.083 5 101250917.65045  97032101.34714
G08  20401787.516 8  20401794.578    20401793.461 9  20401790.219 7 107212126.810 8  83541946.80349  80061021.365 7
G10  22550217.156 7  22550223.156    22550222.930 7  22550219.301 6 118502199.031 7  92339415.36147  88491965.212 6
G14  23741701.289 6  23741705.234    23741703.895 4  23741706.289 5 124763463.575 6  97218302.09744  93167549.155 5
G21  21161696.891 8                  21161699.387 7                 111205490.218 8  86653635.16447
G22  22621509.570 7                  22621510.688 5                 118876842.636 7  92631317.63945
G27  21955578.148 7  21955584.770    21955584.184 8  21955581.152 6 115377349.547 7  89904458.00648  86158423.745 6
G28  24444165.891 5                  24444167.988 2                 128454953.605 5 100094782.97442
G32  22502813.445 7  22502820.672    22502819.813 7  22502816.926 5 118253098.429 7  92145305.83947  88305949.799 5
> 2021 01 15 01 08 30.0000000  0 10
G01  21529131.516 7  21529138.965    21529138.375 6  21529134.754 6 113136369.895 7  88158234.94046  84484971.686 6
G03  24705102.656 6  24705109.516    24705109.191 5  24705106.445 4 129826200.253 6 101163281.27245  96948116.42414
G08  20405025.266 8  20405032.184    20405031.320 9  20405027.832 7 107229141.684 8  83555205.13849  80073727.278 7
G10  22565992.883 7  22565998.867    22565998.770 7  22565994.258 5 118585100.556 7  92404013.94847  88553872.202 5
G14  23732572.641 6  23732577.520    23732576.043 4  23732577.926 5 124715495.136 6  97180924.08844  93131728.575 5
G21  21156531.188 8                  21156533.797 7                 111178344.672 8  86632482.79747
G22  22604742.500 7                  22604744.059 5                 118788730.354 7  92562658.72945
G27  21972144.273 7  21972151.047    21972150.230 8  21972146.895 6 115464404.079 7  89972292.70648  86223431.981 6
G28  24432718.742 6                  24432721.313 3                 128394796.968 6 100047907.65843
G32  22494397.461 7  22494404.148    22494403.230 7  22494400.324 5 118208870.001 7  92110842.16247  88272922.091 5
> 2021 01 15 01 09 00.0000000  0 10
G01  21515310.883 7  21515317.742    21515317.570 6  21515313.656 6 113063740.923 7  88101640.95446  84430735.768 6
G03  24683719.055 5  24683727.031    24683725.969 5  24683725.371 5 129713834.683 5 101075723.70645  96864207.096 5
G08  20408362.461 8  20408369.582    20408368.594 9  20408365.148 7 107246678.726 8  83568870.35649  80086823.091 7
G10  22581818.734 7  22581824.641    22581824.504 7  22581820.336 5 118668265.298 7  92468817.63147  88615975.708 5
G14  23723545.219 6  23723549.340    23723548.719 4  23723550.594 5 124668054.913 6  97143957.68344  93096302.411 5
G21  21151407.453 8                  21151410.191 7                 111151419.981 8  86611502.51747
G22  22588030.438 7                  22588031.777 5                 118700908.541 7  92494226.15845
G27  21988772.703 7  21988779.207    21988778.754 8  21988775.539 6 115551787.008 7  90040383.29548  86288685.456 6
G28  24421347.898 6                  24421350.055 3                 128335044.170 6 100001347.03843
G32  22486076.359 7  22486083.547    22486082.383 7  22486078.621 5 118165142.901 7  92076769.09447  88240268.748 5
> 2021 01 15 01 09 30.0000000  0 10
G01  21501534.906 7  21501542.105    21501541.941 6  21501537.906 6 112991349.283 7  88045231.88546  84376677.106 6
G03  24662357.398 6  24662364.762    24662364.172 5  24662362.066 4 129601572.254 6 100988246.45945  96780374.835 4
G08  20411799.070 8  20411806.043    20411805.051 9  20411801.621 7 107264738.244 8  83582942.70349  80100309.101 7
G10  22597694.258 7  22597700.121    22597699.887 7  22597695.250 5 118751691.162 7  92533824.79547  88678274.284 5
G14  23714618.211 6  23714622.742    23714622.277 4  23714623.109 5 124621144.516 6  97107404.13144  93061271.979 5
G21  21146325.984 8                  21146328.574 7                 111124716.066 8  86590694.27647
G22  22571374.039 7                  22571375.516 5                 118613378.706 7  92426021.10445
G27  22005463.547 7  22005469.742    22005469.648 8  22005466.414 6 115639496.721 7  90108728.50848  86354182.972 6
G28  24410055.656 6                  24410057.379 3                 128275696.981 6  99955102.42743
G32  22477851.609 7  22477858.195    22477857.289 7  22477854.066 5 118121919.099 7  92043088.22247  88207991.242 5
> 2021 01 15 01 10 00.0000000  0 10
G01  21487804.758 7  21487811.594    21487811.340 6  21487807.422 6 112919195.257 7  87989007.97446  84322795.853 6
G03  24641013.445 6  24641021.109    24641019.867 5  24641018.660 4 129489414.102 6 100900850.53845  96696620.29114
G08  20415335.273 8  20415341.934    20415340.922 9  20415337.637 7 107283319.449 8  83597421.56249  80114184.670 7
G10  22613618.617 7  22613624.816    22613624.445 7  22613620.488 6 118835375.437 7  92599033.32047  88740765.766 6
G14  23705792.594 6  23705796.621    23705796.246 4  23705797.344 5 124574764.959 6  97071264.20944  93026637.920 5
G21  21141285.953 8                  21141288.734 7                 111098232.122 8  86570057.43247
G22  22554773.617 7                  22554774.820 5                 118526141.726 7  92358044.23545
G27  22022215.875 7  22022222.523    22022221.805 8  22022218.551 6 115727531.174 7  90177326.77448  86419922.973 6
G28  24398838.656 6                  24398841.367 3                 128216756.691 6  99909174.97843
G32  22469722.617 7  22469729.031    22469728.117 7  22469724.613 5 118079199.998 7  92009800.62247  88176090.616 5
> 2021 01 15 01 10 30.0000000  0 10
G01  21474119.391 7  21474126.691    21474126.652 6  21474122.480 6 112847280.414 7  87932970.43746  84269093.212 6
G03  24619692.086 6  24619699.211    24619697.816 5  24619695.969 4 129377362.641 6 100813537.72945  96612945.65414
G08  20418970.414 8  20418977.441    20418976.398 9  20418972.926 7 107302423.491 8  83612307.81349  80128450.662 7
G10  22629592.219 7  22629598.438    22629597.625 7  22629594.293 6 118919316.448 7  92664441.89547  88803448.963 6
G14  23697068.742 6  23697072.570    23697071.926 4  23697072.969 5 124528918.451 6  97035539.66044  92992401.892 5
G21  21136288.688 8                  21136291.293 7                 111071969.541 8  86549593.08347
G22  22538229.070 7                  22538230.188 5                 118439199.583 7  92290297.11845
G27  22039029.914 7  22039036.258    22039035.340 8  22039032.352 6 115815889.418 7  90246177.34548  86485904.769 6
G28  24387701.477 6                  24387703.180 3                 128158225.973 6  99863566.62643
G32  22461689.680 7  22461696.273    22461695.332 7  22461691.809 5 118036988.145 7  91976908.27347  88144568.783 5
> 2021 01 15 01 11 00.0000000  0 10
G01  21460480.352 7  21460487.438    21460487.121 6  21460483.348 6 112775605.313 7  87877119.72746  84215569.607 6
G03  24598388.727 5  24598396.797    24598395.824 5  24598395.066 5 129265419.569 5 100726309.34145  96529351.73115
G08  20422705.336 8  20422712.395    20422711.293 9  20422707.762 7 107322050.204 8  83627601.35649  80143106.977 7
G10  22645614.039 7  22645619.840    22645619.484 7  22645615.789 5 119003512.134 7  92730048.92547  88866322.348 5
G14  23688445.289 6  23688449.957    23688448.820 4  23688450.758 5 124483606.253 6  97000231.44444  92958564.822 5
G21  21131333.289 8                  21131335.707 7                 111045928.331 8  86529301.23747
G22  22521740.586 7                  22521742.141 5                 118352553.403 7  92222780.64245
G27  22055904.836 7  22055911.566    22055910.820 8  22055907.645 6 115904569.600 7  90315278.77948  86552126.968 6
G28  24376641.148 6                  24376644.234 3                 128100106.000 6  99818278.34343
G32  22453753.133 7  22453760.289    22453759.422 7  22453756.129 5 117995285.146 7  91944412.43747  88113426.940 5
> 2021 01 15 01 11 30.0000000  0 10
G01  21446886.797 7  21446893.953    21446893.336 6  21446889.582 6 112704170.887 7  87821456.54246  84162225.756 6
G03  24577107.898 5  24577116.199    24577115.605 5  24577112.664 4 129153586.483 5 100639166.74445  96445840.10614
G08  20426539.586 8  20426546.625    20426545.434 9  20426542.176 7 107342199.459 8  83643302.06249  80158153.496 7
G10  22661683.992 7  22661690.262    22661689.602 7  22661685.332 5 119087960.192 7  92795852.60247  88929384.22815
G14  23679924.719 6  23679929.223    23679928.871 4  23679930.355 5 124438829.909 6  96965340.78344  92925127.945 5
G21  21126419.734 8                  21126422.402 7                 111020108.408 8  86509181.81747
G22  22505308.930 7                  22505310.254 5                 118266204.454 7  92155495.73945
G27  22072840.984 8  22072847.449    22072847.195 8  22072844.113 6 115993570.140 8  90384629.83848  86618588.410 6
G28  24365660.570 6                  24365661.988 3                 128042398.946 6  99773311.80343
G32  22445914.820 7  22445921.570    22445920.871 7  22445917.660 5 117954092.930 7  91912314.61247  88082666.516 5
> 2021 01 15 01 12 00.0000000  0 10
G01  21433338.977 7  21433346.289    21433346.035 6  21433342.016 6 112632977.878 7  87765981.48346  84109062.139 6
G03  24555849.352 6  24555855.059    24555854.047 5  24555854.063 5 129041865.092 6 100552111.09145  96362411.69615
G08  20430473.273 8  20430480.285    20430479.121 9  20430475.652 7 107362871.204 8  83659409.91149  80173590.175 7
G10  22677801.688 7  22677807.672    22677807.598 7  22677803.039 5 119172658.366 7  92861851.16447  88992632.852 5
G14  23671506.563 6  23671510.742    23671510.074 4  23671512.109 5 124394590.755 6  96930868.67544  92892092.184 5
G21  21121548.320 8                  21121551.090 7                 110994509.732 8  86489234.79447
G22  22488934.445 7                  22488935.418 6                 118180154.020 7  92088443.46246
G27  22089838.039 8  22089844.633    22089844.051 8  22089841.172 6 116082889.289 8  90454229.17248  86685287.746 6
G28  24354757.391 6                  24354760.094 3                 127985106.409 6  99728668.19543
G32  22438173.719 7  22438180.867    22438179.766 7  22438176.914 5 117913413.151 7  91880616.11847  88052288.802 5
> 2021 01 15 01 12 30.0000000  0 10
G01  21419837.977 7  21419844.840    21419844.547 6  21419840.730 6 112562027.164 7  87710695.21346  84056079.468 6
G03  24534610.063 6  24534618.395    24534617.648 5  24534616.137 4 128930257.194 6 100465144.06945  96279068.413 4
G08  20434506.492 8  20434513.363    20434512.332 9  20434508.941 7 107384065.651 8  83675925.06649  80189417.201 7
G10  22693966.336 7  22693972.230    22693971.918 7  22693968.035 5 119257604.512 7  92928042.96747  89056066.662 5
G14  23663190.922 6  23663194.719    23663194.324 4  23663195.129 5 124350890.266 6  96896816.35344  92859458.663 5
G21  21116719.313 8                  21116722.063 7                 110969132.679 8  86469460.47447
G22  22472616.273 7                  22472617.566 5                 118094403.607 7  92021624.97345
G27  22106895.000 7  22106901.852    22106901.352 8  22106898.320 6 116172525.471 7  90524075.53948  86752223.871 6
G28  24343934.211 6                  24343937.199 3                 127928229.965 6  99684348.91843
G32  22430530.727 7  22430537.367    22430536.621 7  22430533.172 5 117873247.747 7  91849318.40947  88022295.171 5
> 2021 01 15 01 13 00.0000000  0 10
G01  21406382.813 7  21406389.469    21406389.230 6  21406385.063 6 112491319.207 7  87655598.11046  84003278.097 6
G03  24513392.055 5  24513400.402    24513398.535 4  24513399.098 5 128818764.313 5 100378266.34444  96195809.54015
G08  20438639.086 8  20438646.047    20438644.750 9  20438641.738 7 107405782.195 8  83692847.04049  80205634.089 7
G10  22710177.750 7  22710183.277    22710183.215 7  22710179.176 5 119342796.091 7  92994426.01647  89119683.785 5
G14  23654977.539 6  23654982.070    23654981.672 4  23654982.621 5 124307729.494 6  96863184.59844  92827228.296 5
G21  21111932.313 8                  21111935.113 7                 110943976.885 8  86449858.55647
G22  22456355.922 7                  22456357.070 6                 118008954.229 7  91955041.05546
G27  22124012.281 7  22124019.023    22124018.652 8  22124015.168 6 116262476.628 7  90594167.34748  86819395.167 6
G28  24333189.711 6                  24333194.547 3                 127871771.304 6  99640355.12043
G32  22422985.680 7  22422992.438    22422991.395 7  22422988.410 5 117833598.063 7  91818422.56247  87992686.681 5
> 2021 01 15 01 13 30.0000000  0 10
G01  21392973.531 7  21392980.793    21392980.195 6  21392976.039 6 112420855.141 7  87600691.05946  83950658.828 6
G03  24492199.648 6  24492207.113    24492206.992 6  24492205.188 4 128707388.214 6 100291479.89046  96112639.223 4
G08  20442870.781 8  20442877.883    20442876.793 9  20442873.559 7 107428021.419 8  83710176.29849  80222241.298 7
G10  22726435.086 7  22726441.402    22726441.016 7  22726436.844 5 119428231.243 7  93060998.86947  89183482.750 5
G14  23646867.375 6  23646871.469    23646871.117 4  23646872.719 5 124265110.122 6  96829974.68644  92795402.071 5
G21  21107187.398 8                  21107190.234 7                 110919042.770 8  86430429.37747
G22  22440153.164 7                  22440154.305 6                 117923807.600 7  91888693.04046
G27  22141189.117 7  22141195.805    22141195.316 8  22141192.227 6 116352741.465 7  90664503.57248  86886800.714 6
G28  24322525.789 6                  24322529.238 3                 127815732.339 6  99596688.43743
G32  22415538.914 7  22415545.387    22415544.852 7  22415541.938 5 117794466.189 7  91787930.19747  87963464.801 5
> 2021 01 15 01 14 00.0000000  0 10
G01  21379611.102 7  21379618.313    21379617.813 6  21379613.820 6 112350635.842 7  87545974.72846  83898222.364 6
G03  24471028.789 6  24471035.500    24471034.840 6  24471033.109 5 128596130.733 6 100204785.74146  96029557.33715
G08  20447202.172 8  20447209.293    20447208.246 9  20447204.934 7 107450782.908 8  83727912.51249  80239238.487 7
G10  22742739.172 7  22742745.090    22742745.313 7  22742740.523 5 119513907.779 7  93127759.80747  89247461.997 5
G14  23638859.383 6  23638864.465    23638863.363 4  23638865.453 5 124223033.525 6  96797187.71544  92763981.248 5
G21  21102485.227 8                  21102487.609 7                 110894330.636 8  86411173.17747
G22  22424007.695 7                  22424008.902 5                 117838964.691 7  91822581.68545
G27  22158424.977 7  22158431.973    22158431.258 8  22158428.660 6 116443318.239 7  90735082.87048  86954439.235 6
G28  24311942.844 6                  24311945.660 3                 127760114.817 6  99553350.09243
G32  22408191.594 7  22408198.285    22408197.430 7  22408194.188 5 117755853.825 7  91757842.65247  87934630.899 5
> 2021 01 15 01 14 30.0000000  0 10
G01  21366296.117 7  21366302.707    21366302.633 6  21366298.629 6 112280661.973 7  87491449.64746  83845969.131 6
G03  24449878.898 5  24449885.867    24449885.203 5  24449881.121 4 128484993.543 5 100118185.41645  95946565.33114
G08  20451633.125 8  20451639.887    20451638.859 9  20451635.645 7 107474066.272 8  83746055.39249  80256625.418 7
G10  22759088.172 7  22759094.535    22759094.320 7  22759089.922 5 119599823.404 7  93194707.02747  89311619.732 5
G14  23630956.672 6  23630961.527    23630960.598 4  23630962.633 5 124181500.907 6  96764824.63744  92732966.648 5
G21  21097824.875 8                  21097827.430 7                 110869841.016 8  86392090.35147
G22  22407920.820 7                  22407922.484 5                 117754426.868 7  91756708.06245
G27  22175720.578 7  22175727.219    22175726.449 8  22175723.895 6 116534205.169 7  90805903.85048  87022309.316 6
G28  24301439.953 6                  24301442.367 3                 127704920.304 6  99510341.41743
G32  22400942.695 7  22400949.633    22400948.758 7  22400945.395 5 117717762.575 7  91728161.15747  87906186.142 5
> 2021 01 15 01 15 00.0000000  0 10
G01  21353026.977 7  21353034.246    21353034.094 6  21353030.039 6 112210934.709 7  87437116.72046  83793900.095 6
G03  24428753.258 6  24428763.055    24428762.023 6  24428760.223 5 128373978.649 6 100031680.18546  95863657.55415
G08  20456163.234 8  20456170.270    20456168.867 9  20456165.781 7 107497872.212 8  83764605.46849  80274402.593 7
G10  22775482.883 7  22775488.293    22775487.980 7  22775484.578 5 119685976.301 7  93261839.15147  89375954.680 5
G14  23623157.047 6  23623161.336    23623161.266 4  23623162.203 5 124140513.846 6  96732886.65144  92702359.444 5
G21  21093206.992 8                  21093209.559 7                 110845574.449 8  86373181.34547
G22  22391892.180 7                  22391893.809 5                 117670195.920 7  91691073.55745
G27  22193074.570 7  22193081.238    22193080.414 8  22193077.566 6 116625400.875 7  90876965.43248  87090409.986 6
G28  24291017.688 6                  24291019.336 3                 127650150.842 6  99467663.90543
G32  22393793.602 7  22393800.902    22393799.734 7  22393796.379 5 117680194.403 7  91698887.27247  87878132.004 5
> 2021 01 15 01 15 30.0000000  0 10
G01  21339805.367 7  21339812.621    21339812.051 6  21339808.348 6 112141454.591 7  87382976.38846  83742015.619 6
G03  24407653.680 6  24407657.648    24407656.000 5                 128263087.345 6  99945271.43545
G08  20460792.461 8  20460799.645    20460798.219 9  20460795.289 7 107522199.902 8  83783562.09749  80292569.354 7
G10  22791921.742 7  22791927.371    22791927.406 7  22791923.141 5 119772363.960 7  93329154.22547  89440464.922 5
G14  23615461.344 6  23615466.004    23615465.633 4  23615466.914 5 124100073.466 6  96701374.67644  92672160.402 5
G21  21088631.500 8                  21088634.086 7                 110821530.217 8  86354445.57047
G22  22375922.164 7                  22375923.434 5                 117586272.497 7  91625678.70445
G27  22210486.852 7  22210493.895    22210493.160 8  22210489.828 6 116716903.340 7  90948266.04548  87158739.763 6
G28  24280676.250 6                  24280679.324 3                 127595807.862 6  99425318.73943
G32  22386744.086 7  22386751.098    22386750.461 7  22386747.109 5 117643150.771 7  91670022.11647  87850469.553 5
> 2021 01 15 01 16 00.0000000  0 10
G01  21326631.055 7  21326638.180    21326637.801 6  21326633.754 6 112072222.626 7  87329029.40746  83690316.441 6
G03  24386575.375 6  24386581.762    24386581.309 6  24386579.406 5 128152321.555 6  99858960.51846  95698140.43015
G08  20465521.195 8  20465528.391    20465527.066 9  20465523.938 7 107547049.650 8  83802925.53349  80311125.974 7
G10  22808404.953 7  22808410.957    22808411.059 7  22808406.348 5 119858984.375 7  93396650.64347  89505149.023 5
G14  23607870.148 6  23607874.855    23607873.844 4  23607876.168 5 124060181.230 6  96670289.80444  92642370.755 5
G21  21084098.430 8                  21084101.148 7                 110797708.933 8  86335883.54247
G22  22360011.133 7                  22360012.078 6                 117502658.358 7  91560524.82446
G27  22227957.305 7  22227964.348    22227963.734 8  22227960.766 6 116808711.053 7  91019804.52348  87227297.449 6
G28  24270415.914 6                  24270419.242 3                 127541893.062 6  99383307.21843
G32  22379795.516 7  22379801.938    22379800.930 7  22379798.199 5 117606633.427 7  91641567.05447  87823200.172 5
> 2021 01 15 01 16 30.0000000  0 10
G01  21313504.117 7  21313510.992    21313510.734 6  21313506.680 6 112003239.763 7  87275276.54046  83638803.249 6
G03  24365519.305 5  24365528.129    24365526.621 5  24365525.172 5 128041683.224 5  99772748.76645  95615520.87215
G08  20470349.461 8  20470356.387    20470355.141 9  20470352.094 7 107572421.488 8  83822695.79649  80330072.494 7
G10  22824932.547 7  22824938.250    22824938.418 7  22824933.789 5 119945835.556 7  93464326.87047  89570005.415 5
G14  23600383.398 6  23600387.863    23600386.996 4  23600388.816 5 124020838.365 6  96639633.04444  92612991.39215
G21  21079608.242 8                  21079610.613 7                 110774110.919 8  86317495.47547
G22  22344158.594 7                  22344160.043 6                 117419354.405 7  91495612.65546
G27  22245485.727 7  22245492.328    22245491.809 8  22245489.160 6 116900822.391 7  91091579.57748  87296081.889 6
G28  24260238.680 6                  24260240.676 3                 127488408.266 6  99341630.70743
G32  22372946.820 7  22372953.656    22372952.535 7  22372949.551 5 117570644.100 7  91613523.43747  87796325.007 5
> 2021 01 15 01 17 00.0000000  0 10
G01  21300424.477 7  21300431.543    21300431.359 6  21300427.105 6 111934506.716 7  87221718.32846  83587476.650 6
G03  24344489.500 6  24344498.105    24344497.770 5  24344495.980 4 127931173.948 6  99686637.71445  95532997.760 4
G08  20475276.625 8  20475283.859    20475282.629 9  20475279.367 7 107598315.038 8  83842872.57449  80349408.550 7
G10  22841503.180 7  22841508.844    22841508.527 7  22841504.727 5 120032915.261 7  93532181.18747  89635032.453 5
G14  23593002.055 6  23593006.508    23593006.113 4  23593007.348 5 123982046.164 6  96609405.34644  92584023.114 5
G21  21075159.734 8                  21075162.438 7                 110750736.026 8  86299281.27647
G22  22328365.953 7                  22328366.945 6                 117336362.160 7  91430943.38346
G27  22263071.188 7  22263077.535    22263077.121 8  22263074.266 6 116993235.554 7  91163589.82548  87365091.697 6
G28  24250143.836 6                  24250146.914 3                 127435354.855 6  99300290.42743
G32  22366199.531 7  22366205.910    22366205.199 7  22366201.762 5 117535184.330 7  91585892.46247  87769845.334 5
> 2021 01 15 01 17 30.0000000  0 10
G01  21287393.094 7  21287399.969    21287399.574 6  21287395.996 6 111866024.461 7  87168355.54846  83536337.302 6
G03  24323486.781 6  24323494.668    24323494.008 5  24323492.359 5 127820795.317 6  99600628.31745  95450570.19715
G08  20480303.633 8  20480310.547    20480309.207 9  20480305.980 7 107624730.288 8  83863455.87849  80369134.227 7
G10  22858117.070 7  22858122.848    22858122.613 7  22858118.355 5 120120221.330 7  93600211.90547  89700228.532 5
G14  23585724.594 6  23585729.426    23585728.801 4  23585731.125 5 123943805.746 6  96579607.63544  92555467.006 5
G21  21070754.266 8                  21070757.016 7                 110727584.871 8  86281241.41547
G22  22312632.586 7                  22312633.828 6                 117253682.888 7  91366517.97446
G27  22280714.195 7  22280720.477    22280719.742 8  22280716.652 6 117085948.823 7  91235833.91948  87434325.634 6
G28  24240130.094 6                  24240133.238 3                 127382734.657 6  99259287.68543
G32  22359552.789 7  22359559.301    22359558.348 7  22359555.070 5 117500255.779 7  91558675.41847  87743762.283 5
> 2021 01 15 01 18 00.0000000  0 10
G01  21274408.727 7  21274416.109    21274415.891 6  21274411.832 6 111797793.666 7  87115188.70546  83485385.749 6
G03  24302508.688 6  24302513.543    24302512.633 5  24302510.809 4 127710549.077 6  99514722.19345  95368243.474 4
G08  20485429.266 8  20485436.301    20485435.102 9  20485431.883 7 107651666.769 8  83884445.33949  80389249.129 7
G10  22874773.039 7  22874779.355    22874779.121 7  22874774.434 5 120207751.569 7  93668417.27747  89765592.034 5
G14  23578553.672 6  23578557.906    23578557.461 4  23578558.578 5 123906118.292 6  96550240.76344  92527323.768 5
G21  21066391.211 8                  21066393.992 7                 110704657.296 8  86263375.76647
G22  22296959.203 7                  22296960.137 6                 117171317.584 7  91302337.22546
G27  22298413.953 7  22298420.316    22298419.453 8  22298416.418 6 117178960.402 7  91308310.47248  87503782.312 6
G28  24230199.984 6                  24230201.504 3                 127330549.101 6  99218623.59743
G32  22353007.234 7  22353013.828    22353013.191 7  22353009.570 5 117465859.901 7  91531873.43447  87718077.085 5
> 2021 01 15 01 18 30.0000000  0 10
G01  21261473.203 7  21261479.984    21261479.832 6  21261475.793 6 111729815.306 7  87062218.55846  83434622.711 6
G03  24281554.633 6  24281560.633    24281560.340 6  24281559.230 5 127600436.971 6  99428920.64246  95286016.938 5
G08  20490654.289 8  20490661.320    20490660.172 9  20490656.945 7 107679124.449 8  83905840.92349  80409753.209 7
G10  22891472.063 7  22891478.125    22891477.957 7  22891473.328 5 120295503.998 7  93736795.78547  89831121.409 5
G14  23571487.117 6  23571491.438    23571491.418 4  23571492.676 5 123868985.133 6  96521305.86744  92499594.507 5
G21  21062070.820 8                  21062073.832 7                 110681953.724 8  86245684.67747
G22  22281345.703 7                  22281346.613 6                 117089267.360 7  91238401.98946
G27  22316169.898 7  22316176.305    22316175.891 8  22316172.563 6 117272268.709 7  91381018.23048  87573460.583 6
G28  24220351.914 6                  24220354.805 3                 127278799.926 6  99178299.62043
G32  22346563.539 7  22346570.488    22346569.867 8  22346566.301 5 117431998.323 7  91505487.78948  87692790.827 5
> 2021 01 15 01 19 00.0000000  0 10
G01  21248585.367 7  21248592.395    21248591.832 6  21248588.090 6 111662089.910 7  87009445.52346  83384048.561 6
G03  24260624.719 5  24260633.180    24260632.840 5  24260629.809 5 127490460.450 5  99343224.61545  95203891.56815
G08  20495978.352 8  20495985.418    20495984.160 9  20495981.055 7 107707102.426 8  83927641.93749  80430645.865 7
G10  22908212.430 7  22908218.238    22908218.395 7  22908214.094 5 120383476.024 7  93805345.42347  89896814.850 5
G14  23564525.945 6  23564530.934    23564531.059 4  23564532.316 5 123832406.982 6  96492803.39244  92472279.614 5
G21  21057793.266 8                  21057796.012 7                 110659473.807 8  86228167.85647
G22  22265791.789 7                  22265793.172 6                 117007533.811 7  91174713.51046
G27  22333981.836 7  22333988.410    22333988.070 8  22333984.660 6 117365871.584 7  91453955.52348  87643358.842 6
G28  24210587.227 6                  24210589.234 3                 127227488.369 6  99138316.59643
G32  22340222.141 7  22340228.570    22340227.781 8  22340224.949 5 117398672.256 7  91479519.43648  87667904.538 5
> 2021 01 15 01 19 30.0000000  0 10
G01  21235746.063 7  21235752.992    21235752.754 6  21235748.531 6 111594618.531 7  86956870.43146  83333664.093 6
G03  24239723.234 6  24239730.691    24239729.355 5  24239728.555 5 127380621.442 6  99257635.74645  95121868.946 5
G08  20501401.609 8  20501408.430    20501407.352 9  20501404.285 6 107735601.097 8  83949848.69049  80451927.325 6
G10  22924994.602 7  22925000.766    22925000.441 7  22924996.004 5 120471665.839 7  93874064.75347  89962670.839 5
G14  23557672.148 6  23557676.367    23557675.410 4  23557677.613 5 123796385.321 6  96464734.54644  92445380.302 5
G21  21053557.734 8                  21053560.961 7                 110637217.967 8  86210825.65047
G22  22250299.008 7                  22250299.949 6                 116926117.899 7  91111272.53446
G27  22351849.539 7  22351856.023    22351855.688 8  22351852.301 6 117459767.523 7  91527121.17748  87713475.907 6
G28  24200906.367 6                  24200908.680 3                 127176616.349 6  99098676.02043
G32  22333981.930 7  22333988.965    22333988.117 8  22333985.156 5 117365883.481 7  91453969.73648  87643419.390 5
> 2021 01 15 01 20 00.0000000  0 10
G01  21222954.945 7  21222962.438    21222961.941 6  21222957.586 6 111527402.320 7  86904494.17546  83283470.168 6
G03  24218848.883 6  24218856.555    24218855.922 5  24218854.469 5 127270921.823 6  99172155.54045  95039950.41215
G08  20506923.586 8  20506930.711    20506929.598 9  20506926.402 7 107764620.342 8  83972461.08449  80473597.536 7
G10  22941817.664 7  22941823.328    22941823.277 7  22941818.523 5 120560071.519 7  93942952.29947  90028688.095 5
G14  23550923.922 6  23550927.523    23550926.711 4  23550928.836 5 123760921.429 6  96437100.38044  92418897.544 5
G21  21049365.945 8                  21049368.328 7                 110615187.072 8  86193658.71447
G22  22234866.977 7                  22234867.809 6                 116845020.956 7  91048080.11846
G27  22369772.781 7  22369779.051    22369778.660 8  22369775.281 6 117553955.082 7  91600514.07148  87783810.767 6
G28  24191310.086 6                  24191313.438 3                 127126185.575 6  99059379.33943
G32  22327845.281 7  22327852.039    22327851.395 8  22327847.961 5 117333633.697 7  91428840.04048  87619336.755 5
> 2021 01 15 01 20 30.0000000  0 10
G01  21210213.125 7  21210220.160    21210219.473 6  21210215.508 6 111460441.863 7  86852317.20946  83233467.252 6
G03  24198001.148 6  24198008.781    24198007.320 6  24198003.906 5 127161363.075 6  99086785.07946  94958137.055 5
G08  20512544.781 8  20512552.035    20512550.875 9  20512547.629 7 107794159.738 8  83995478.78449  80495656.161 7
G10  22958681.477 7  22958687.293    22958686.887 7  22958682.793 5 120648690.746 7  94012006.23547  90094864.756 5
G14  23544280.070 6  23544284.926    23544283.738 3  23544286.242 5 123726016.195 6  96409901.49543  92392831.960 5
G21  21045216.203 8                  21045218.797 7                 110593380.702 8  86176666.74147
G22  22219495.680 7                  22219496.711 6                 116764244.214 7  90985137.19846
G27  22387750.836 7  22387757.781    22387757.055 8  22387754.348 6 117648432.220 7  91674132.61348  87854361.863 6
G28  24181798.563 6                  24181801.898 3                 127076197.110 6  99020427.31143
G32  22321810.805 7  22321818.141    22321817.207 8  22321813.617 5 117301924.164 7  91404131.31948  87595657.556 5
> 2021 01 15 01 21 00.0000000  0 10
G01  21197519.891 7  21197526.508    21197526.344 6  21197522.477 6 111393737.976 7  86800340.15046  83183655.898 6
G03  24177179.594 6  24177186.430    24177185.336 5  24177184.750 5 127051946.817 6  99001525.70445  94876430.169 5
G08  20518264.750 8  20518271.801    20518270.727 9  20518267.664 7 107824218.285 8  84018901.02149  80518102.474 7
G10  22975585.266 7  22975591.059    22975590.645 7  22975587.035 5 120737521.314 7  94081224.85347  90161199.299 5
G14  23537745.469 6  23537749.684    23537749.559 4  23537750.219 5 123691670.629 6  96383138.71844  92367184.330 5
G21  21041109.406 8                  21041112.102 7                 110571799.395 8  86159850.13347
G22  22204185.633 7                  22204186.641 6                 116683789.026 7  90922444.84446
G27  22405784.281 7  22405791.199    22405790.371 8  22405787.570 6 117743197.066 7  91747975.32948  87925127.807 6
G28  24172369.516 6                  24172372.605 3                 127026653.214 6  98981821.64343
G32  22315880.047 7  22315886.641    22315885.816 8  22315882.590 5 117270756.197 7  91379844.59948  87572382.795 5
> 2021 01 15 01 21 30.0000000  0 10
G01  21184875.063 7  21184882.234    21184882.082 6  21184878.359 6 111327291.863 7  86748563.96146  83134037.052 6
G03  24156385.516 6  24156393.359    24156392.730 5  24156390.285 5 126942675.130 6  98916378.95345  94794831.175 5
G08  20524083.531 8  20524090.648    20524089.457 9  20524086.734 7 107854796.732 8  84042728.37649  80540937.030 7
G10  22992529.141 7  22992534.555    22992534.563 7  22992530.262 5 120826561.529 7  94150606.83947  90227690.337 5
G14  23531316.359 6  23531320.363    23531319.492 3  23531321.723 5 123657886.163 6  96356813.16243  92341955.604 5
G21  21037045.430 8                  21037047.938 7                 110550443.377 8  86143209.08647
G22  22188936.539 7                  22188937.793 6                 116603656.685 7  90860004.04846
G27  22423871.641 7  22423878.465    22423878.074 8  22423875.336 6 117838248.238 7  91822041.16748  87996107.575 6
G28  24163026.906 6                  24163029.836 3                 126977554.862 6  98943563.19243
G32  22310052.445 7  22310058.891    22310058.094 8  22310054.992 5 117240131.712 7  91355981.37248  87549513.832 5
> 2021 01 15 01 22 00.0000000  0 10
G01  21172280.000 7  21172287.344    21172287.164 6  21172282.902 6 111261103.839 7  86696988.88246  83084610.938 6
G03  24135619.117 6  24135626.969    24135626.051 5  24135624.246 5 126833549.197 6  98831345.75545  94713341.034 5
G08  20530001.297 8  20530008.316    20530007.125 9  20530004.176 7 107885894.207 8  84066960.16049  80564159.156 7
G10  23009512.383 7  23009517.738    23009517.953 7  23009513.641 5 120915808.730 7  94220150.12147  90294336.009 5
G14  23524994.656 6  23524998.492    23524997.867 4  23524999.422 5 123624663.321 6  96330925.22744  92317146.335 5
G21  21033024.516 8                  21033026.816 7                 110529312.426 8  86126743.42147
G22  22173749.656 7                  22173750.773 6                 116523847.669 7  90797815.19846
G27  22442013.445 7  22442020.043    22442019.684 8  22442016.398 6 117933583.486 7  91896328.36548  88067299.459 6
G28  24153768.695 6                  24153771.551 3                 126928903.322 6  98905652.91743
G32  22304328.852 7  22304335.066    22304334.203 8  22304330.887 5 117210051.531 7  91332542.28148  87527051.430 5
> 2021 01 15 01 22 30.0000000  0 10
G01  21159734.398 7  21159741.297    21159741.020 6  21159737.160 6 111195174.959 7  86645615.73646  83035378.362 6
G03  24114881.656 6  24114888.492    24114887.172 5  24114887.816 5 126724570.826 6  98746427.54845  94631961.129 5
G08  20536017.602 8  20536024.523    20536023.422 9  20536020.332 7 107917509.928 8  84091595.78149  80587768.297 7
G10  23026533.742 7  23026540.160    23026540.082 7  23026535.840 5 121005260.962 7  94289853.14647  90361134.689 5
G14  23518778.344 6  23518783.961    23518783.594 4  23518783.918 5 123592003.187 6  96305475.76744  92292757.265 5
G21  21029046.094 8                  21029048.688 7                 110508407.047 8  86110453.51547
G22  22158623.906 7                  22158625.188 6                 116444363.258 7  90735879.29546
G27  22460209.477 7  22460216.031    22460215.078 8  22460212.055 6 118029201.120 7  91970835.59148  88138702.209 6
G28  24144595.555 6                  24144597.543 3                 126880700.394 6  98868092.19343
G32  22298708.805 7  22298715.047    22298713.883 8  22298710.445 5 117180517.132 7  91309528.46248  87504996.487 5
> 2021 01 15 01 23 00.0000000  0 10
G01  21147237.922 7  21147245.191    21147244.523 6  21147240.719 6 111129505.875 7  86594445.02046  82986339.735 6
G03  24094172.281 6  24094179.086    24094178.344 5  24094176.969 5 126615741.590 6  98661625.53945  94550692.517 5
G08  20542132.336 8  20542139.371    20542138.563 9  20542135.305 7 107949644.167 8  84116635.44349  80611764.624 7
G10  23043595.266 7  23043601.109    23043601.039 7  23043596.664 5 121094916.072 7  94359714.27647  90428084.969 5
G14  23512671.906 6  23512675.305    23512675.109 4  23512676.434 5 123559906.676 6  96280465.49444  92268789.183 5
G21  21025110.789 8                  21025113.512 7                 110487726.976 8  86094339.16547
G22  22143560.789 7                  22143561.953 6                 116365204.919 7  90674197.47146
G27  22478457.805 7  22478464.453    22478464.145 7  22478461.199 6 118125099.273 7  92045561.41447  88210314.462 6
G28  24135509.141 6                  24135512.145 3                 126832947.687 6  98830882.28643
G32  22293192.211 7  22293198.844    22293197.801 8  22293194.281 5 117151529.886 7  91286941.00748  87483350.205 5
> 2021 01 15 01 23 30.0000000  0 10
G01  21134791.578 7  21134798.270    21134797.859 6  21134794.051 6 111064098.037 7  86543477.87346  82937496.237 6
G03  24073490.813 6  24073499.590    24073498.168 5  24073496.434 5 126507063.576 6  98576941.35545  94469536.86415
G08  20548346.000 8  20548353.109    20548351.996 9  20548348.566 6 107982296.383 8  84142078.72249  80636147.802 6
G10  23060694.352 7  23060700.098    23060699.957 7  23060695.641 5 121184772.308 7  94429732.11647  90495185.395 5
G14  23506670.922 6  23506675.676    23506674.750 4  23506676.094 5 123528375.191 6  96255895.49444  92245242.921 5
G21  21021218.586 8                  21021221.492 7                 110467273.624 8  86078401.48747
G22  22128559.531 8                  22128561.098 6                 116286373.888 8  90612770.69646
G27  22496759.859 7  22496766.391    22496765.758 7  22496763.438 6 118221276.497 7  92120504.69247  88282135.110 6
G28  24126507.508 6                  24126510.902 3                 126785646.647 6  98794024.33743
G32  22287780.477 7  22287787.387    22287785.891 8  22287783.238 5 117123091.425 7  91264781.18148  87462113.670 5
> 2021 01 15 01 24 00.0000000  0 10
G01  21122394.250 8  21122401.289    21122401.320 6  21122397.164 6 110998951.739 8  86492714.52546  82888848.030 6
G03  24052839.586 6  24052846.793    24052845.070 5  24052844.965 5 126398537.912 6  98492375.95245  94388495.040 5
G08  20554658.078 8  20554665.043    20554663.813 9  20554660.621 7 108015465.722 8  84167924.95349  80660917.082 7
G10  23077830.750 7  23077837.000    23077837.074 7  23077832.840 5 121274827.112 7  94499904.68647  90562434.102 5
G14  23500778.922 7  23500782.824    23500782.688 4  23500783.391 5 123497409.069 7  96231766.06344  92222118.852 5
G21  21017369.750 8                  21017372.184 7                 110447045.781 8  86062639.53347
G22  22113621.242 8                  22113622.242 6                 116207870.960 8  90551599.57046
G27  22515114.500 7  22515121.043    22515120.176 7  22515117.582 6 118317730.516 7  92195663.65547  88354162.450 6
G28  24117593.188 6                  24117594.402 3                 126738798.204 6  98757519.08843
G32  22282473.570 7  22282480.480    22282479.117 8  22282475.695 5 117095202.640 7  91243049.67048  87441287.642 5
> 2021 01 15 01 24 30.0000000  0 10
G01  21110047.609 8  21110054.285    21110054.234 6  21110050.293 6 110934067.980 8  86442155.75946  82840395.881 6
G03  24032217.375 6  24032223.902    24032223.309 5  24032221.902 5 126290166.496 6  98407930.72445  94307568.31915
G08  20561068.320 8  20561075.293    20561074.074 9  20561071.121 7 108049151.768 8  84194173.81849  80686072.232 7
G10  23095005.117 7  23095010.949    23095011.172 7  23095007.152 5 121365078.576 7  94570230.49547  90629829.706 5
G14  23494993.102 6  23494997.742    23494997.262 4  23494998.656 5 123467009.491 6  96208078.09044  92199417.876 5
G21  21013563.453 8                  21013566.004 7                 110427044.608 8  86047054.20047
G22  22098745.883 8                  22098746.359 6                 116129697.301 8  90490685.01946
G27  22533521.516 7  22533528.074    22533527.375 7  22533524.469 6 118414459.690 7  92271037.02647  88426395.220 6
G28  24108765.398 6                  24108767.238 3                 126692404.326 6  98721367.99543
G32  22277271.609 7  22277277.992    22277277.016 8  22277274.098 5 117067864.970 7  91221747.60148  87420873.165 5
> 2021 01 15 01 25 00.0000000  0 10
G01  21097750.742 7  21097757.566    21097757.039 6  21097753.422 6 110869447.959 7  86391802.50746  82792140.681 6
G03  24011625.141 6  24011632.609    24011631.371 6  24011629.082 5 126181951.302 6  98323607.21946  94226758.287 5
G08  20567576.609 8  20567583.746    20567582.711 9  20567579.555 7 108083354.790 8  84220825.51049  80711613.436 7
G10  23112216.820 7  23112222.500    23112222.453 7  23112218.078 5 121455524.968 7  94640708.21147  90697370.799 5
G14  23489317.133 6  23489321.504    23489321.043 4  23489321.371 5 123437177.690 6  96184832.52944  92177140.875 5
G21  21009800.836 8                  21009803.188 7                 110407270.412 8  86031645.73447
G22  22083932.156 7                  22083933.605 6                 116051854.563 7  90430028.34246
G27  22551980.227 7  22551987.152    22551986.703 7  22551983.355 6 118511462.526 7  92346623.63047  88498832.387 6
G28  24100022.570 6                  24100026.500 3                 126646466.470 6  98685572.26143
G32  22272174.422 7  22272181.012    22272179.930 8  22272177.145 5 117041079.984 7  91200876.20148  87400871.421 5
> 2021 01 15 01 25 30.0000000  0 10
G01  21085504.039 8  21085511.047    21085510.262 6  21085507.113 6 110805092.337 8  86341655.26046  82744082.897 6
G03  23991062.250 6  23991068.914    23991067.828 6  23991066.781 5 126073893.749 6  98239406.54146  94146066.039 5
G08  20574183.875 8  20574190.660    20574189.555 9  20574186.504 7 108118073.951 8  84247879.39549  80737540.091 7
G10  23129464.328 7  23129470.719    23129470.383 7  23129465.980 5 121546163.976 7  94711336.00947  90765055.750 5
G14  23483748.164 6  23483752.152    23483752.152 4  23483753.250 5 123407914.275 6  96162029.85944  92155288.315 5
G21  21006080.688 8                  21006083.555 7                 110387723.401 8  86016414.30547
G22  22069182.813 7                  22069183.930 6                 115974343.480 7  90369630.09346
G27  22570491.305 7  22570497.754    22570497.434 7  22570494.527 6 118608736.990 7  92422421.89647  88571472.373 6
G28  24091367.859 6                  24091371.668 3                 126600985.850 6  98650132.84543
G32  22267182.305 7  22267189.523    22267188.492 8  22267185.414 5 117014848.766 7  91180436.30648  87381283.179 5
> 2021 01 15 01 26 00.0000000  0 10
G01  21073307.898 7  21073315.133    21073314.691 6  21073311.035 6 110741001.920 7  86291714.67246  82696223.175 6
G03  23970530.023 6  23970536.813    23970535.320 6  23970534.234 5 125965995.464 6  98155329.97846  94065492.665 5
G08  20580888.594 8  20580895.770    20580894.590 9  20580891.426 7 108153308.842 8  84275335.14349  80763851.833 7
G10  23146749.289 7  23146754.824    23146754.801 7  23146750.523 5 121636993.467 7  94782112.23447  90832883.022 5
G14  23478288.352 6  23478292.520    23478292.590 4  23478293.320 5 123379220.039 6  96139670.70344  92133860.763 5
G21  21002404.344 8                  21002407.168 7                 110368403.387 8  86001359.74647
G22  22054495.883 7                  22054497.148 6                 115897165.251 7  90309491.21646
G27  22589053.289 7  22589059.891    22589059.172 7  22589056.559 6 118706281.185 7  92498430.34747  88644313.823 6
G28  24082800.906 6                  24082803.465 3                 126555963.810 6  98615050.72943
G32  22262296.383 7  22262303.402    22262302.656 8  22262298.891 5 116989172.485 7  91160428.82348  87362109.360 5
> 2021 01 15 01 26 30.0000000  0 10
G01  21061162.875 8  21061169.656    21061169.449 6  21061165.402 6 110677177.636 8  86241981.46646  82648562.190 6
G03  23950027.641 6  23950035.418    23950034.391 6  23950032.539 5 125858258.052 6  98071378.78746  93985039.374 5
G08  20587691.797 8  20587698.836    20587697.730 9  20587694.371 6 108189058.632 8  84303192.12249  80790548.106 6
G10  23164069.055 7  23164075.160    23164074.469 6  23164070.719 5 121728011.372 7  94853035.27246  90900850.920 5
G14  23472935.883 6  23472940.551    23472940.063 4  23472940.324 5 123351095.741 6  96117755.69744  92112858.867 5
G21  20998771.266 8                  20998773.676 7                 110349310.779 8  85986482.38747
G22  22039872.797 7                  22039874.027 6                 115820320.798 7  90249612.43346
G27  22607665.836 7  22607672.793    22607672.125 7  22607669.168 6 118804093.273 7  92574647.54547  88717355.282 6
G28  24074320.586 6                  24074323.648 3                 126511401.668 6  98580326.98443
G32  22257516.117 7  22257522.836    22257522.695 8  22257519.066 5 116964052.288 7  91140854.66748  87343350.778 5
> 2021 01 15 01 27 00.0000000  0 10
G01  21049068.250 8  21049075.324    21049074.676 6  21049070.902 6 110613620.297 8  86192456.27046  82601100.546 6
G03  23929556.500 6  23929564.477    23929562.672 5  23929561.824 5 125750683.267 6  97987554.29245  93904707.609 5
G08  20594592.547 8  20594599.531    20594598.688 9  20594595.238 6 108225323.165 8  84331450.20049  80817628.785 6
G10  23181424.703 7  23181430.602    23181430.340 6  23181426.328 5 121819215.764 7  94924103.63746  90968958.021 5
G14  23467692.992 6  23467697.148    23467696.230 4  23467698.223 5 123323542.409 6  96096285.54144  92092283.357 5
G21  20995181.203 8                  20995183.938 7                 110330445.842 8  85971782.43847
G22  22025313.898 8                  22025314.891 6                 115743811.010 8  90189994.41946
G27  22626329.742 7  22626336.602    22626336.160 7  22626332.699 6 118902171.520 7  92651072.14047  88790595.527 6
G28  24065928.648 6                  24065931.367 3                 126467301.104 6  98545962.90343
G32  22252842.164 7  22252848.813    22252847.918 8  22252844.219 5 116939489.527 7  91121714.87048  87325008.463 5
> 2021 01 15 01 27 30.0000000  0 10
G01  21037024.781 8  21037031.617    21037031.301 6  21037027.367 6 110550330.827 8  86143139.79946  82553838.932 6
G03  23909118.008 6  23909124.426    23909123.512 5  23909122.250 5 125643272.759 6  97903857.81745  93824498.467 5
G08  20601591.242 8  20601598.371    20601597.199 9  20601594.281 7 108262101.504 8  84360108.63149  80845093.084 7
G10  23198815.719 7  23198821.738    23198821.414 7  23198816.813 5 121910604.503 7  94995315.63647  91037202.952 5
G14  23462557.141 6  23462563.098    23462562.449 4  23462562.816 5 123296560.655 6  96075260.79044  92072134.642 5
G21  20991635.047 8                  20991637.422 7                 110311809.146 8  85957260.34747
G22  22010818.281 8                  22010819.273 6                 115667637.450 8  90130638.40346
G27  22645043.992 7  22645050.645    22645050.387 7  22645046.852 6 119000513.971 7  92727702.60547  88864033.069 6
G28  24057624.406 6                  24057626.961 3                 126423663.179 6  98511959.34143
G32  22248274.070 7  22248281.063    22248279.875 8  22248277.039 6 116915485.258 7  91103010.26548  87307083.230 6
> 2021 01 15 01 28 00.0000000  0 10
G01  21025032.141 8  21025039.156    21025038.809 6  21025034.750 6 110487310.214 8  86094032.83646  82506778.074 6
G03  23888709.234 6  23888716.430    23888715.496 5  23888714.066 5 125536028.294 6  97820290.71245  93744413.349 5
G08  20608687.664 8  20608694.703    20608693.555 9  20608690.594 7 108299393.643 8  84389167.43949  80872941.131 7
G10  23216241.453 7  23216246.758    23216246.813 7  23216241.617 5 122002175.721 7  95066669.82447  91105584.034 5
G14  23457532.844 6  23457537.051    23457535.797 4  23457537.906 5 123270151.447 6  96054682.19644  92052413.435 5
G21  20988132.086 8                  20988134.438 7                 110293400.975 8  85942916.31447
G22  21996386.914 7                  21996387.840 6                 115591801.194 7  90071545.22146
G27  22663807.820 7  22663814.359    22663814.043 7  22663810.863 6 119099119.004 7  92804537.68147  88937666.694 6
G28  24049407.875 6                  24049411.660 3                 126380489.545 6  98478317.53543
G32  22243812.883 7  22243819.656    22243818.805 8  22243815.684 6 116892040.786 7  91084741.85848  87289576.019 6
> 2021 01 15 01 28 30.0000000  0 10
G01  21013091.141 8  21013098.070    21013097.750 6  21013093.965 6 110424559.102 8  86045135.87246  82459918.509 6
G03  23868333.109 6  23868340.422    23868339.422 6  23868337.594 5 125428951.257 6  97736854.06546  93664453.295 5
G08  20615881.789 8  20615888.898    20615887.680 9  20615884.480 7 108337198.790 8  84418625.98849  80901172.218 7
G10  23233700.852 7  23233706.883    23233706.555 7  23233701.789 5 122093927.129 7  95138164.41147  91174099.67815
G14  23452615.977 6  23452620.398    23452619.887 4  23452621.926 5 123244315.220 6  96034550.08944  92033120.187 5
G21  20984672.273 8                  20984674.949 7                 110275220.753 8  85928749.90847
G22  21982020.227 7                  21982021.242 6                 115516302.898 7  90012715.39146
G27  22682620.758 7  22682628.137    22682627.254 7  22682623.922 6 119197984.470 7  92881575.69347  89011494.776 6
G28  24041282.586 6                  24041283.852 3                 126337780.901 6  98445038.10043
G32  22239458.414 7  22239464.828    22239463.949 8  22239461.020 5 116869156.954 7  91066910.32448  87272487.478 5
> 2021 01 15 01 29 00.0000000  0 10
G01  21001201.156 8  21001208.340    21001207.957 6  21001204.297 6 110362078.439 8  85996449.64846  82413260.862 6
G03  23847989.398 6  23847996.500    23847995.641 6  23847993.625 5 125322043.327 6  97653549.21046  93584619.423 5
G08  20623173.445 8  20623180.500    20623179.293 9  20623176.063 6 108375516.150 8  84448483.66649  80929785.849 6
G10  23251193.820 7  23251200.195    23251200.074 7  23251195.551 5 122185856.766 7  95209797.89947  91242748.434 5
G14  23447809.117 6  23447813.195    23447812.914 4  23447813.883 5 123219052.804 6  96014865.09244  92014255.371 5
G21  20981256.289 8                  20981258.879 7                 110257269.011 8  85914761.54047
G22  21967717.734 7                  21967719.027 6                 115441143.787 7  89954149.85646
G27  22701483.875 7  22701490.527    22701489.914 7  22701486.625 6 119297108.576 7  92958815.24847  89085515.982 6
G28  24033242.633 6                  24033246.270 3                 126295538.984 6  98412122.31243
G32  22235210.641 7  22235217.141    22235216.070 8  22235212.688 5 116846834.970 7  91049516.57548  87255818.452 5
> 2021 01 15 01 29 30.0000000  0 10
G01  20989363.375 8  20989370.441    20989370.004 6  20989366.012 6 110299869.151 8  85947974.87646  82366805.878 6
G03  23827678.727 6  23827685.840    23827683.879 6  23827682.719 5 125215306.221 6  97570377.48246  93504913.239 5
G08  20630562.266 8  20630569.316    20630568.160 9  20630564.891 7 108414345.060 8  84478739.95249  80958781.426 7
G10  23268721.039 7  23268727.473    23268727.297 6  23268722.465 5 122277962.636 7  95281568.69646  91311528.759 5
G14  23443111.172 6  23443115.352    23443114.672 4  23443117.449 5 123194364.849 6  95995627.71844  91995819.614 5
G21  20977883.508 8                  20977886.422 7                 110239546.667 8  85900951.92447
G22  21953480.250 7                  21953481.555 6                 115366324.896 7  89895849.44446
G27  22720395.602 7  22720402.418    22720401.609 7  22720398.895 6 119396489.508 7  93036254.92447  89159728.988 6
G28  24025293.633 6                  24025296.965 3                 126253764.991 6  98379571.16743
G32  22231069.656 7  22231076.648    22231075.813 8  22231071.992 5 116825075.920 7  91032561.48348  87239569.822 5
> 2021 01 15 01 30 00.0000000  0 10
G01  20977576.930 8  20977584.027    20977583.859 6  20977579.750 6 110237931.886 8  85899712.08646  82320554.055 6
G03  23807399.945 6  23807406.547    23807405.031 6  23807403.410 5 125108741.361 6  97487339.95746  93425335.624 5
G08  20638048.180 8  20638055.363    20638054.340 9  20638051.203 7 108453684.679 8  84509394.19649  80988158.425 7
G10  23286282.203 7  23286287.941    23286287.613 6  23286283.473 5 122370242.524 7  95353475.09346  91380439.105 5
G14  23438522.547 6  23438527.082    23438526.727 4  23438527.375 5 123170251.963 6  95976838.43444  91977813.206 5
G21  20974555.016 8                  20974557.480 7                 110222053.044 8  85887320.53247
G22  21939307.477 7                  21939308.570 6                 115291847.192 7  89837814.87746
G27  22739355.703 7  22739362.070    22739361.402 7  22739358.895 6 119496125.188 7  93113893.09747  89234132.254 6
G28  24017434.211 6                  24017437.094 3                 126212459.912 6  98347385.40143
G32  22227036.859 7  22227043.387    22227042.477 8  22227039.266 5 116803880.662 7  91016045.70348  87223742.233 5
> 2021 01 15 01 30 30.0000000  0 10
G01  20965843.227 8  20965849.637    20965849.418 6  20965845.484 6 110176267.825 8  85851662.18246  82274506.217 6
G03  23787155.023 6  23787161.180    23787160.488 6  23787158.316 5 125002350.656 6  97404438.12346  93345888.013 5
G08  20645631.805 8  20645638.563    20645637.590 9  20645634.414 7 108493534.810 8  84540446.23949  81017916.628 7
G10  23303874.711 7  23303880.453    23303880.785 6  23303876.648 5 122462694.688 7  95425515.73946  91449478.000 5
G14  23434044.383 6  23434047.512    23434046.723 4  23434048.898 5 123146714.888 6  95958497.86644  91960236.787 5
G21  20971269.477 8                  20971272.332 7                 110204789.357 8  85873868.31647
G22  21925199.875 8                  21925201.016 6                 115217711.884 8  89780047.11046
G27  22758363.961 7  22758370.355    22758369.652 7  22758366.742 6 119596014.008 7  93191728.54347  89308724.541 6
G28  24009663.664 6                  24009666.441 3                 126171625.542 6  98315566.37743
G32  22223110.828 7  22223117.691    22223116.555 8  22223113.723 5 116783250.508 7  90999970.27048  87208336.565 5
> 2021 01 15 01 31 00.0000000  0 10
G01  20954160.547 8  20954167.676    20954167.074 6  20954163.477 6 110114877.826 8  85803825.82846  82228663.028 6
G03  23766941.703 6  23766948.531    23766947.727 6  23766946.723 5 124896135.712 6  97321673.23246  93266571.659 5
G08  20653311.992 8  20653318.918    20653317.863 9  20653314.750 6 108533894.941 8  84571895.68349  81048055.694 6
G10  23321500.125 7  23321505.742    23321505.867 6  23321501.730 5 122555317.122 7  95497689.06146  91518644.111 5
G14  23429674.406 6  23429678.688    23429678.168 4  23429679.727 5 123123754.373 6  95940606.53744  91943090.981 5
G21  20968028.219 8                  20968031.008 7                 110187755.605 8  85860595.26947
G22  21911158.109 7                  21911159.043 6                 115143919.880 7  89722546.86146
G27  22777419.508 7  22777426.188    22777425.883 7  22777422.113 6 119696154.097 7  93269759.76247  89383504.494 6
G28  24001982.367 6                  24001984.906 3                 126131262.755 6  98284114.89343
G32  22219293.047 7  22219299.164    22219298.508 8  22219295.414 6 116763186.405 7  90984335.91448  87193353.665 6
> 2021 01 15 01 31 30.0000000  0 10
G01  20942530.563 8  20942537.770    20942537.215 6  20942533.398 6 110053762.685 8  85756203.63846  82183025.129 6
G03  23746763.617 6  23746770.637    23746769.637 6  23746768.133 5 124790098.055 6  97239046.51046  93187387.703 5
G08  20661088.945 8  20661095.906    20661094.980 9  20661091.938 6 108574764.129 8  84603741.79949  81078574.855 6
G10  23339157.281 7  23339163.980    23339163.645 6  23339159.453 5 122648107.700 7  95569993.41246  91587935.814 5
G14  23425415.023 6  23425419.031    23425418.043 4  23425419.074 5 123101370.796 6  95923164.81844  91926375.970 5
G21  20964830.500 8                  20964833.113 7                 110170951.721 8  85847501.33647
G22  21897181.211 8                  21897182.762 6                 115070472.251 8  89665314.95546
G27  22796523.328 7  22796530.250    22796529.531 7  22796526.617 6 119796543.444 7  93347985.21247  89458470.538 6
G28  23994392.164 6                  23994394.227 3                 126091372.769 6  98253031.77743
G32  22215582.445 7  22215588.984    22215588.461 8  22215585.000 6 116743689.303 7  90969143.38148  87178794.185 6
> 2021 01 15 01 32 00.0000000  0 10
G01  20930953.156 8  20930960.227    20930960.039 6  20930956.094 6 109992923.286 8  85708796.32546  82137593.131 6
G03  23726619.000 6  23726626.637    23726625.223 6  23726624.043 5 124684239.283 6  97156559.17746  93108337.334 5
G08  20668962.828 8  20668969.762    20668968.711 9  20668965.758 6 108616141.725 8  84635984.07349  81109473.717 6
G10  23356847.008 7  23356852.566    23356852.395 6  23356848.676 5 122741064.435 7  95642427.23046  91657351.535 5
G14  23421265.109 6  23421269.621    23421269.039 4  23421270.762 5 123079564.803 6  95906173.10944  91910092.260 5
G21  20961676.820 8                  20961679.395 7                 110154378.311 8  85834586.98747
G22  21883270.234 8                  21883271.953 6                 114997370.007 8  89608352.18546
G27  22815673.742 7  22815680.480    22815679.906 7  22815677.383 6 119897180.211 7  93426403.46347  89533621.348 6
G28  23986891.625 6                  23986894.266 4                 126051957.030 6  98222318.20044
G32  22211980.484 7  22211986.895    22211986.281 8  22211983.242 6 116724760.132 7  90954393.39348  87164658.765 6
> 2021 01 15 01 32 30.0000000  0 10
G01  20919428.844 8  20919435.883    20919435.395 6  20919431.633 6 109932360.629 8  85661604.64046  82092367.757 6
G03  23706508.852 6  23706516.473    23706515.445 6  23706514.066 5 124578561.126 6  97074212.56546  93029421.864 5
G08  20676933.563 8  20676940.367    20676939.363 9  20676936.289 6 108658027.136 8  84668622.04749  81140751.778 6
G10  23374567.414 7  23374572.664    23374572.676 6  23374568.395 5 122834185.470 7  95714989.08746  91726889.902 5
G14  23417226.109 6  23417230.691    23417230.047 4  23417231.508 5 123058337.052 6  95889632.01044  91894240.344 5
G21  20958567.148 8                  20958569.410 7                 110138035.531 8  85821852.35547
G22  21869425.445 8                  21869426.762 6                 114924614.166 8  89551659.33846
G27  22834871.516 7  22834877.488    22834876.941 7  22834874.383 6 119998062.586 7  93505013.09647  89608955.577 6
G28  23979481.094 6                  23979484.105 3                 126013016.446 6  98191974.90943
G32  22208486.633 8  22208493.090    22208492.504 8  22208489.039 6 116706399.943 8  90940086.76048  87150948.224 6
> 2021 01 15 01 33 00.0000000  0 10
G01  20907957.078 8  20907963.641    20907963.633 6  20907959.617 6 109872075.209 8  85614628.99246  82047349.428 6
G03  23686434.320 6  23686440.980    23686440.242 6  23686438.105 5 124473064.831 6  96992007.68946  92950642.21615
G08  20685000.250 8  20685007.398    20685006.258 9  20685002.828 7 108700419.067 8  84701654.71649  81172408.084 7
G10  23392318.375 7  23392323.988    23392323.758 6  23392319.734 5 122927468.419 7  95787677.10446  91796549.315 5
G14  23413296.375 6  23413300.340    23413299.457 4  23413300.781 5 123037687.682 6  95873541.55144  91878820.323 5
G21  20955500.688 8                  20955503.434 7                 110121923.361 8  85809297.42447
G22  21855646.500 8                  21855647.879 6                 114852205.277 8  89495236.83746
G27  22854114.164 7  22854121.387    22854120.859 7  22854117.605 6 120099188.306 7  93583812.35347  89684471.530 6
G28  23972161.180 6                  23972164.703 3                 125974552.170 6  98162002.73743
G32  22205101.094 7  22205107.918    22205106.980 8  22205103.922 6 116688609.260 7  90926223.90548  87137663.018 6
> 2021 01 15 01 33 30.0000000  0 10
G01  20896538.047 8  20896544.750    20896544.680 6  20896540.570 6 109812068.493 8  85567870.52246  82002539.223 6
G03  23666393.898 6  23666400.961    23666399.848 6  23666397.695 5 124367752.540 6  96909946.17346  92871999.915 5
G08  20693163.852 8  20693170.789    20693169.691 9  20693166.367 6 108743317.793 8  84735082.28649  81204442.871 6
G10  23410100.008 6  23410105.973    23410105.445 6  23410101.051 5 123020911.855 6  95860490.17146  91866328.486 5
G14  23409477.023 6  23409481.949    23409481.449 4  23409482.836 5 123017617.662 6  95857902.58544  91863832.991 5
G21  20952478.758 8                  20952481.441 7                 110106042.614 8  85796922.81847
G22  21841933.664 8                  21841935.020 6                 114780144.609 8  89439085.68746
G27  22873404.617 7  22873411.324    22873410.914 7  22873407.246 6 120200555.919 7  93662800.09547  89760168.118 6
G28  23964932.953 6                  23964935.051 3                 125936565.356 6  98132402.63143
G32  22201824.383 7  22201831.332    22201830.152 8  22201827.016 6 116671389.518 7  90912805.94048  87124804.110 6
> 2021 01 15 01 34 00.0000000  0 10
G01  20885172.445 8  20885179.172    20885178.496 6  20885174.770 6 109752340.779 8  85521329.45146  81957937.377 6
G03  23646389.367 6  23646395.543    23646395.117 6  23646393.137 5 124262625.321 6  96828028.86646  92793495.777 5
G08  20701423.414 8  20701430.242    20701429.102 9  20701425.949 6 108786721.504 8  84768903.35749  81236854.697 6
G10  23427911.242 7  23427917.840    23427917.387 6  23427913.504 5 123114513.272 7  95933426.33846  91936225.614 5
G14  23405767.914 6  23405772.676    23405772.414 4  23405773.328 5 122998127.002 6  95842715.05244  91849278.289 5
G21  20949500.828 8                  20949503.406 7                 110090393.007 8  85784728.32147
G22  21828287.797 8                  21828288.703 6                 114708433.127 8  89383206.62446
G27  22892739.758 7  22892746.207    22892745.984 7  22892742.887 6 120302163.052 7  93741974.47147  89836043.547 6
G28  23957795.531 6                  23957798.316 3                 125899057.345 6  98103175.63143
G32  22198655.734 7  22198662.738    22198661.910 8  22198658.914 6 116654741.028 7  90899833.10748  87112371.845 6
> 2021 01 15 01 34 30.0000000  0 10
G01  20873859.656 8  20873866.543    20873866.070 6  20873862.406 6 109692893.440 8  85475006.84146  81913544.877 6
G03  23626419.688 6  23626426.121    23626425.488 6  23626423.594 5 124157685.162 6  96746257.32546  92715131.423 5
G08  20709779.047 8  20709785.781    20709784.691 9  20709781.586 6 108830630.223 8  84803117.94049  81269643.686 6
G10  23445752.961 7  23445759.328    23445758.930 6  23445754.914 5 123208271.141 7  96006484.41146  92006239.623 5
G14  23402170.289 6  23402174.406    23402173.770 4  23402175.840 5 122979216.554 6  95827979.64244  91835156.812 5
G21  20946566.727 8                  20946569.375 7                 110074975.306 8  85772714.53347
G22  21814707.914 8                  21814709.199 6                 114637072.114 8  89327600.66446
G27  22912119.766 7  22912126.508    22912126.152 7  22912123.063 6 120404008.215 7  93821334.33247  89912096.722 6
G28  23950749.141 6                  23950751.371 3                 125862029.260 6  98074322.55943
G32  22195596.719 7  22195603.512    22195602.613 8  22195599.680 5 116638665.105 7  90887306.44148  87100367.112 5
> 2021 01 15 01 35 00.0000000  0 10
G01  20862600.563 8  20862607.492    20862606.969 6  20862603.293 6 109633727.110 8  85428903.21546  81869362.220 6
G03  23606485.570 6  23606492.750    23606491.590 6  23606490.449 5 124052933.428 6  96664632.59046  92636907.722 5
G08  20718230.305 8  20718237.066    20718236.098 9  20718232.859 6 108875042.694 8  84837725.04649  81302808.806 6
G10  23463624.258 7  23463630.543    23463630.039 6  23463625.660 5 123302183.243 7  96079662.66046  92076368.785 5
G14  23398681.367 6  23398686.004    23398685.820 4  23398687.297 5 122960886.558 6  95813696.51644  91821468.814 5
G21  20943676.727 8                  20943679.586 7                 110059789.554 8  85760881.48647
G22  21801194.625 8                  21801196.527 6                 114566062.116 8  89272268.22846
G27  22931545.836 7  22931552.355    22931551.637 7  22931548.734 5 120506089.273 7  93900878.00147  89988326.041 5
G28  23943793.984 6                  23943798.066 3                 125825482.011 6  98045844.15943
G32  22192646.469 7  22192653.762    22192652.734 8  22192649.293 5 116623162.293 7  90875226.34648  87088790.359 5
> 2021 01 15 01 35 30.0000000  0 10
G01  20851395.273 8  20851402.406    20851401.773 6  20851398.137 6 109574842.554 8  85383019.16246  81825390.011 6
G03  23586588.617 6  23586595.289    23586594.836 6  23586593.313 5 123948371.662 6  96583155.89646  92558825.888 5
G08  20726777.367 8  20726784.258    20726783.258 9  20726780.191 6 108919957.774 8  84872723.80349  81336349.278 6
G10  23481523.711 7  23481529.707    23481529.590 6  23481525.410 5 123396247.542 7  96152959.50946  92146611.568 5
G14  23395304.633 6  23395308.023    23395308.223 4  23395309.836 5 122943137.190 6  95799865.83944  91808214.453 5
G21  20940831.219 8                  20940834.051 7                 110044835.724 8  85749229.14947
G22  21787749.516 8                  21787750.496 6                 114495404.004 8  89217209.97146
G27  22951015.953 7  22951022.414    22951021.824 7  22951018.547 5 120608404.161 7  93980603.87747  90064730.069 5
G28  23936930.977 6                  23936934.270 3                 125789416.467 6  98017741.15043
G32  22189805.906 7  22189812.598    22189811.887 8  22189808.336 5 116608233.266 7  90863593.34948  87077642.047 5
> 2021 01 15 01 36 00.0000000  0 10
G01  20840243.539 8  20840250.578    20840250.180 6  20840246.395 6 109516241.083 8  85337355.67346  81781629.172 6
G03  23566726.922 6  23566734.313    23566732.977 6  23566731.609 5 123844001.786 6  96501828.71646  92480887.33015
G08  20735419.992 8  20735426.883    20735425.910 9  20735422.758 6 108965375.431 8  84908114.17949  81370265.054 6
G10  23499452.086 7  23499458.031    23499458.199 6  23499453.477 5 123490462.479 7  96226373.73746  92216966.913 5
G14  23392036.531 6  23392041.496    23392041.113 4  23392043.070 5 122925969.326 6  95786488.26544  91795394.306 5
G21  20938030.266 8                  20938032.938 7                 110030115.044 8  85737758.49747
G22  21774370.305 8                  21774371.875 6                 114425098.920 8  89162426.80546
G27  22970529.281 7  22970536.340    22970535.543 7  22970532.863 6 120710951.339 7  94060510.75747  90141307.501 6
G28  23930160.156 6                  23930162.734 3                 125753834.128 6  97990014.64043
G32  22187074.227 7  22187081.141    22187080.121 8  22187076.969 6 116593879.215 7  90852408.39448  87066923.177 6
> 2021 01 15 01 36 30.0000000  0 10
G01  20829146.141 7  20829153.410    20829152.996 6  20829149.141 6 109457923.291 7  85291913.24546  81738080.183 6
G03  23546903.156 6  23546910.566    23546909.137 6  23546906.945 5 123739825.087 6  96420652.07846  92403093.065 5
G08  20744157.836 8  20744165.051    20744164.070 9  20744160.574 6 109011294.144 8  84943894.99349  81404555.020 6
G10  23517409.188 7  23517415.098    23517415.105 6  23517410.680 5 123584825.783 7  96299903.59746  92287432.995 5
G14  23388880.852 6  23388885.484    23388884.680 4  23388886.238 5 122909383.021 6  95773563.86844  91783008.393 5
G21  20935273.156 8                  20935275.926 7                 110015627.297 8  85726469.33847
G22  21761059.086 8                  21761060.730 6                 114355147.499 8  89107919.22046
G27  22990087.039 7  22990093.961    22990093.418 7  22990090.387 5 120813728.632 7  94140596.93947  90218056.723 5
G28  23923480.586 6                  23923483.758 3                 125718735.854 6  97962665.33843
G32  22184452.422 7  22184459.012    22184458.090 8  22184455.129 6 116580100.622 7  90841671.85548  87056633.987 6
> 2021 01 15 01 37 00.0000000  0 10
G01  20818103.000 8  20818109.906    20818109.660 7  20818105.648 6 109399890.217 8  85246692.67547  81694743.809 6
G03  23527115.602 6  23527123.176    23527122.496 6  23527120.414 5 123635843.274 6  96339627.30546  92325444.290 5
G08  20752991.141 8  20752998.371    20752997.258 9  20752994.172 6 109057713.642 8  84980066.01649  81439218.922 6
G10  23535393.859 7  23535399.719    23535399.801 6  23535395.602 5 123679335.669 7  96373547.66946  92358008.549 5
G14  23385835.664 6  23385839.551    23385839.109 4  23385840.824 5 122893378.669 6  95761092.93944  91771057.057 5
G21  20932560.758 8                  20932563.352 7                 110001372.815 8  85715361.95947
G22  21747815.531 8                  21747816.723 6                 114285550.787 8  89053688.04446
G27  23009688.742 7  23009695.648    23009694.828 7  23009691.238 5 120916734.174 7  94220860.97947  90294976.440 5
G28  23916895.055 6                  23916897.895 4                 125684122.936 6  97935694.23444
G32  22181940.094 7  22181946.578    22181945.781 8  22181943.004 5 116566898.286 7  90831384.33948  87046775.134 5
> 2021 01 15 01 37 30.0000000  0 10
G01  20807113.805 8  20807120.566    20807120.535 6  20807116.637 6 109342142.263 8  85201694.27246  81651620.349 6
G03  23507366.148 6  23507373.512    23507372.773 6  23507371.031 5 123532057.525 6  96258755.30246  92247941.953 5
G08  20761919.695 8  20761926.809    20761925.461 9  20761922.438 6 109104632.404 8  85016626.08249  81474255.632 6
G10  23553405.758 7  23553412.375    23553411.969 6  23553407.375 5 123773989.772 7  96447304.09146  92428691.797 5
G14  23382901.063 7  23382905.211    23382904.547 4  23382906.602 5 122877956.147 7  95749075.39144  91759540.252 5
G21  20929892.250 8                  20929895.094 7                 109987350.880 8  85704435.76947
G22  21734639.039 8                  21734640.391 6                 114216309.449 8  88999733.78346
G27  23029333.219 7  23029339.832    23029339.363 7  23029335.750 5 121019965.574 7  94301301.03447  90372064.859 5
G28  23910400.273 6                  23910402.621 3                 125649995.647 6  97909101.53943
G32  22179537.516 7  22179543.984    22179543.055 8  22179539.945 6 116554272.494 7  90821546.07748  87037346.781 6
> 2021 01 15 01 38 00.0000000  0 10
G01  20796179.313 8  20796186.313    20796185.695 7  20796181.730 6 109284681.002 8  85156919.27447  81608710.958 6
G03  23487654.000 6  23487661.379    23487660.316 6  23487658.848 5 123428469.930 6  96178037.70546  92170587.595 5
G08  20770943.031 8  20770949.859    20770948.684 9  20770945.488 6 109152049.775 8  85053574.68149  81509664.721 6
G10  23571445.266 7  23571451.242    23571451.227 6  23571446.832 5 123868786.795 7  96521171.88546  92499481.797 5
G14  23380076.227 6  23380081.305    23380081.168 4  23380081.867 5 122863116.369 6  95737511.92044  91748458.600 5
G21  20927268.930 8                  20927271.441 7                 109973563.603 8  85693692.44547
G22  21721530.727 8                  21721531.996 6                 114147424.897 8  88946057.53946
G27  23049019.898 7  23049026.582    23049026.063 7  23049023.402 6 121123421.583 7  94381916.08147  90449320.894 6
G28  23903999.656 6                  23904001.879 3                 125616355.730 6  97882888.61043
G32  22177245.188 7  22177251.262    22177250.535 8  22177246.969 5 116542224.504 7  90812158.06448  87028349.938 5
> 2021 01 15 01 38 30.0000000  0 10
G01  20785299.734 8  20785306.734    20785306.020 6  20785302.289 6 109227507.195 8  85112368.25646  81566016.247 6
G03  23467980.344 6  23467986.750    23467985.594 6  23467984.680 5 123325081.987 6  96097475.64446  92093382.338 5
G08  20780060.703 8  20780067.871    20780066.758 9  20780063.637 6 109199965.279 8  85090911.42649  81545445.771 6
G10  23589511.125 7  23589516.914    23589516.840 6  23589512.570 5 123963724.669 7  96595149.46446  92570377.012 5
G14  23377363.992 7  23377368.305    23377367.563 4  23377369.348 5 122848859.463 7  95726402.65444  91737812.185 5
G21  20924690.023 8                  20924692.395 7                 109960010.650 8  85683131.69947
G22  21708491.055 8                  21708491.816 6                 114078897.951 8  88892659.93846
G27  23068749.609 7  23068755.949    23068755.391 7  23068752.430 5 121227100.051 7  94462704.48747  90526743.121 5
G28  23897690.180 6                  23897693.031 3                 125583203.974 6  97857056.06843
G32  22175062.313 7  22175068.879    22175067.906 8  22175064.578 5 116530754.895 7  90803220.72748  87019785.003 5
> 2021 01 15 01 39 00.0000000  0 10
G01  20774474.469 8  20774481.613    20774480.945 6  20774477.336 6 109170621.484 8  85068041.74446  81523536.656 6
G03  23448344.281 6  23448351.355    23448350.008 6  23448349.137 5 123221895.047 6  96017070.23646  92016327.162 5
G08  20789273.531 8  20789280.504    20789279.461 9  20789276.090 6 109248377.561 8  85128635.27849  81581597.793 6
G10  23607603.344 6  23607609.281    23607609.453 6  23607605.539 5 124058801.318 6  96669235.16646  92641375.737 5
G14  23374761.672 6  23374766.109    23374765.469 4  23374767.031 5 122835185.438 6  95715747.53944  91727601.066 5
G21  20922155.000 8                  20922157.902 7                 109946692.015 8  85672753.54047
G22  21695518.922 8                  21695520.043 6                 114010729.222 8  88839541.46746
G27  23088520.867 7  23088527.535    23088526.609 7  23088523.680 5 121330998.777 7  94543664.53247  90604329.821 5
G28  23891474.914 6                  23891477.719 3                 125550541.187 6  97831604.56443
G32  22172989.914 8  22172996.316    22172995.375 8  22172992.410 6 116519864.010 8  90794734.33748  87011652.229 6
> 2021 01 15 01 39 30.0000000  0 10
G01  20763704.375 8  20763711.434    20763711.113 6  20763707.410 6 109114024.835 8  85023940.46346  81481272.953 6
G03  23428747.570 6  23428753.922    23428753.152 6  23428751.395 5 123118910.697 6  95936822.70246  91939423.25415
G08  20798580.570 8  20798587.551    20798586.375 9  20798583.293 6 109297285.382 8  85166745.26949  81618119.860 6
G10  23625722.398 7  23625728.242    23625728.004 6  23625724.090 5 124154014.794 7  96743427.48546  92712476.765 5
G14  23372270.586 6  23372274.773    23372274.223 4  23372275.813 5 122822094.523 6  95705546.83344  91717825.421 5
G21  20919665.375 8                  20919668.020 7                 109933607.850 8  85662558.08547
G22  21682615.336 8                  21682616.020 6                 113942919.486 8  88786702.74146
G27  23108333.313 7  23108340.211    23108339.887 7  23108336.098 5 121435115.957 7  94624794.79447  90682079.658 5
G28  23885352.281 6                  23885355.613 4                 125518368.230 6  97806534.72344
G32  22171027.734 7  22171033.957    22171033.164 8  22171030.418 5 116509552.509 7  90786699.42548  87003952.121 5
> 2021 01 15 01 40 00.0000000  0 10
G01  20752989.711 8  20752996.801    20752996.473 6  20752992.254 6 109057718.054 8  84980065.05646  81439225.716 6
G03  23409188.430 6  23409195.820    23409194.918 6  23409192.660 5 123016130.367 6  95856734.15146  91862671.746 5
G08  20807981.063 8  20807988.246    20807987.398 9  20807984.457 6 109346688.036 8  85205240.83049  81655011.438 6
G10  23643866.805 7  23643872.813    23643872.684 6  23643868.203 5 124249363.207 7  96817724.94146  92783678.430 5
G14  23369890.289 6  23369894.641    23369893.820 4  23369895.859 5 122809586.784 6  95695800.54344  91708485.155 5
G21  20917220.461 8                  20917222.824 7                 109920758.673 8  85652545.74447
G22  21669779.750 8                  21669780.855 6                 113875469.571 8  88734144.38146
G27  23128187.773 7  23128193.879    23128193.617 7  23128191.344 5 121539449.469 7  94706093.61947  90759991.068 5
G28  23879323.742 6                  23879326.281 3                 125486686.163 6  97781847.40943
G32  22169176.047 7  22169182.063    22169181.344 8  22169178.527 5 116499820.897 7  90779116.36248  86996684.965 5
> 2021 01 15 01 40 30.0000000  0 10
G01  20742330.367 8  20742337.082    20742336.949 7  20742332.844 6 109001702.113 8  84936416.28147  81397395.601 6
G03  23389669.547 6  23389676.699    23389675.754 6  23389673.492 5 122913555.628 6  95776805.78546  91786073.704 5
G08  20817476.328 8  20817483.457    20817482.277 9  20817479.180 7 109396584.506 8  85244121.19849  81692271.792 7
G10  23662036.070 6  23662042.188    23662042.039 6  23662037.871 5 124344844.640 6  96892126.04146  92854979.514 5
G14  23367621.492 6  23367625.809    23367624.535 4  23367626.438 5 122797662.487 6  95686508.88144  91699580.663 5
G21  20914820.234 8                  20914822.496 7                 109908144.673 8  85642716.65847
G22  21657012.953 8                  21657014.270 6                 113808380.144 8  88681866.91846
G27  23148082.023 7  23148088.820    23148088.207 7  23148085.996 5 121643997.435 7  94787559.55747  90838062.551 5
G28  23873388.391 6                  23873390.785 3                 125455495.989 6  97757543.35043
G32  22167434.352 7  22167440.535    22167439.730 8  22167436.418 5 116490669.775 7  90771985.63448  86989851.367 5
> 2021 01 15 01 41 00.0000000  0 10
G01  20731726.281 8  20731733.418    20731732.965 7  20731728.957 6 108945977.942 8  84892994.86147  81355783.400 6
G03  23370188.500 6  23370196.422    23370195.172 6  23370193.395 5 122811188.124 6  95697038.91446  91709630.442 5
G08  20827065.172 8  20827072.070    20827071.113 9  20827068.203 6 109446973.977 8  85283385.71149  81729900.285 6
G10  23680230.094 6  23680236.809    23680236.336 6  23680231.996 5 124440457.320 6  96966629.42146  92926378.58415
G14  23365462.844 6  23365467.797    23365467.246 4  23365468.777 5 122786321.767 6  95677671.93344  91691111.914 5
G21  20912464.445 8                  20912466.922 7                 109895766.062 8  85633070.98447
G22  21644315.039 8                  21644316.340 6                 113741652.396 8  88629871.28846
G27  23168017.258 7  23168024.332    23168023.547 7  23168021.109 5 121748757.939 7  94869191.10247  90916292.814 5
G28  23867546.648 6                  23867549.813 3                 125424798.538 6  97733623.27943
G32  22165803.578 7  22165809.859    22165808.875 8  22165805.598 5 116482099.728 7  90765307.68748  86983451.694 5
> 2021 01 15 01 41 30.0000000  0 10
G01  20721177.805 8  20721185.156    20721184.762 7  20721180.836 6 108890546.669 8  84849801.67047  81314389.937 6
G03  23350749.094 6  23350755.883    23350755.008 6  23350753.883 5 122709029.495 6  95617434.78946  91633343.196 5
G08  20836747.352 8  20836754.820    20836753.535 9  20836749.930 6 109497855.320 8  85323033.50549  81767896.088 6
G10  23698448.813 6  23698455.844    23698455.645 6  23698450.949 5 124536199.496 6  97041233.70846  92997874.31715
G14  23363416.148 6  23363420.570    23363420.219 4  23363421.785 5 122775564.896 6  95669289.95144  91683079.187 5
G21  20910154.016 8                  20910156.336 7                 109883623.831 8  85623609.50547
G22  21631686.164 8                  21631687.246 6                 113675287.174 8  88578158.13646
G27  23187993.078 7  23187999.828    23187999.297 7  23187995.688 5 121853729.073 7  94950986.79047  90994680.333 5
G28  23861799.492 6                  23861802.715 3                 125394594.477 6  97710087.66043
G32  22164283.633 7  22164289.742    22164288.684 8  22164285.609 6 116474111.277 7  90759082.94448  86977486.289 6
> 2021 01 15 01 42 00.0000000  0 10
G01  20710685.633 8  20710692.758    20710692.383 7  20710688.520 6 108835408.843 8  84806837.13147  81273215.594 6
G03  23331348.445 6  23331356.000    23331355.266 6  23331353.352 5 122607081.122 6  95537994.49246  91557212.903 5
G08  20846523.227 8  20846530.457    20846529.180 9  20846526.113 6 109549227.573 8  85363063.82949  81806258.465 6
G10  23716693.156 7  23716699.496    23716699.063 6  23716694.402 5 124632069.111 7  97115937.29346  93069465.270 5
G14  23361480.313 6  23361484.926    23361484.176 4  23361485.543 5 122765391.720 6  95661362.79644  91675482.34615
G21  20907888.148 8                  20907890.898 7                 109871717.884 8  85614332.14547
G22  21619126.555 8                  21619127.637 6                 113609285.195 8  88526728.03346
G27  23208008.250 7  23208014.758    23208014.445 7  23208011.129 5 121958908.713 7  95032944.94447  91073223.566 5
G28  23856144.977 6                  23856148.570 3                 125364884.805 6  97686937.26443
G32  22162874.508 7  22162880.535    22162879.285 8  22162875.930 6 116466704.952 7  90753311.80448  86971955.631 6
> 2021 01 15 01 42 30.0000000  0 10
G01  20700249.141 8  20700256.258    20700255.793 7  20700252.211 6 108780565.537 8  84764102.08947  81232261.178 6
G03  23311989.352 6  23311996.570    23311995.566 6  23311993.039 5 122505344.516 6  95458719.22746  91481240.784 5
G08  20856392.305 8  20856399.348    20856398.277 9  20856395.355 6 109601089.827 8  85403475.96849  81844986.769 6
G10  23734960.367 7  23734966.484    23734966.230 6  23734962.020 5 124728064.311 7  97190738.74846  93141149.99715
G14  23359655.461 6  23359660.230    23359659.270 4  23359662.332 5 122755802.405 6  95653890.61944  91668321.452 5
G21  20905667.516 8                  20905670.141 7                 109860048.380 8  85605239.02947
G22  21606635.508 8                  21606636.961 6                 113543646.920 8  88475581.34646
G27  23228062.359 7  23228068.934    23228068.254 7  23228065.883 5 122064294.957 7  95115064.08547  91151921.059 5
G28  23850586.398 6                  23850588.563 3                 125335670.493 6  97664172.87643
G32  22161575.242 7  22161581.777    22161580.836 8  22161577.699 5 116459881.192 7  90747994.59748  86966859.985 5
> 2021 01 15 01 43 00.0000000  0 10
G01  20689869.141 8  20689876.219    20689875.758 7  20689871.816 6 108726017.521 8  84721597.15347  81191527.276 6
G03  23292669.375 6  23292677.285    23292676.340 6  23292674.234 5 122403821.207 6  95379610.15946  91405427.945 5
G08  20866354.281 8  20866361.586    20866360.375 9  20866357.359 6 109653440.390 8  85444268.60949  81884079.719 6
G10  23753251.039 6  23753257.230    23753257.027 6  23753252.496 5 124824183.184 6  97265636.58046  93212927.099 5
G14  23357941.633 6  23357946.438    23357945.211 4  23357947.273 5 122746796.846 6  95646873.29244  91661596.540 5
G21  20903492.008 8                  20903494.648 7                 109848615.827 8  85596330.54647
G22  21594214.703 8                  21594215.836 6                 113478373.525 8  88424718.97446
G27  23248155.711 7  23248162.313    23248161.746 7  23248159.328 5 122169885.671 7  95197342.55547  91230771.242 5
G28  23845121.289 6                  23845123.820 3                 125306952.263 6  97641795.01043
G32  22160387.414 7  22160394.156    22160392.969 8  22160389.902 6 116453640.259 7  90743131.54348  86962199.579 6
> 2021 01 15 01 43 30.0000000  0 10
G01  20679545.578 8  20679552.520    20679552.000 7  20679548.328 6 108671766.104 8  84679323.32647  81151014.858 6
G03  23273391.914 6  23273399.000    23273398.141 6  23273396.055 5 122302512.975 6  95300668.69346  91329775.681 5
G08  20876409.219 8  20876416.320    20876415.191 9  20876412.023 6 109706279.040 8  85485441.57249  81923537.144 6
G10  23771565.586 6  23771571.195    23771571.215 6  23771566.953 5 124920424.275 6  97340629.63646  93284795.451 5
G14  23356339.320 6  23356343.852    23356343.148 4  23356344.445 5 122738375.476 6  95640311.17944  91655307.890 5
G21  20901361.813 8                  20901364.203 7                 109837421.179 8  85587607.44847
G22  21581863.188 8                  21581864.355 6                 113413465.929 8  88374141.63846
G27  23268287.664 7  23268294.035    23268293.609 7  23268289.996 5 122275679.298 7  95279779.13247  91309772.964 5
G28  23839751.758 6                  23839753.695 3                 125278730.891 6  97619804.34743
G32  22159311.109 7  22159317.762    22159316.395 8  22159313.340 5 116447983.016 7  90738723.32148  86957974.997 5
> 2021 01 15 01 44 00.0000000  0 10
G01  20669278.391 8  20669285.453    20669284.824 7  20669280.785 6 108617811.688 8  84637280.92947  81110724.236 6
G03  23254154.398 6  23254161.496    23254160.816 6  23254158.699 5 122201420.924 6  95221895.67246  91254284.859 5
G08  20886556.492 8  20886563.551    20886562.656 9  20886559.535 6 109759603.845 8  85526993.35949  81963357.596 6
G10  23789902.414 7  23789908.008    23789907.883 6  23789903.844 5 125016785.216 7  97415716.07046  93356753.288 5
G14  23354848.406 6  23354852.184    23354851.699 4  23354852.914 5 122730537.711 6  95634203.82544  91649454.938 5
G21  20899276.367 8                  20899279.121 7                 109826463.790 8  85579069.22147
G22  21569581.430 8                  21569582.602 6                 113348924.551 8  88323849.66946
G27  23288457.273 6  23288464.422    23288463.219 6  23288460.863 5 122381673.358 6  95362371.89246  91388924.389 5
G28  23834475.328 6                  23834478.332 4                 125251006.896 6  97598201.21944
G32  22158345.781 8  22158352.297    22158351.254 8  22158347.520 6 116442909.269 8  90734769.76848  86954186.249 6
> 2021 01 15 01 44 30.0000000  0 10
G01  20659067.828 8  20659074.668    20659074.387 7  20659070.324 6 108564155.206 8  84595470.68947  81070656.100 6
G03  23234958.359 6  23234965.992    23234964.871 6  23234963.145 5 122100546.516 6  95143292.24746  91178956.586 5
G08  20896796.602 8  20896803.180    20896802.293 9  20896798.934 6 109813413.764 8  85568923.16949  82003540.338 6
G10  23808262.516 7  23808267.664    23808266.820 6  23808262.734 5 125113264.202 7  97490894.50946  93428799.232 5
G14  23353467.727 6  23353471.695    23353471.117 4  23353473.055 5 122723283.535 6  95628551.21744  91644037.898 5
G21  20897236.875 8                  20897239.254 7                 109815743.735 8  85570715.93647
G22  21557369.297 8                  21557370.578 6                 113284750.159 8  88273843.67146
G27  23308665.414 7  23308672.090    23308670.902 6  23308668.648 5 122487865.804 7  95445119.25446  91468223.889 5
G28  23829294.180 6                  23829297.363 3                 125223781.274 6  97576986.47943
G32  22157491.219 8  22157497.637    22157496.828 8  22157493.512 5 116438419.464 8  90731271.24148  86950833.452 5
> 2021 01 15 01 45 00.0000000  0 10
G01  20648914.156 8  20648921.324    20648920.879 7  20648916.824 6 108510797.666 8  84553893.38847  81030811.185 6
G03  23215804.461 6  23215811.734    23215810.867 6  23215808.766 5 121999891.358 6  95064859.67246  91103792.001 5
G08  20907128.117 8  20907135.160    20907134.164 9  20907130.785 6 109867707.831 8  85611230.22249  82044084.604 6
G10  23826643.578 6  23826648.945    23826648.691 6  23826644.465 5 125209859.551 6  97566163.60246  93500932.111 5
G14  23352198.102 6  23352202.395    23352201.738 4  23352203.602 5 122716613.040 6  95623353.42744  91639056.663 5
G21  20895241.961 8                  20895244.633 7                 109805262.060 8  85562548.40047
G22  21545226.992 8                  21545228.383 6                 113220943.454 8  88224124.16946
G27  23328910.156 7  23328917.023    23328916.617 7  23328913.016 5 122594254.803 7  95528019.77647  91547670.244 5
G28  23824208.414 6                  23824210.863 3                 125197054.615 6  97556160.46643
G32  22156748.438 8  22156754.320    22156753.313 8  22156750.176 6 116434514.032 8  90728228.05648  86947917.064 6
> 2021 01 15 01 45 30.0000000  0 10
G01  20638817.688 8  20638824.445    20638824.180 7  20638820.387 6 108457740.158 8  84512549.87847  80991190.312 6
G03  23196692.875 6  23196699.438    23196698.633 6  23196697.320 5 121899457.157 6  94986599.27346  91028792.474 5
G08  20917552.125 8  20917559.023    20917557.895 9  20917554.547 6 109922485.154 8  85653913.84049  82084989.749 6
G10  23845046.180 6  23845052.961    23845052.359 6  23845048.289 5 125306569.526 6  97641522.00846  93573150.64715
G14  23351040.531 7  23351043.805    23351043.797 4  23351045.117 5 122710526.250 7  95618610.46444  91634511.321 5
G21  20893292.578 8                  20893295.445 7                 109795019.131 8  85554566.89447
G22  21533155.555 8                  21533156.480 6                 113157505.434 8  88174691.95946
G27  23349192.531 6  23349199.582    23349199.059 6  23349195.066 5 122700838.531 6  95611072.00546  91627261.990 5
G28  23819217.508 6                  23819220.426 3                 125170827.726 6  97535723.93143
G32  22156116.250 8  22156122.406    22156121.465 8  22156118.250 6 116431193.441 8  90725640.60248  86945437.413 6
> 2021 01 15 01 46 00.0000000  0 10
G01  20628778.258 8  20628785.098    20628784.973 7  20628781.141 6 108404983.470 8  84471440.77547  80951794.111 6
G03  23177623.438 7  23177629.992    23177628.613 6  23177627.461 5 121799245.273 7  94908512.09146  90953958.955 5
G08  20928067.602 8  20928074.348    20928073.258 9  20928070.172 6 109977744.455 8  85696973.03049  82126254.779 6
G10  23863470.977 6  23863477.195    23863476.934 6  23863472.547 5 125403392.265 6  97716968.27546  93645453.24815
G14  23349992.461 6  23349996.980    23349996.934 4  23349996.934 5 122705022.977 6  95614322.18844  91630401.738 5
G21  20891389.344 8                  20891391.695 7                 109785015.263 8  85546771.67347
G22  21521153.859 8                  21521155.016 6                 113094436.517 8  88125547.35546
G27  23369511.500 6  23369517.695    23369517.129 6  23369514.852 5 122807614.832 6  95694274.30846  91706997.535 5
G28  23814322.727 6                  23814324.922 3                 125145101.534 6  97515677.54043
G32  22155595.875 8  22155602.082    22155600.793 8  22155597.602 5 116428457.866 8  90723508.99048  86943394.610 5
> 2021 01 15 01 46 30.0000000  0 10
G01  20618796.688 8  20618803.613    20618803.082 7  20618799.195 6 108352528.360 8  84430566.66647  80912623.104 6
G03  23158595.242 7  23158603.152    23158601.586 6  23158600.328 5 121699257.058 7  94830599.19346  90879292.428 5
G08  20938674.336 8  20938681.543    20938680.195 9  20938677.195 6 110033484.148 8  85740406.55449  82167878.570 6
G10  23881916.563 6  23881922.836    23881922.547 5  23881918.664 4 125500325.812 6  97792500.90045  93717838.748 4
G14  23349056.828 6  23349060.426    23349060.297 4  23349061.625 5 122700102.852 6  95610488.33344  91626727.591 5
G21  20889531.078 8                  20889533.762 7                 109775250.461 8  85539162.74047
G22  21509222.484 8                  21509223.938 6                 113031737.604 8  88076691.07546
G27  23389866.211 6  23389872.555    23389872.148 6  23389869.840 5 122914581.599 6  95777625.04046  91786875.253 5
G28  23809522.211 6                  23809523.941 3                 125119876.389 6  97496021.58243
G32  22155186.430 7  22155192.605    22155191.691 8  22155188.879 6 116426307.426 7  90721833.33748  86941788.832 6
> 2021 01 15 01 47 00.0000000  0 10
G01  20608872.250 8  20608879.172    20608878.824 7  20608875.012 6 108300376.053 8  84389928.51247  80873678.185 6
G03  23139611.492 7  23139618.934    23139617.949 6  23139616.016 5 121599494.244 7  94752861.94946  90804794.248 5
G08  20949372.734 8  20949379.598    20949378.684 9  20949375.520 6 110089703.745 8  85784214.02649  82209860.725 6
G10  23900383.008 6  23900389.141    23900389.387 5  23900384.809 4 125597368.617 6  97868118.65845  93790305.74414
G14  23348230.000 6  23348235.641    23348234.465 4  23348236.715 5 122695766.085 6  95607109.01744  91623489.064 5
G21  20887718.430 8                  20887721.133 7                 109765725.574 8  85531740.74747
G22  21497361.875 8                  21497362.965 7                 112969409.415 8  88028123.66547
G27  23410257.672 7  23410264.129    23410264.059 6  23410260.078 5 123021737.060 7  95861122.79646  91866893.954 5
G28  23804817.406 6                  23804820.559 3                 125095153.234 6  97476756.79243
G32  22154888.594 7  22154894.824    22154894.125 8  22154891.027 6 116424742.671 7  90720614.06448  86940620.306 6
> 2021 01 15 01 47 30.0000000  0 10
G01  20599005.422 8  20599012.805    20599012.445 7  20599008.645 6 108248527.249 8  84349526.84947  80834959.931 6
G03  23120670.102 7  23120678.047    23120676.914 6  23120674.344 5 121499958.144 7  94675301.38146  90730465.367 5
G08  20960162.055 8  20960168.949    20960167.848 9  20960164.637 6 110146401.516 8  85828394.10849  82252199.982 6
G10  23918870.203 6  23918876.824    23918876.656 5  23918872.176 4 125694518.750 6  97943820.03845  93862852.90714
G14  23347516.703 6  23347520.855    23347520.191 4  23347522.160 5 122692012.227 6  95604183.93544  91620685.894 5
G21  20885951.805 8                  20885954.324 7                 109756440.626 8  85524505.73347
G22  21485572.203 8                  21485573.043 6                 112907452.604 8  87979845.64446
G27  23430684.219 7  23430690.914    23430690.863 6  23430686.266 5 123129079.022 7  95944765.86546  91947051.952 5
G28  23800207.938 6                  23800210.918 3                 125070932.475 6  97457883.47043
G32  22154702.773 7  22154708.977    22154708.242 8  22154704.445 5 116423763.614 7  90719851.17848  86939889.197 5
> 2021 01 15 01 48 00.0000000  0 10
G01  20589197.422 8  20589204.199    20589204.043 7  20589199.832 6 108196983.068 8  84309362.57247  80796469.161 6
G03  23101773.219 7  23101779.723    23101779.074 6  23101777.016 5 121400650.437 7  94597918.75846  90656307.055 5
G08  20971041.953 8  20971048.926    20971047.914 9  20971044.609 6 110203577.035 8  85872946.44849  82294895.965 6
G10  23937377.977 6  23937384.070    23937383.863 5  23937379.336 4 125791774.634 6  98019603.79645  93935478.94514
G14  23346913.484 6  23346918.039    23346917.406 4  23346918.922 5 122688841.372 6  95601713.11744  91618318.050 5
G21  20884230.461 8                  20884233.207 7                 109747396.130 8  85517458.06747
G22  21473852.797 8                  21473853.934 6                 112845867.922 8  87931857.59546
G27  23451145.883 6  23451151.965    23451151.586 6  23451148.777 5 123236605.731 6  96028552.89446  92027347.875 5
G28  23795695.211 6                  23795697.766 4                 125047214.952 6  97439402.27044
G32  22154627.141 7  22154634.004    22154633.082 8  22154629.508 5 116423370.689 7  90719545.01348  86939595.825 5
> 2021 01 15 01 48 30.0000000  0 10
G01  20579446.539 8  20579453.801    20579453.340 7  20579449.359 6 108145744.080 8  84269436.08947  80758206.278 6
G03  23082918.898 7  23082925.621    23082924.742 6  23082923.484 5 121301572.222 7  94520714.94846  90582320.041 5
G08  20982012.492 8  20982019.621    20982018.445 9  20982015.020 6 110261227.636 8  85917868.98549  82337946.749 6
G10  23955904.383 6  23955910.293    23955910.027 5  23955906.441 4 125889134.062 6  98095468.29645  94008182.53414
G14  23346420.859 7  23346425.051    23346423.883 4  23346426.422 5 122686252.751 7  95599696.01144  91616384.948 5
G21  20882555.164 8                  20882557.809 7                 109738592.230 8  85510597.88947
G22  21462204.484 8                  21462205.723 7                 112784655.907 8  87884159.92747
G27  23471641.938 7  23471648.375    23471647.809 6  23471645.293 5 123344314.787 7  96112482.04246  92107779.911 5
G28  23791277.594 6                  23791280.980 3                 125024001.203 6  97421313.62543
G32  22154664.250 7  22154671.004    22154669.434 8  22154666.414 6 116423563.638 7  90719695.37948  86939739.943 6
> 2021 01 15 01 49 00.0000000  0 10
G01  20569754.547 8  20569761.480    20569761.070 7  20569757.164 6 108094811.303 8  84229748.21547  80720172.066 6
G03  23064109.078 7  23064116.043    23064115.000 6  23064113.824 5 121202725.047 7  94443691.18546  90508505.600 5
G08  20993073.617 8  20993080.465    20993079.477 9  20993076.094 6 110319352.802 8  85963161.32649  82381351.888 6
G10  23974451.148 6  23974456.281    23974456.234 5  23974452.879 4 125986595.437 6  98171412.26445  94080962.05514
G14  23346038.414 6  23346043.609    23346043.234 4  23346044.629 5 122684246.282 6  95598132.54744  91614886.655 5
G21  20880925.742 8                  20880928.277 7                 109730029.261 8  85503925.44647
G22  21450627.211 8                  21450628.438 6                 112723817.422 8  87836753.34246
G27  23492172.781 6  23492179.836    23492178.934 6  23492175.531 5 123452204.216 6  96196551.70846  92188346.668 5
G28  23786956.555 6                  23786958.336 4                 125001291.524 6  97403617.79844
G32  22154812.477 7  22154819.137    22154818.035 8  22154815.000 5 116424342.760 7  90720302.50448  86940321.762 5
> 2021 01 15 01 49 30.0000000  0 10
G01  20560120.914 8  20560127.777    20560127.379 7  20560123.820 6 108044185.702 8  84190299.69747  80682367.241 6
G03  23045342.875 7  23045350.582    23045349.293 6  23045347.410 5 121104110.487 7  94366848.67946  90434864.881 5
G08  21004224.484 8  21004231.512    21004230.512 9  21004227.164 6 110377951.483 8  86008822.62849  82425110.629 6
G10  23993016.484 6  23993022.637    23993022.566 5  23993018.332 4 126084156.981 6  98247434.24545  94153816.49514
G14  23345767.891 6  23345772.121    23345771.578 4  23345773.648 5 122682821.791 6  95597022.52844  91613822.91815
G21  20879342.313 8                  20879344.637 7                 109721707.483 8  85497440.93847
G22  21439120.984 8                  21439122.391 6                 112663353.011 8  87789638.23146
G27  23512737.172 6  23512744.266    23512743.609 6  23512739.602 5 123560272.075 6  96280760.40546  92269046.640 5
G28  23782730.258 6                  23782733.363 3                 124979086.583 6  97386315.22143
G32  22155072.180 8  22155078.586    22155077.984 8  22155074.320 5 116425708.216 8  90721366.50948  86941341.412 5
> 2021 01 15 01 50 00.0000000  0 10
G01  20550545.578 8  20550552.746    20550552.289 7  20550548.648 6 107993868.395 8  84151091.40447  80644792.644 6
G03  23026621.727 7  23026629.344    23026628.320 6  23026626.551 5 121005730.108 7  94290188.65146  90361399.033 5
G08  21015464.930 8  21015472.305    21015471.129 9  21015468.238 6 110437022.132 8  86054851.69249  82469221.824 6
G10  24011600.789 6  24011606.422    24011606.664 5                 126181817.262 6  98323533.15045
G14  23345608.242 6  23345611.797    23345611.418 4  23345612.988 5 122681979.079 6  95596365.85744  91613193.561 5
G21  20877804.469 8                  20877807.363 7                 109713628.008 8  85491145.25147
G22  21427686.281 8                  21427687.637 6                 112603263.344 8  87742815.14146
G27  23533336.383 6  23533342.305    23533341.324 6  23533339.035 5 123668516.541 6  96365106.72446  92349878.583 5
G28  23778601.367 6                  23778604.066 3                 124957387.197 6  97369406.64343
G32  22155443.688 7  22155450.387    22155449.070 8  22155445.887 6 116427660.294 7  90722887.62548  86942799.158 6
> 2021 01 15 01 50 30.0000000  0 10
G01  20541029.578 8  20541036.395    20541036.105 7  20541031.816 6 107943859.972 8  84112123.80847  80607448.689 6
G03  23007945.633 7  23007952.629    23007951.871 6  23007950.246 5 120907585.091 7  94213712.03246  90288108.920 5
G08  21026795.664 8  21026802.566    21026801.430 9  21026798.629 6 110496563.379 8  86101247.46349  82513684.436 6
G10  24030203.266 6  24030208.680    24030208.762 5                 126279574.091 6  98399707.29945
G14  23345557.922 6  23345561.941    23345561.625 4  23345563.973 5 122681717.479 6  95596162.02944  91612998.213 5
G21  20876313.367 8                  20876315.824 7                 109705790.422 8  85485038.03247
G22  21416323.461 8                  21416324.633 6                 112543548.864 8  87696284.39446
G27  23553967.141 7  23553973.406    23553972.969 6  23553970.703 5 123776935.277 7  96449588.84546  92430840.607 5
G28  23774568.414 6                  23774570.789 3                 124936193.785 6  97352892.25843
G32  22155926.367 7  22155933.355    22155931.957 8  22155928.867 6 116430198.712 7  90724865.62448  86944694.779 6
> 2021 01 15 01 51 00.0000000  0 10
G01  20531572.625 8  20531579.031    20531578.703 7  20531574.859 6 107894161.497 8  84073397.72747  80570336.191 6
G03  22989314.500 7  22989321.258    22989320.449 6  22989318.984 5 120809677.008 7  94137420.02446  90214995.723 5
G08  21038215.180 8  21038222.094    21038221.133 9  21038217.844 6 110556574.284 8  86148009.20349  82558497.778 6
G10  24048823.734 6  24048830.016    24048829.176 5                 126377425.955 6  98475955.49245
G14  23345618.133 6  23345622.777    23345622.551 4  23345623.992 5 122682036.806 6  95596410.83744  91613236.685 5
G21  20874867.914 8                  20874870.656 7                 109698195.208 8  85479119.69047
G22  21405031.477 8                  21405032.977 6                 112484210.383 8  87650046.63246
G27  23574631.828 7  23574637.867    23574637.617 6  23574634.234 5 123885526.386 7  96534205.27546  92511931.307 5
G28  23770631.227 6                  23770634.977 4                 124915506.824 6  97336772.56244
G32  22156521.516 8  22156527.629    22156526.875 8  22156523.680 5 116433323.722 8  90727300.71248  86947028.376 5
> 2021 01 15 01 51 30.0000000  0 10
G01  20522174.063 8  20522180.730    20522180.559 7  20522176.770 6 107844773.690 8  84034913.73147  80533455.706 6
G03  22970728.570 7  22970735.414    22970734.457 6  22970732.523 5 120712007.062 7  94061313.58146  90142060.413 5
G08  21049723.883 8  21049730.820    21049729.902 9  21049726.352 6 110617052.696 8  86195135.22649  82603660.204 6
G10  24067462.523 6  24067467.441    24067467.578 5                 126475370.858 6  98552276.18345
G14  23345789.664 6  23345793.754    23345793.578 4  23345795.203 5 122682936.449 6  95597111.85944  91613908.455 5
G21  20873468.914 8                  20873471.484 7                 109690842.666 8  85473390.42947
G22  21393811.258 8                  21393812.320 6                 112425248.319 8  87604102.19346
G27  23595327.469 7  23595334.582    23595333.965 6  23595330.016 5 123994287.621 7  96618954.26746  92593149.098 5
G28  23766791.852 6                  23766794.984 4                 124895326.762 6  97321047.82644
G32  22157227.188 8  22157234.523    22157233.441 8  22157229.602 6 116437035.148 8  90730192.74748  86949799.906 6
> 2021 01 15 01 52 00.0000000  0 10
G01  20512835.383 8  20512842.000    20512841.793 7  20512837.852 6 107795697.553 8  83996672.59847  80496807.938 6
G03  22952188.461 7  22952195.066    22952193.871 6  22952192.816 5 120614576.811 7  93985393.92546  90069304.085 5
G08  21061321.156 8  21061328.316    21061327.262 9  21061323.707 6 110677997.648 8  86242624.79349  82649171.039 6
G10  24086117.797 6  24086123.133    24086123.363 5                 126573407.178 6  98628668.13145
G14  23346070.945 6  23346075.621    23346074.453 4  23346076.441 5 122684416.106 6  95598264.83244  91615013.346 5
G21  20872116.078 8                  20872118.508 7                 109683733.190 8  85467850.58047
G22  21382663.234 8                  21382664.031 6                 112366663.573 8  87558451.75646
G27  23616055.914 6  23616063.203    23616062.063 6  23616059.887 5 124103217.065 6  96703834.33846  92674492.509 5
G28  23763048.133 6                  23763050.570 3                 124875653.963 6  97305718.37143
G32  22158045.406 7  22158052.070    22158051.359 8  22158047.930 6 116441333.022 7  90733541.74948  86953009.379 6
> 2021 01 15 01 52 30.0000000  0 10
G01  20503555.758 8  20503562.617    20503562.313 7  20503558.207 6 107746934.171 8  83958675.15947  80460393.716 6
G03  22933693.500 7  22933700.504    22933699.512 6  22933697.730 5 120517387.839 7  93909662.27546  89996727.921 5
G08  21073007.359 8  21073014.387    21073013.262 9  21073010.023 6 110739408.321 8  86290477.25749  82695029.661 6
G10  24104789.617 5  24104795.855    24104796.289 4                 126671533.421 5  98705130.13044
G14  23346463.609 6  23346467.445    23346467.223 4  23346469.043 5 122686475.432 6  95599869.49444  91616551.199 5
G21  20870809.258 8                  20870811.770 7                 109676867.341 8  85462500.57147
G22  21371586.656 8                  21371587.938 7                 112308456.670 8  87513095.73947
G27  23636816.883 6  23636823.172    23636822.535 6  23636820.559 5 124212312.873 6  96788844.03946  92755960.120 5
G28  23759401.063 6                  23759404.277 3                 124856489.013 6  97290784.64143
G32  22158975.352 8  22158981.527    22158980.719 8  22158977.203 6 116446217.520 8  90737347.87448  86956656.922 6
> 2021 01 15 01 53 00.0000000  0 10
G01  20494335.930 8  20494343.188    20494342.828 7  20494338.543 6 107698484.532 8  83920922.19347  80424213.818 6
G03  22915245.359 7  22915252.340    22915251.324 7  22915249.902 5 120420441.592 7  93834119.76147  89924333.063 5
G08  21084781.836 8  21084788.848    21084787.531 9  21084784.535 6 110801283.141 8  86338691.39949  82741234.878 6
G10  24123480.273 5  24123485.293    24123485.176 4                 126769747.898 5  98781660.90144
G14  23346965.094 6  23346969.879    23346969.762 4  23346970.984 5 122689114.043 6  95601925.55644  91618521.543 5
G21  20869549.422 7                  20869551.754 7                 109670245.655 7  85457340.81947
G22  21360582.219 8                  21360583.445 7                 112250628.162 8  87468034.59047
G27  23657608.484 6  23657615.500    23657614.906 6  23657610.684 5 124321572.929 6  96873981.71946  92837550.40515
G28  23755850.789 6                  23755853.320 3                 124837832.252 6  97276246.91043
G32  22160016.180 7  22160022.523    22160022.016 8  22160017.988 5 116451688.643 7  90741611.10948  86960742.526 5
> 2021 01 15 01 53 30.0000000  0 10
G01  20485176.547 8  20485183.344    20485182.961 7  20485179.125 6 107650349.208 8  83883414.15747  80388268.619 6
G03  22896843.055 7  22896850.285    22896849.461 7  22896848.109 5 120323739.179 7  93758767.23547  89852120.192 5
G08  21096643.898 8  21096651.527    21096650.012 9  21096647.270 6 110863620.435 8  86387265.90949  82787785.440 6
G10  24142184.922 5  24142192.199    24142192.188 4                 126868048.529 5  98858258.77144
G14  23347577.219 6  23347581.902    23347581.523 4  23347582.523 5 122692331.158 6  95604432.39344  91620923.980 5
G21  20868335.703 8                  20868338.223 7                 109663868.031 8  85452371.24247
G22  21349649.938 8                  21349650.875 7                 112193178.577 8  87423268.68547
G27  23678430.461 6  23678437.344    23678436.695 6  23678432.707 5 124430995.014 6  96959245.64446  92919261.699 5
G28  23752397.570 6                  23752400.086 4                 124819684.177 6  97262105.54544
G32  22161168.836 7  22161175.332    22161174.910 8  22161170.789 6 116457746.006 7  90746331.14148  86965265.901 6
> 2021 01 15 01 54 00.0000000  0 10
G01  20476076.406 8  20476083.152    20476083.020 7  20476079.359 6 107602529.274 8  83846151.87247  80352558.924 6
G03  22878488.203 7  22878495.195    22878494.223 6  22878492.809 5 120227282.127 7  93683605.91646  89780090.581 5
G08  21108594.297 8  21108601.516    21108600.262 9  21108597.160 6 110926418.425 8  86436199.40449  82834680.048 6
G10  24160907.617 5  24160914.102    24160914.391 4                 126966433.788 5  98934922.54644
G14  23348299.656 6  23348304.090    23348303.125 4  23348305.570 5 122696126.350 6  95607389.68944  91623758.044 5
G21  20867168.531 7                  20867171.156 7                 109657735.108 7  85447592.33447
G22  21338790.031 8                  21338790.672 7                 112136108.669 8  87378798.63647
G27  23699283.102 6  23699289.371    23699288.609 6  23699286.961 5 124540577.138 6  97044634.30846  93001092.461 5
G28  23749040.313 6                  23749043.539 3                 124802045.093 6  97248360.80343
G32  22162432.758 8  22162439.645    22162438.867 8  22162435.488 6 116464389.630 8  90751508.01548  86970227.105 6
> 2021 01 15 01 54 30.0000000  0 10
G01  20467036.461 8  20467043.762    20467043.238 7  20467039.418 6 107555025.802 8  83809136.18847  80317085.574 6
G03  22860180.016 7  22860186.926    22860186.020 7  22860184.328 5 120131072.023 7  93608637.01247  89708245.391 5
G08  21120631.578 8  21120638.781    21120637.941 9  21120634.523 6 110989676.242 8  86485491.20449  82881918.033 6
G10  24179645.609 6  24179651.984    24179652.012 5                 127064902.161 6  99011651.12945
G14  23349132.367 6  23349136.160    23349135.352 4  23349137.035 5 122700499.331 6  95610797.18944  91627023.574 5
G21  20866048.328 8                  20866051.004 7                 109651847.521 8  85443004.60047
G22  21328002.375 8                  21328003.168 6                 112079418.846 8  87334624.76446
G27  23720165.727 6  23720173.043    23720172.000 6  23720169.594 5 124650317.456 6  97130146.24646  93083041.354 5
G28  23745781.195 6                  23745783.637 3                 124784915.716 6  97235013.23243
G32  22163808.516 8  22163815.008    22163814.586 8  22163811.465 6 116471619.573 8  90757141.75248  86975626.085 6
> 2021 01 15 01 55 00.0000000  0 10
G01  20458057.563 8  20458064.418    20458064.004 7  20458060.250 6 107507839.385 8  83772367.55947  80281848.972 6
G03  22841918.914 7  22841926.211    22841925.156 7  22841923.570 5 120035109.894 7  93533861.34047  89636585.378 5
G08  21132756.211 8  21132763.625    21132762.660 9  21132759.148 6 111053392.326 8  86535140.08949  82929498.208 6
G10  24198399.867 6  24198405.219    24198404.922 4                 127163451.598 6  99088442.92444
G14  23350073.695 6  23350077.977    23350077.332 4  23350078.918 5 122705449.099 6  95614654.14044  91630719.817 5
G21  20864974.461 7                  20864977.121 7                 109646205.151 7  85438607.95447
G22  21317287.023 8                  21317288.031 7                 112023109.376 8  87290747.27747
G27  23741078.297 6  23741085.820    23741085.246 6  23741081.859 5 124760213.605 6  97215779.56946  93165106.662 5
G28  23742618.992 6                  23742621.832 4                 124768295.997 6  97222062.79744
G32  22165296.125 7  22165302.867    22165301.816 8  22165298.695 6 116479435.376 7  90763231.99548  86981462.543 6
> 2021 01 15 01 55 30.0000000  0 10
G01  20449138.617 8  20449145.785    20449145.316 7  20449141.613 7 107460970.913 8  83735846.67147  80246849.809 7
G03  22823705.805 7  22823712.512    22823711.883 7  22823709.996 5 119939397.153 7  93459279.98847  89565111.579 5
G08  21144968.016 8  21144975.164    21144974.004 9  21144970.965 6 111117564.794 8  86585144.60749  82977419.190 6
G10  24217167.133 6  24217173.840    24217173.391 4                 127262080.475 6  99165296.59044
G14  23351125.492 6  23351129.574    23351129.168 4  23351130.820 5 122710975.069 6  95618960.08744  91634846.365 5
G21  20863947.406 8                  20863949.984 7                 109640807.880 8  85434402.28247
G22  21306644.086 8                  21306645.391 7                 111967180.850 8  87247166.61747
G27  23762020.438 6  23762027.508    23762026.719 6  23762023.715 5 124870263.445 6  97301532.67646  93247286.754 5
G28  23739553.609 6                  23739555.809 4                 124752186.030 6  97209509.57844
G32  22166895.133 8  22166901.402    22166900.598 8  22166897.168 6 116487836.772 8  90769778.54248  86987736.329 6
> 2021 01 15 01 56 00.0000000  0 10
G01  20440280.617 8  20440287.586    20440287.324 7  20440283.641 6 107414421.708 8  83699574.57347  80212089.043 6
G03  22805539.906 7  22805546.801    22805545.945 7  22805544.211 5 119843935.568 7  93384894.33247  89493825.338 5
G08  21157266.430 8  21157273.496    21157272.324 9  21157269.293 6 111182192.606 8  86635503.93549  83025680.211 6
G10  24235951.539 6  24235957.148    24235957.270 4                 127360787.492 6  99242211.12644
G14  23352286.445 6  23352290.984    23352290.332 4  23352292.898 5 122717077.060 6  95623714.88944  91639403.048 5
G21  20862967.164 8                  20862969.832 7                 109635657.571 8  85430389.05847
G22  21296073.750 8                  21296074.863 7                 111911634.453 8  87203883.72647
G27  23782990.992 6  23782997.367    23782997.281 6  23782995.035 5 124980465.343 6  97387404.28946  93329580.39915
G28  23736584.602 6                  23736586.547 3                 124736586.647 6  97197354.19043
G32  22168605.117 8  22168611.223    22168610.512 8  22168607.484 6 116496824.010 8  90776781.60248  86994447.600 6
> 2021 01 15 01 56 30.0000000  0 10
G01  20431483.992 8  20431490.273    20431490.348 7  20431486.121 6 107368192.324 8  83663551.67447  80177567.103 6
G03  22787421.781 7  22787429.070    22787428.012 7  22787426.504 5 119748726.098 7  93310705.15747  89422727.378 5
G08  21169650.875 8  21169657.953    21169657.152 9  21169654.035 6 111247274.093 8  86686216.77149  83074280.005 6
G10  24254748.570 5  24254755.094    24254754.902 4                 127459570.613 5  99319184.96244
G14  23353557.398 6  23353561.563    23353560.848 4  23353562.613 5 122723754.044 6  95628917.72444  91644389.092 5
G21  20862034.086 8                  20862036.844 7                 109630753.610 8  85426567.78347
G22  21285576.125 8                  21285577.371 7                 111856469.979 8  87160898.44147
G27  23803990.195 6  23803997.223    23803997.086 6  23803994.023 5 125090816.900 6  97473392.50646  93411985.719 5
G28  23733713.883 6                  23733716.016 3                 124721498.012 6  97185596.83343
G32  22170426.656 7  22170433.133    22170432.375 8  22170429.008 6 116506396.500 7  90784240.69548  87001595.909 6
> 2021 01 15 01 57 00.0000000  0 10
G01  20422747.664 8  20422754.422    20422754.078 7  20422750.020 6 107322283.803 8  83627778.80547  80143284.756 6
G03  22769352.789 7  22769359.645    22769358.672 7  22769357.207 5 119653770.341 7  93236713.66647  89351818.868 5
G08  21182121.828 8  21182128.926    21182127.691 9  21182124.820 6 111312807.872 8  86737282.05149  83123217.566 6
G10  24273561.438 5  24273566.852    24273567.086 4                 127558428.296 5  99396216.92344
G14  23354937.242 6  23354941.648    23354941.027 4  23354941.848 5 122731005.448 6  95634568.16244  91649804.112 5
G21  20861148.000 8                  20861150.645 7                 109626096.453 8  85422938.83347
G22  21275151.969 8                  21275152.828 7                 111801688.270 8  87118211.40547
G27  23825017.656 6  23825024.719    23825024.055 6  23825020.215 5 125201316.142 6  97559495.78546  93494501.416 5
G28  23730939.195 6                  23730941.340 4                 124706920.256 6  97174237.51244
G32  22172360.008 8  22172365.934    22172365.488 8  22172361.695 6 116516554.154 8  90792155.76048  87009181.192 6
> 2021 01 15 01 57 30.0000000  0 10
G01  20414072.672 8  20414079.473    20414079.152 7  20414075.301 7 107276697.177 8  83592256.76847  80109242.801 7
G03  22751331.289 7  22751338.410    22751337.793 7  22751336.289 5 119559069.685 7  93162920.94647  89281100.862 5
G08  21194678.328 8  21194685.168    21194684.117 9  21194681.031 6 111378792.730 8  86788698.82049  83172491.968 6
G10  24292386.344 5  24292393.539    24292393.047 4                 127657359.054 5  99473305.80444
G14  23356426.086 6  23356430.652    23356429.832 4  23356431.152 5 122738830.727 6  95640665.75444  91655647.611 5
G21  20860308.438 8                  20860311.227 7                 109621686.350 8  85419502.38447
G22  21264799.875 8                  21264801.152 7                 111747289.801 8  87075822.99847
G27  23846073.008 6  23846078.973    23846078.195 6  23846075.309 5 125311961.128 6  97645712.66046  93577125.891 5
G28  23728263.297 6                  23728264.910 4                 124692853.778 6  97163276.63044
G32  22174404.031 8  22174410.371    22174409.594 8  22174406.273 6 116527296.797 8  90800526.66748  87017203.277 6
> 2021 01 15 01 58 00.0000000  0 10
G01  20405459.039 8  20405466.070    20405465.832 7  20405461.789 6 107231433.230 8  83556986.16447  80075441.802 6
G03  22733359.992 7  22733366.383    22733365.477 7  22733363.863 6 119464625.437 7  93089328.03447  89210574.318 6
G08  21207320.047 8  21207327.281    21207326.039 9  21207323.063 6 111445226.533 8  86840465.41349  83222101.627 6
G10  24311226.859 5  24311232.984    24311232.730 4                 127756361.063 5  99550450.18544
G14  23358023.734 6  23358028.355    23358027.867 4  23358029.891 5 122747229.013 6  95647209.87944  91661919.041 5
G21  20859516.992 8                  20859519.398 7                 109617524.017 8  85416259.01447
G22  21254521.367 8                  21254522.703 7                 111693275.292 8  87033733.78947
G27  23867154.813 6  23867162.168    23867161.227 6  23867159.004 5 125422749.710 6  97732041.43946  93659857.611 5
G28  23725682.828 6                  23725686.176 4                 124679298.608 6  97152714.16544
G32  22176559.578 8  22176565.250    22176564.688 8  22176561.773 6 116538624.018 8  90809353.07848  87025661.959 6
> 2021 01 15 01 58 30.0000000  0 10
G01  20396906.969 8  20396914.133    20396913.871 7  20396909.914 6 107186493.082 8  83521967.86447  80041882.609 6
G03  22715436.563 7  22715443.352    22715442.492 7  22715440.344 5 119370439.086 7  93015936.08047  89140240.368 5
G08  21220047.508 8  21220054.746    21220053.359 9  21220050.336 6 111512108.668 8  86892581.35449  83272046.031 6
G10  24330078.695 5  24330085.469    24330084.918 4                 127855432.930 5  99627649.02744
G14  23359732.117 6  23359735.586    23359735.820 4  23359736.547 5 122756199.753 6  95654200.04944  91668617.999 5
G21  20858771.906 8                  20858774.441 7                 109613610.025 8  85413209.15047
G22  21244315.672 8                  21244317.094 7                 111639644.953 8  86991943.92047
G27  23888264.133 6  23888271.875    23888271.531 6  23888268.539 5 125533679.954 6  97818480.57546  93742695.099 5
G28  23723201.539 6                  23723203.875 4                 124666255.078 6  97142550.37144
G32  22178826.000 8  22178832.465    22178831.566 8  22178828.199 6 116550535.704 8  90818634.91848  87034557.031 6
> 2021 01 15 01 59 00.0000000  0  9
G01  20388416.766 8  20388424.012    20388423.680 7  20388419.973 6 107141877.285 8  83487202.31647  80008565.633 6
G03  22697562.742 7  22697569.820    22697568.547 7  22697567.086 6 119276511.598 7  92942745.85347  89070099.724 6
G08  21232859.445 8  21232866.410    21232865.449 9  21232862.293 6 111579436.442 8  86945044.55049  83322323.286 6
G14  23361547.195 6  23361551.453    23361551.105 4  23361552.250 5 122765741.893 6  95661635.48744  91675743.595 5
G21  20858074.469 8                  20858076.934 7                 109609944.357 8  85410352.78247
G22  21234183.164 8                  21234184.703 7                 111586398.816 8  86950453.43747
G27  23909399.852 6  23909407.145    23909406.840 6  23909404.063 5 125644749.498 6  97905028.26046  93825636.675 5
G28  23720816.000 6                  23720819.008 4                 124653723.400 6  97132785.42544
G32  22181203.945 8  22181209.801    22181209.438 8  22181205.996 6 116563031.140 8  90828371.63148  87043888.065 6
> 2021 01 15 01 59 30.0000000  0  9
G01  20379988.773 8  20379995.930    20379995.535 7  20379991.957 6 107097587.050 8  83452690.43847  79975491.756 6
G03  22679738.625 7  22679745.500    22679744.340 7  22679742.918 6 119182844.717 7  92869758.67247  89000153.665 6
G08  21245756.109 8  21245763.316    21245762.117 9  21245759.230 6 111647208.928 8  86997854.27249  83372932.616 6
G14  23363471.570 6  23363475.988    23363475.031 4  23363477.484 5 122775854.868 6  95669515.71644  91683295.489 5
G21  20857424.266 8                  20857426.820 7                 109606527.621 8  85407690.38947
G22  21224124.078 8                  21224125.520 7                 111533538.010 8  86909263.20447
G27  23930561.813 6  23930568.590    23930568.270 6  23930566.188 5 125755956.492 6  97991683.05446  93908680.844 5
G28  23718529.633 6                  23718531.398 3                 124641703.939 6  97123419.59843
G32  22183692.281 8  22183699.156    22183698.133 8  22183694.832 6 116576110.235 8  90838563.14748  87053654.947 6
> 2021 01 15 02 00 00.0000000  0  9
G01  20371622.992 8  20371629.617    20371629.621 7  20371625.793 6 107053623.350 8  83418433.01347  79942661.697 6
G03  22661963.805 7  22661970.848    22661970.094 7  22661968.766 6 119089439.689 7  92796975.54947  88930403.210 6
G08  21258737.227 8  21258744.176    21258743.117 9  21258740.086 6 111715424.710 8  87051009.42149  83423872.969 6
G14  23365504.641 6  23365508.984    23365508.031 4  23365510.504 5 122786537.918 6  95677840.17044  91691273.063 5
G21  20856821.563 8                  20856824.160 7                 109603360.304 8  85405222.35947
G22  21214138.586 8                  21214139.730 7                 111481063.101 8  86868373.68947
G27  23951750.391 6  23951756.902    23951756.160 6  23951754.043 5 125867298.970 6  98078443.42846  93991826.159 5
G28  23716339.242 6                  23716342.125 4                 124630196.419 6  97114452.68544
G32  22186292.445 7  22186298.754    22186297.840 8  22186294.695 6 116589772.718 7  90849209.24348  87063857.424 6
> 2021 01 15 02 00 30.0000000  0  9
G01  20363319.242 8  20363326.223    20363325.867 7  20363321.883 7 107009986.633 8  83384430.37747  79910075.860 7
G03  22644239.461 7  22644246.785    22644245.609 7  22644244.477 6 118996297.448 7  92724397.19047  88860848.975 6
G08  21271802.133 8  21271809.195    21271808.102 9  21271804.926 6 111784081.324 8  87104508.07749  83475142.514 6
G14  23367645.586 6  23367650.289    23367649.566 4  23367650.949 5 122797789.728 6  95686607.81844  91699675.434 5
G21  20856266.117 8                  20856268.766 7                 109600442.278 8  85402948.56947
G22  21204226.617 8                  21204227.500 7                 111428973.922 8  86827784.72347
G27  23972963.461 6  23972969.887    23972969.480 6  23972966.855 5 125978774.338 6  98165307.33646  94075070.756 5
G28  23714247.031 6                  23714249.293 4                 124619200.949 6  97105884.80744
G32  22189003.352 8  22189009.422    22189008.543 8  22189005.266 6 116604017.647 8  90860309.20348  87074494.899 6
> 2021 01 15 02 01 00.0000000  0  9
G01  20355077.992 8  20355084.969    20355084.320 7  20355080.535 7 106966678.169 8  83350683.52447  79877735.114 7
G03  22626565.477 7  22626572.813    22626571.727 7  22626570.031 6 118903419.692 7  92652024.92247  88791492.188 6
G08  21284950.805 8  21284958.266    21284956.773 9  21284953.438 6 111853178.214 8  87158349.80549  83526740.823 6
G14  23369895.180 6  23369899.602    23369898.805 4  23369900.449 5 122809609.875 6  95695818.28944  91708502.154 5
G21  20855758.719 7                  20855761.074 7                 109597774.385 7  85400869.69047
G22  21194387.531 8                  21194388.938 7                 111377271.197 8  86787496.89647
G27  23994201.539 6  23994207.605    23994207.168 6  23994204.234 5 126090380.956 6  98252273.53146  94158413.313 5
G28  23712251.781 6                  23712254.285 4                 124608717.974 6  97097716.25344
G32  22191825.141 7  22191831.348    22191830.074 8  22191827.164 6 116618845.003 7  90871863.00548  87085567.295 6
> 2021 01 15 02 01 30.0000000  0 10
G01  20346898.883 8  20346906.281    20346905.551 7  20346901.852 6 106923698.320 8  83317192.73547  79845639.779 6
G03  22608941.969 7  22608949.066    22608947.918 7  22608946.434 6 118810807.088 7  92579859.25847  88722333.443 6
G08  21298182.875 8  21298189.723    21298188.688 9  21298185.637 6 111922712.513 8  87212532.36349  83578665.788 6
G14  23372252.297 6  23372256.727    23372255.453 4  23372257.105 5 122821996.818 6  95705470.46144  91717752.142 5
G17  25454225.195 6
G21  20855298.500 8                  20855300.973 7                 109595356.243 8  85398985.42347
G22  21184622.602 8                  21184623.734 7                 111325954.673 8  86747510.00947
G27  24015463.359 6  24015470.262    24015470.152 6  24015467.148 5 126202116.103 6  98339339.87446  94241851.909 5
G28  23710354.133 6                  23710357.051 4                 124598747.165 6  97089946.77144
G32  22194756.875 7  22194763.383    22194762.539 8  22194759.078 6 116634253.694 7  90883869.79248  87097073.787 6
> 2021 01 15 02 02 00.0000000  0 10
G01  20338783.219 8  20338789.996    20338789.598 7  20338785.828 7 106881048.244 8  83283958.90747  79813790.688 7
G03  22591368.813 7  22591376.242    22591375.262 7  22591373.645 6 118718461.285 7  92507901.49547  88653373.911 6
G08  21311497.633 8  21311504.711    21311503.609 8  21311500.695 6 111992683.134 8  87267054.91548  83630916.548 6
G14  23374716.711 6  23374721.359    23374720.902 4  23374722.539 5 122834949.933 6  95715563.77544  91727424.823 5
G17  25434765.672 5  25434769.246    25434768.914 3                 133660595.654 5 104151123.94043
G21  20854885.820 7                  20854888.391 7                 109593188.497 7  85397296.27147
G22  21174930.984 8                  21174932.020 7                 111275025.312 8  86707824.80547
G27  24036750.570 6  24036757.230    24036757.414 6  24036754.367 5 126313978.002 6  98426504.96946  94325385.150 5
G28  23708554.492 6                  23708557.152 4                 124589288.440 6  97082576.35144
G32  22197799.797 7  22197806.164    22197805.078 8  22197801.848 6 116650243.566 7  90896329.44548  87109014.311 6
> 2021 01 15 02 02 30.0000000  0 11
G01  20330730.094 8  20330736.938    20330736.750 7  20330732.887 6 106838729.685 8  83250983.40647  79782189.173 6
G03  22573847.461 7  22573854.523    22573853.598 7  22573852.094 6 118626384.368 7  92436153.26647  88584615.189 6
G08  21324895.625 8  21324902.633    21324901.547 9  21324898.676 6 112063089.166 8  87321916.75149  83683492.461 6
G10  24481340.664 5                  24481346.273 2                 128650349.50715 100247017.85642
G14  23377289.438 6  23377294.250    23377293.473 4  23377294.820 5 122848469.092 6  95726098.17144  91737520.298 5
G17  25415316.711 6  25415319.395    25415318.781 3                 133558387.00416 104071480.75543
G21  20854521.102 8                  20854523.809 7                 109591272.839 8  85395803.55047
G22  21165313.391 8                  21165314.242 7                 111224484.224 8  86668442.14147
G27  24058060.766 6  24058067.648    24058067.586 6  24058064.406 5 126425965.386 6  98513767.83346  94409012.052 5
G28  23706852.141 6                  23706854.906 4                 124580342.641 6  97075605.59444
G32  22200953.313 7  22200959.695    22200958.109 8  22200954.691 6 116666814.903 7  90909242.19348  87121389.038 6
> 2021 01 15 02 03 00.0000000  0 11
G01  20322740.258 8  20322747.098    20322746.832 7  20322742.969 6 106796742.272 8  83218265.94647  79750834.934 6
G03  22556376.719 7  22556384.266    22556383.316 7  22556381.555 6 118534576.392 7  92364614.58547  88516057.315 6
G08  21338375.570 8  21338382.773    21338381.695 8  21338378.309 6 112133927.600 8  87377115.52848  83736391.323 6
G10  24500300.078 5                  24500304.699 3                 128749974.20315 100324650.17743
G14  23379969.578 6  23379973.855    23379973.383 4  23379975.105 5 122862552.038 6  95737071.88744  91748036.845 5
G17  25395876.086 6  25395880.348    25395879.809 3                 133456231.134 6 103991878.76443
G21  20854204.648 7                  20854206.934 7                 109589608.009 7  85394506.27447
G22  21155769.469 8                  21155770.352 7                 111174330.209 8  86629361.10247
G27  24079394.523 6  24079401.008    24079400.285 6  24079397.266 5 126538074.897 6  98601125.88246  94492730.158 5
G28  23705246.977 6                  23705249.383 4                 124571908.752 6  97069033.73644
G32  22204216.625 8  22204223.184    22204221.934 8  22204218.828 5 116683965.888 8  90922606.59848  87134196.577 5
> 2021 01 15 02 03 30.0000000  0 11
G01  20314813.523 8  20314820.715    20314820.156 7  20314816.461 6 106755087.944 8  83185808.02047  79719729.433 6
G03  22538958.352 7  22538965.121    22538964.387 7  22538962.715 6 118443039.637 7  92293287.25647  88447701.933 6
G08  21351937.805 8  21351945.051    21351943.836 8  21351940.559 6 112205197.895 8  87432650.81448  83789612.627 6
G10  24519267.906 5  24519275.027    24519274.016 3                 128849654.05515 100402322.74343
G14  23382756.641 6  23382760.797    23382759.977 4  23382762.215 5 122877198.879 6  95748485.00444  91758974.392 5
G17  25376447.750 6  25376451.637    25376450.488 3                 133354131.494 6 103912320.52943
G21  20853935.680 8                  20853938.230 7                 109588195.378 8  85393405.53047
G22  21146299.164 8                  21146300.230 7                 111124564.690 8  86590582.78047
G27  24100751.766 6  24100758.145    24100757.223 6  24100754.680 5 126650305.490 6  98688578.27446  94576538.708 5
G28  23703739.969 6                  23703743.059 3                 124563987.700 6  97062861.46143
G32  22207591.016 8  22207597.371    22207596.352 8  22207592.859 6 116701697.032 8  90936423.08148  87147437.391 6
> 2021 01 15 02 04 00.0000000  0 11
G01  20306950.375 8  20306957.355    20306957.195 7  20306953.441 7 106713766.993 8  83153609.87047  79688872.870 7
G03  22521590.945 7  22521598.105    22521597.328 7  22521595.660 6 118351774.768 7  92222171.80047  88379549.621 6
G08  21365581.945 8  21365589.250    21365587.918 8  21365584.793 6 112276897.658 8  87488520.75248  83843154.637 6
G10  24538246.992 5  24538253.609    24538252.527 4                 128949385.79115 100480035.70544
G14  23385650.836 6  23385655.270    23385654.848 4  23385656.551 5 122892407.886 6  95760336.16444  91770331.74715
G17  25357029.414 5  25357033.953    25357033.055 3                 133252088.70715 103832806.78043
G21  20853714.688 8                  20853717.426 7                 109587034.955 8  85392501.29647
G22  21136903.078 8                  21136904.379 7                 111075187.750 8  86552107.25647
G27  24122130.789 6  24122137.801    24122137.012 6  24122134.121 5 126762654.389 6  98776122.85046  94660435.531 5
G28  23702330.414 6                  23702332.996 4                 124556578.959 6  97057088.42844
G32  22211075.375 8  22211081.609    22211080.836 8  22211077.359 6 116720007.072 8  90950690.65948  87161110.477 6
> 2021 01 15 02 04 30.0000000  0 11
G01  20299150.828 8  20299157.723    20299157.492 7  20299153.742 7 106672780.210 8  83121672.11647  79658265.851 7
G03  22504275.961 7  22504282.617    22504281.992 7  22504280.637 6 118260782.945 7  92151269.10447  88311601.213 6
G08  21379307.414 8  21379314.543    21379313.223 8  21379310.395 6 112349025.141 8  87544723.98348  83897016.074 6
G10  24557233.422 5  24557240.230    24557240.055 3                 129049167.824 5 100557787.87143
G14  23388651.492 6  23388656.434    23388656.004 4  23388657.574 5 122908177.987 6  95772624.51144  91782108.060 5
G17  25337622.656 5  25337626.816    25337625.457 3                 133150105.190 5 103753338.93943
G21  20853541.906 7                  20853544.719 7                 109586126.818 7  85391793.65147
G22  21127580.820 8                  21127582.121 7                 111026199.762 8  86513934.80147
G27  24143532.266 6  24143539.348    24143538.402 6  24143535.320 5 126875119.476 6  98863757.96746  94744419.207 5
G28  23701017.977 6                  23701020.453 4                 124549682.312 6  97051714.41644
G32  22214669.414 7  22214676.141    22214675.094 8  22214671.621 6 116738895.336 7  90965408.79748  87175215.384 6
